[{"SITUS FULL ADDRESS":"CO","SITUS CITY":"","ALTERNATE APN":"128 48 300","COUNTY":"LAS ANIMAS","LOT AREA":1578179,"LOT ACREAGE":36.23,"LATITUDE":"37.590351329177","LONGITUDE":"-104.224805620867","APN - UNFORMATTED":"=\"12848300\"","IN FLOOD ZONE":false,"OWNER MAILING NAME":"ALBERT & DEC MANSQURIAN","MAILING STREET ADDRESS":"4825 ASTROZON BLVD LT-250","MAIL CITY":"COLORADO SPRINGS","MAIL STATE":"CO","MAIL ZIPZIP4":"80916-2656","MARKET TOTAL VALUE":12681,"id":1,"avgPPA":1990.3333333333333,"avgPPA2":374.6666666666667,"avgPPA3":1336,"estValue":72110,"estValue2":13574,"estValue3":48403,"offer":6700,"offer1":36000,"offer2":6700,"offer3":24200,"offerPPA":0,"jasonOffer":0,"jasonEstValue":0,"statusColor":"green","marketValueFlag":false,"propertyLink":"https://www.google.com/search?q=CO","soldArr":[{"ADDRESS":"CO ","CITY":"HOEHNE","STATE":"CO","SOLD PRICE":["12500 "],"LOT AREA":1626966,"LOT ACREAGE":37.35,"PRICE PER ACRE":335,"LATITUDE":"37.59485642","LONGITUDE":"-104.1716585","distance":2.93},{"ADDRESS":"CO ","CITY":"HOEHNE","STATE":"CO","SOLD PRICE":["183320 "],"LOT AREA":1528956,"LOT ACREAGE":35.1,"PRICE PER ACRE":5223,"LATITUDE":"37.6259344","LONGITUDE":"-104.1967702","distance":2.9},{"ADDRESS":"CO ","CITY":"HOEHNE","STATE":"CO","SOLD PRICE":["14900 "],"LOT AREA":1572080,"LOT ACREAGE":36.09,"PRICE PER ACRE":413,"LATITUDE":"37.62018129","LONGITUDE":"-104.1485417","distance":4.66},{"ADDRESS":"111 N HENDREN AVE  WALSENBURG, CO 81089 ","CITY":"HOEHNE","STATE":"CO","SOLD PRICE":["12900 "],"LOT AREA":1530698,"LOT ACREAGE":35.14,"PRICE PER ACRE":367,"LATITUDE":"37.61335533","LONGITUDE":"-104.139666","distance":4.92},{"ADDRESS":"CO ","CITY":"HOEHNE","STATE":"CO","SOLD PRICE":["13499 "],"LOT AREA":1711472,"LOT ACREAGE":39.29,"PRICE PER ACRE":344,"LATITUDE":"37.63062128","LONGITUDE":"-104.1558974","distance":4.69}],"estimatedValue":13574},{"SITUS FULL ADDRESS":"CO","SITUS CITY":"","ALTERNATE APN":"100 40 300","COUNTY":"LAS ANIMAS","LOT AREA":1525036,"LOT ACREAGE":35.01,"LATITUDE":"37.147148804548","LONGITUDE":"-104.756759671539","APN - UNFORMATTED":"=\"10040300\"","IN FLOOD ZONE":false,"OWNER MAILING NAME":"DAVID SHIER & ROGER VANDERWALL","MAILING STREET ADDRESS":"PO BOX 67","MAIL CITY":"TRINIDAD","MAIL STATE":"CO","MAIL ZIPZIP4":"81082","MARKET TOTAL VALUE":35010,"id":2,"avgPPA":869,"avgPPA2":864.6666666666666,"avgPPA3":844,"estValue":30424,"estValue2":30272,"estValue3":29548,"offer":15100,"offer1":15200,"offer2":15100,"offer3":14700,"offerPPA":0,"jasonOffer":0,"jasonEstValue":0,"statusColor":"green","marketValueFlag":false,"propertyLink":"https://www.google.com/search?q=CO","soldArr":[{"ADDRESS":"CO ","CITY":"PRIMERO","STATE":"CO","SOLD PRICE":["30000 "],"LOT AREA":1525036,"LOT ACREAGE":35.01,"PRICE PER ACRE":857,"LATITUDE":"37.15324015","LONGITUDE":"-104.7634125","distance":0.56},{"ADDRESS":"CO ","CITY":"PRIMERO","STATE":"CO","SOLD PRICE":["35000 "],"LOT AREA":1525036,"LOT ACREAGE":35.01,"PRICE PER ACRE":1000,"LATITUDE":"37.15384872","LONGITUDE":"-104.7594827","distance":0.49},{"ADDRESS":"CO ","CITY":"PRIMERO","STATE":"CO","SOLD PRICE":["30000 "],"LOT AREA":1742400,"LOT ACREAGE":40,"PRICE PER ACRE":750,"LATITUDE":"37.15867436","LONGITUDE":"-104.7467317","distance":0.97},{"ADDRESS":"CO ","CITY":"PRIMERO","STATE":"CO","SOLD PRICE":["25000 "],"LOT AREA":1742400,"LOT ACREAGE":40,"PRICE PER ACRE":625,"LATITUDE":"37.16952814","LONGITUDE":"-104.7513959","distance":1.57},{"ADDRESS":"23711 SAN JUAN MESA TRL  TRINIDAD, CO 81082 ","CITY":"PRIMERO","STATE":"CO","SOLD PRICE":["35000 "],"LOT AREA":1544202,"LOT ACREAGE":35.45,"PRICE PER ACRE":987,"LATITUDE":"37.13449095","LONGITUDE":"-104.7269607","distance":1.86}],"estimatedValue":30272},{"SITUS FULL ADDRESS":"CO","SITUS CITY":"","ALTERNATE APN":"142 99 502","COUNTY":"LAS ANIMAS","LOT AREA":1790316,"LOT ACREAGE":41.1,"LATITUDE":"37.3158508186701","LONGITUDE":"-104.038716473201","APN - UNFORMATTED":"=\"14299502\"","IN FLOOD ZONE":false,"OWNER MAILING NAME":"ISSIES PLACE LLC A TEXAS LTD LIABLITY CO","MAILING STREET ADDRESS":"PO BOX 3099","MAIL CITY":"PUEBLO","MAIL STATE":"CO","MAIL ZIPZIP4":"81005","MARKET TOTAL VALUE":1407,"id":3,"avgPPA":null,"avgPPA2":null,"avgPPA3":0,"estValue":null,"estValue2":null,"estValue3":0,"offer":0,"offer1":null,"offer2":null,"offer3":0,"offerPPA":0,"jasonOffer":0,"jasonEstValue":0,"statusColor":"red","marketValueFlag":false,"propertyLink":"https://www.google.com/search?q=CO","soldArr":[],"estimatedValue":0},{"SITUS FULL ADDRESS":"CO","SITUS CITY":"","ALTERNATE APN":"142 29 800","COUNTY":"LAS ANIMAS","LOT AREA":1528956,"LOT ACREAGE":35.1,"LATITUDE":"37.449865287012","LONGITUDE":"-104.662954785205","APN - UNFORMATTED":"=\"14229800\"","IN FLOOD ZONE":false,"OWNER MAILING NAME":"GOLD MINE LLC","MAILING STREET ADDRESS":"PO BOX 740882","MAIL CITY":"ARVADA","MAIL STATE":"CO","MAIL ZIPZIP4":"80006","MARKET TOTAL VALUE":70200,"id":4,"avgPPA":2045.3333333333333,"avgPPA2":1963.6666666666667,"avgPPA3":1871,"estValue":71791,"estValue2":68925,"estValue3":65672,"offer":34400,"offer1":35800,"offer2":34400,"offer3":32800,"offerPPA":0,"jasonOffer":0,"jasonEstValue":0,"statusColor":"green","marketValueFlag":false,"propertyLink":"https://www.google.com/search?q=CO","soldArr":[{"ADDRESS":"31875 COUNT RD 53 7  TRINIDAD, CO 81082 ","CITY":"AGUILAR","STATE":"CO","SOLD PRICE":["77500 "],"LOT AREA":1528956,"LOT ACREAGE":35.1,"PRICE PER ACRE":2208,"LATITUDE":"37.45305691","LONGITUDE":"-104.6644549","distance":0.24},{"ADDRESS":"32013 COUNTY ROAD 53 7  TRINIDAD, CO 81082 ","CITY":"AGUILAR","STATE":"CO","SOLD PRICE":["69900 "],"LOT AREA":1528956,"LOT ACREAGE":35.1,"PRICE PER ACRE":1991,"LATITUDE":"37.45476349","LONGITUDE":"-104.665103","distance":0.36},{"ADDRESS":"CO ","CITY":"AGUILAR","STATE":"CO","SOLD PRICE":["68000 "],"LOT AREA":1528956,"LOT ACREAGE":35.1,"PRICE PER ACRE":1937,"LATITUDE":"37.46019466","LONGITUDE":"-104.6745088","distance":0.95},{"ADDRESS":"CO ","CITY":"AGUILAR","STATE":"CO","SOLD PRICE":["44000 "],"LOT AREA":1526778,"LOT ACREAGE":35.05,"PRICE PER ACRE":1255,"LATITUDE":"37.44562827","LONGITUDE":"-104.6875304","distance":1.38},{"ADDRESS":"CO ","CITY":"AGUILAR","STATE":"CO","SOLD PRICE":["69900 "],"LOT AREA":1550736,"LOT ACREAGE":35.6,"PRICE PER ACRE":1963,"LATITUDE":"37.4627566","LONGITUDE":"-104.6780251","distance":1.22}],"estimatedValue":68925},{"SITUS FULL ADDRESS":"32509 BEAR PAW LN  TRINIDAD, CO 81082","SITUS CITY":"TRINIDAD","ALTERNATE APN":"138 30 505","COUNTY":"LAS ANIMAS","LOT AREA":1536361,"LOT ACREAGE":35.27,"LATITUDE":"37.0874795","LONGITUDE":"-104.5619725","APN - UNFORMATTED":"=\"13830505\"","IN FLOOD ZONE":false,"OWNER MAILING NAME":"SALLY & TERRY HARTZELL","MAILING STREET ADDRESS":"3720 W COCHISE DR","MAIL CITY":"PHOENIX","MAIL STATE":"AZ","MAIL ZIPZIP4":"85051-1146","MARKET TOTAL VALUE":1151,"id":5,"avgPPA":1879.3333333333333,"avgPPA2":1441.3333333333333,"avgPPA3":1673,"estValue":66284,"estValue2":50836,"estValue3":59007,"offer":25400,"offer1":33100,"offer2":25400,"offer3":29500,"offerPPA":0,"jasonOffer":0,"jasonEstValue":0,"statusColor":"green","marketValueFlag":false,"propertyLink":"https://www.google.com/search?q=32509+BEAR+PAW+LN+TRINIDAD,+CO+81082","soldArr":[{"ADDRESS":"33622 VISTA WEST DR  TRINIDAD, CO 81082 ","CITY":"TRINIDAD","STATE":"CO","SOLD PRICE":["39000 "],"LOT AREA":1629144,"LOT ACREAGE":37.4,"PRICE PER ACRE":1043,"LATITUDE":"37.08848466","LONGITUDE":"-104.5486214","distance":0.74},{"ADDRESS":"33020 OAK WAY  CO ","CITY":"TRINIDAD","STATE":"CO","SOLD PRICE":["59000 "],"LOT AREA":1524600,"LOT ACREAGE":35,"PRICE PER ACRE":1686,"LATITUDE":"37.08236116","LONGITUDE":"-104.5464371","distance":0.93},{"ADDRESS":"7008 PINON WAY  TRINIDAD, CO 81082 ","CITY":"TRINIDAD","STATE":"CO","SOLD PRICE":["105000 "],"LOT AREA":1524600,"LOT ACREAGE":35,"PRICE PER ACRE":3000,"LATITUDE":"37.08485241","LONGITUDE":"-104.5564714","distance":0.35},{"ADDRESS":"32010 OWEN BALDWIN PKWY  TRINIDAD, CO 81082 ","CITY":"TRINIDAD","STATE":"CO","SOLD PRICE":["55600 "],"LOT AREA":1528956,"LOT ACREAGE":35.1,"PRICE PER ACRE":1584,"LATITUDE":"37.08507774","LONGITUDE":"-104.5708475","distance":0.52},{"ADDRESS":"32316 OWEN BALDWIN PKWY  TRINIDAD, CO 81082 ","CITY":"TRINIDAD","STATE":"CO","SOLD PRICE":["37000 "],"LOT AREA":1528956,"LOT ACREAGE":35.1,"PRICE PER ACRE":1054,"LATITUDE":"37.08447547","LONGITUDE":"-104.5664569","distance":0.32}],"estimatedValue":50836},{"SITUS FULL ADDRESS":"CO","SITUS CITY":"","ALTERNATE APN":"136 47 008","COUNTY":"LAS ANIMAS","LOT AREA":1528956,"LOT ACREAGE":35.1,"LATITUDE":"37.3158508186701","LONGITUDE":"-104.038716473201","APN - UNFORMATTED":"=\"13647008\"","IN FLOOD ZONE":false,"OWNER MAILING NAME":"ROLAND & LORI GILLENWATER","MAILING STREET ADDRESS":"PO BOX 810","MAIL CITY":"CREEDE","MAIL STATE":"CO","MAIL ZIPZIP4":"81130","MARKET TOTAL VALUE":1201,"id":6,"avgPPA":null,"avgPPA2":null,"avgPPA3":0,"estValue":null,"estValue2":null,"estValue3":0,"offer":0,"offer1":null,"offer2":null,"offer3":0,"offerPPA":0,"jasonOffer":0,"jasonEstValue":0,"statusColor":"red","marketValueFlag":false,"propertyLink":"https://www.google.com/search?q=CO","soldArr":[],"estimatedValue":0},{"SITUS FULL ADDRESS":"20145 WALKING STICK RD  CO","SITUS CITY":"","ALTERNATE APN":"103 67 602","COUNTY":"LAS ANIMAS","LOT AREA":1528956,"LOT ACREAGE":35.1,"LATITUDE":"37.2835285","LONGITUDE":"-104.528235","APN - UNFORMATTED":"=\"10367602\"","IN FLOOD ZONE":false,"OWNER MAILING NAME":"PEPPER DEVELOPMENT LLC","MAILING STREET ADDRESS":"PO BOX 76","MAIL CITY":"AGUILAR","MAIL STATE":"CO","MAIL ZIPZIP4":"81020","MARKET TOTAL VALUE":12285,"id":7,"avgPPA":751.6666666666666,"avgPPA2":789,"avgPPA3":725,"estValue":26384,"estValue2":27694,"estValue3":25448,"offer":13800,"offer1":13100,"offer2":13800,"offer3":12700,"offerPPA":0,"jasonOffer":0,"jasonEstValue":0,"statusColor":"green","marketValueFlag":false,"propertyLink":"https://www.google.com/search?q=20145+WALKING+STICK+RD+CO","soldArr":[{"ADDRESS":"33203 COUNTY ROAD 40  TRINIDAD, CO 81082 ","CITY":"TRINIDAD","STATE":"CO","SOLD PRICE":["39950 "],"LOT AREA":1528956,"LOT ACREAGE":35.1,"PRICE PER ACRE":1138,"LATITUDE":"37.28390092","LONGITUDE":"-104.5499288","distance":1.19},{"ADDRESS":"22990 RIDGE RD  TRINIDAD, CO 81082 ","CITY":"AGUILAR","STATE":"CO","SOLD PRICE":["30000 "],"LOT AREA":1830391,"LOT ACREAGE":42.02,"PRICE PER ACRE":714,"LATITUDE":"37.32361745","LONGITUDE":"-104.5412643","distance":2.86},{"ADDRESS":"33750 S CIRCLE  TRINIDAD, CO 81082 ","CITY":"AGUILAR","STATE":"CO","SOLD PRICE":["35000 "],"LOT AREA":1527649,"LOT ACREAGE":35.07,"PRICE PER ACRE":998,"LATITUDE":"37.31840758","LONGITUDE":"-104.5415716","distance":2.52},{"ADDRESS":"22910 BLACK HILLS DR  TRINIDAD, CO 81082 ","CITY":"HOEHNE","STATE":"CO","SOLD PRICE":["23000 "],"LOT AREA":1528956,"LOT ACREAGE":35.1,"PRICE PER ACRE":655,"LATITUDE":"37.32271646","LONGITUDE":"-104.5070497","distance":2.95},{"ADDRESS":"CO ","CITY":"TRINIDAD","STATE":"CO","SOLD PRICE":["4750 "],"LOT AREA":1742400,"LOT ACREAGE":40,"PRICE PER ACRE":119,"LATITUDE":"37.24894151","LONGITUDE":"-104.5145423","distance":2.51}],"estimatedValue":27694},{"SITUS FULL ADDRESS":"CO","SITUS CITY":"","ALTERNATE APN":"111 33 200","COUNTY":"LAS ANIMAS","LOT AREA":1742400,"LOT ACREAGE":40,"LATITUDE":"37.5257628671903","LONGITUDE":"-104.332454844652","APN - UNFORMATTED":"=\"11133200\"","IN FLOOD ZONE":false,"OWNER MAILING NAME":"B FOGARTY","MAILING STREET ADDRESS":"PO BOX 283","MAIL CITY":"CASCADE","MAIL STATE":"CO","MAIL ZIPZIP4":"80809","MARKET TOTAL VALUE":14000,"id":8,"avgPPA":266.6666666666667,"avgPPA2":266.6666666666667,"avgPPA3":265,"estValue":10667,"estValue2":10667,"estValue3":10600,"offer":5300,"offer1":5300,"offer2":5300,"offer3":5300,"offerPPA":0,"jasonOffer":0,"jasonEstValue":0,"statusColor":"green","marketValueFlag":false,"propertyLink":"https://www.google.com/search?q=CO","soldArr":[{"ADDRESS":"43485 COUNTY ROAD 64 8  TRINIDAD, CO 81082 ","CITY":"AGUILAR","STATE":"CO","SOLD PRICE":["11000 "],"LOT AREA":1742400,"LOT ACREAGE":40,"PRICE PER ACRE":275,"LATITUDE":"37.50034576","LONGITUDE":"-104.3693671","distance":2.68},{"ADDRESS":"CO ","CITY":"HOEHNE","STATE":"CO","SOLD PRICE":["10997 "],"LOT AREA":1742400,"LOT ACREAGE":40,"PRICE PER ACRE":275,"LATITUDE":"37.48938712","LONGITUDE":"-104.3422821","distance":2.57},{"ADDRESS":"CO ","CITY":"HOEHNE","STATE":"CO","SOLD PRICE":["10000 "],"LOT AREA":1742400,"LOT ACREAGE":40,"PRICE PER ACRE":250,"LATITUDE":"37.50740822","LONGITUDE":"-104.2964055","distance":2.35},{"ADDRESS":"CO ","CITY":"HOEHNE","STATE":"CO","SOLD PRICE":["12500 "],"LOT AREA":1576872,"LOT ACREAGE":36.2,"PRICE PER ACRE":345,"LATITUDE":"37.4964107","LONGITUDE":"-104.2743459","distance":3.78},{"ADDRESS":"CO ","CITY":"HOEHNE","STATE":"CO","SOLD PRICE":["7123 "],"LOT AREA":1742400,"LOT ACREAGE":40,"PRICE PER ACRE":178,"LATITUDE":"37.48550089","LONGITUDE":"-104.2921596","distance":3.55}],"estimatedValue":10667},{"SITUS FULL ADDRESS":"CO","SITUS CITY":"","ALTERNATE APN":"118 75 500","COUNTY":"LAS ANIMAS","LOT AREA":1554656,"LOT ACREAGE":35.69,"LATITUDE":"37.4497532126074","LONGITUDE":"-104.280993020405","APN - UNFORMATTED":"=\"11875500\"","IN FLOOD ZONE":false,"OWNER MAILING NAME":"CRAIG GASHORN","MAILING STREET ADDRESS":"66 DUNLAP DR","MAIL CITY":"FLORISSANT","MAIL STATE":"CO","MAIL ZIPZIP4":"80816-9504","MARKET TOTAL VALUE":1085,"id":9,"avgPPA":268.3333333333333,"avgPPA2":226.66666666666666,"avgPPA3":230,"estValue":9577,"estValue2":8090,"estValue3":8209,"offer":4000,"offer1":4700,"offer2":4000,"offer3":4100,"offerPPA":0,"jasonOffer":0,"jasonEstValue":0,"statusColor":"green","marketValueFlag":false,"propertyLink":"https://www.google.com/search?q=CO","soldArr":[{"ADDRESS":"CO ","CITY":"HOEHNE","STATE":"CO","SOLD PRICE":["7123 "],"LOT AREA":1742400,"LOT ACREAGE":40,"PRICE PER ACRE":178,"LATITUDE":"37.48550089","LONGITUDE":"-104.2921596","distance":2.54},{"ADDRESS":"51015 COUNTY ROAD 64  MODEL, CO 81059 ","CITY":"HOEHNE","STATE":"CO","SOLD PRICE":["9997 "],"LOT AREA":1546380,"LOT ACREAGE":35.5,"PRICE PER ACRE":282,"LATITUDE":"37.45900053","LONGITUDE":"-104.2278854","distance":2.98},{"ADDRESS":"CO ","CITY":"HOEHNE","STATE":"CO","SOLD PRICE":["8000 "],"LOT AREA":1585584,"LOT ACREAGE":36.4,"PRICE PER ACRE":220,"LATITUDE":"37.46949111","LONGITUDE":"-104.2180498","distance":3.71},{"ADDRESS":"CO ","CITY":"HOEHNE","STATE":"CO","SOLD PRICE":["12500 "],"LOT AREA":1576872,"LOT ACREAGE":36.2,"PRICE PER ACRE":345,"LATITUDE":"37.4964107","LONGITUDE":"-104.2743459","distance":3.24},{"ADDRESS":"CO ","CITY":"HOEHNE","STATE":"CO","SOLD PRICE":["4600 "],"LOT AREA":1581228,"LOT ACREAGE":36.3,"PRICE PER ACRE":127,"LATITUDE":"37.49654247","LONGITUDE":"-104.2581232","distance":3.47}],"estimatedValue":8090},{"SITUS FULL ADDRESS":"12320 KUNZITE RD  TRINIDAD, CO 81082","SITUS CITY":"TRINIDAD","ALTERNATE APN":"135 70 000","COUNTY":"LAS ANIMAS","LOT AREA":1524600,"LOT ACREAGE":35,"LATITUDE":"37.1655373847087","LONGITUDE":"-104.442893098837","APN - UNFORMATTED":"=\"13570000\"","IN FLOOD ZONE":false,"OWNER MAILING NAME":"DOUGLAS & CYNTHIA GENOVA","MAILING STREET ADDRESS":"39100 KUNZITE RD","MAIL CITY":"TRINIDAD","MAIL STATE":"CO","MAIL ZIPZIP4":"81082-9407","MARKET TOTAL VALUE":35000,"id":10,"avgPPA":1165,"avgPPA2":1165,"avgPPA3":1161,"estValue":40775,"estValue2":40775,"estValue3":40635,"offer":20300,"offer1":20300,"offer2":20300,"offer3":20300,"offerPPA":0,"jasonOffer":0,"jasonEstValue":0,"statusColor":"green","marketValueFlag":false,"propertyLink":"https://www.google.com/search?q=12320+KUNZITE+RD+TRINIDAD,+CO+81082","soldArr":[{"ADDRESS":"39002 NICOLO RD  CO ","CITY":"HOEHNE","STATE":"CO","SOLD PRICE":["40000 "],"LOT AREA":1526342,"LOT ACREAGE":35.04,"PRICE PER ACRE":1142,"LATITUDE":"37.17388112","LONGITUDE":"-104.4475417","distance":0.63},{"ADDRESS":"12450 KUNZITE RD  TRINIDAD, CO 81082 ","CITY":"HOEHNE","STATE":"CO","SOLD PRICE":["39000 "],"LOT AREA":1524600,"LOT ACREAGE":35,"PRICE PER ACRE":1114,"LATITUDE":"37.171716","LONGITUDE":"-104.4450559","distance":0.44},{"ADDRESS":"37300 KUNZITE RD  TRINIDAD, CO 81082 ","CITY":"HOEHNE","STATE":"CO","SOLD PRICE":["35000 "],"LOT AREA":1524600,"LOT ACREAGE":35,"PRICE PER ACRE":1000,"LATITUDE":"37.18692563","LONGITUDE":"-104.4582211","distance":1.7},{"ADDRESS":"12900 CORUNDUM RD  TRINIDAD, CO 81082 ","CITY":"HOEHNE","STATE":"CO","SOLD PRICE":["45000 "],"LOT AREA":1494544,"LOT ACREAGE":34.31,"PRICE PER ACRE":1312,"LATITUDE":"37.17724931","LONGITUDE":"-104.4706766","distance":1.73},{"ADDRESS":"13245 RUBIA CT  TRINIDAD, CO 81082 ","CITY":"HOEHNE","STATE":"CO","SOLD PRICE":["43500 "],"LOT AREA":1529827,"LOT ACREAGE":35.12,"PRICE PER ACRE":1239,"LATITUDE":"37.18030831","LONGITUDE":"-104.4671495","distance":1.68}],"estimatedValue":40775},{"SITUS FULL ADDRESS":"24315 BIGHORN DR  TRINIDAD, CO 81082","SITUS CITY":"TRINIDAD","ALTERNATE APN":"121 51 700","COUNTY":"LAS ANIMAS","LOT AREA":1531570,"LOT ACREAGE":35.16,"LATITUDE":"37.4035737544814","LONGITUDE":"-104.717605535338","APN - UNFORMATTED":"=\"12151700\"","IN FLOOD ZONE":false,"OWNER MAILING NAME":"SUNWEST","MAILING STREET ADDRESS":"PO BOX 36371","MAIL CITY":"ALBUQUERQUE","MAIL STATE":"NM","MAIL ZIPZIP4":"87176-6371","MARKET TOTAL VALUE":35160,"id":11,"avgPPA":1561.3333333333333,"avgPPA2":1561.3333333333333,"avgPPA3":1565,"estValue":54896,"estValue2":54896,"estValue3":55025,"offer":27400,"offer1":27400,"offer2":27400,"offer3":27500,"offerPPA":0,"jasonOffer":0,"jasonEstValue":0,"statusColor":"green","marketValueFlag":false,"propertyLink":"https://www.google.com/search?q=24315+BIGHORN+DR+TRINIDAD,+CO+81082","soldArr":[{"ADDRESS":"23585 BIGHORN DR  TRINIDAD, CO 81082 ","CITY":"AGUILAR","STATE":"CO","SOLD PRICE":["65000 "],"LOT AREA":1807304,"LOT ACREAGE":41.49,"PRICE PER ACRE":1567,"LATITUDE":"37.40310305","LONGITUDE":"-104.7233971","distance":0.32},{"ADDRESS":"23560 BIGHORN DR  CO ","CITY":"AGUILAR","STATE":"CO","SOLD PRICE":["55000 "],"LOT AREA":1548994,"LOT ACREAGE":35.56,"PRICE PER ACRE":1547,"LATITUDE":"37.40222517","LONGITUDE":"-104.7293873","distance":0.65},{"ADDRESS":"CO ","CITY":"AGUILAR","STATE":"CO","SOLD PRICE":["72000 "],"LOT AREA":1408730,"LOT ACREAGE":32.34,"PRICE PER ACRE":2226,"LATITUDE":"37.42832146","LONGITUDE":"-104.7221214","distance":1.73},{"ADDRESS":"CO ","CITY":"AGUILAR","STATE":"CO","SOLD PRICE":["32000 "],"LOT AREA":1526778,"LOT ACREAGE":35.05,"PRICE PER ACRE":913,"LATITUDE":"37.41639165","LONGITUDE":"-104.7368443","distance":1.38},{"ADDRESS":"24777 SANDS WOODS DR  CO ","CITY":"AGUILAR","STATE":"CO","SOLD PRICE":["55000 "],"LOT AREA":1526342,"LOT ACREAGE":35.04,"PRICE PER ACRE":1570,"LATITUDE":"37.41993439","LONGITUDE":"-104.7060814","distance":1.3}],"estimatedValue":54896},{"SITUS FULL ADDRESS":"CO","SITUS CITY":"","ALTERNATE APN":"106 40 500","COUNTY":"LAS ANIMAS","LOT AREA":1526778,"LOT ACREAGE":35.05,"LATITUDE":"37.3687868432261","LONGITUDE":"-104.689193031278","APN - UNFORMATTED":"=\"10640500\"","IN FLOOD ZONE":false,"OWNER MAILING NAME":"DONALD & LOUISE CLAPP","MAILING STREET ADDRESS":"23980 COUNTY ROAD 50.9","MAIL CITY":"AGUILAR","MAIL STATE":"CO","MAIL ZIPZIP4":"81020-9718","MARKET TOTAL VALUE":35050,"id":12,"avgPPA":1661.3333333333333,"avgPPA2":1591.6666666666667,"avgPPA3":1647,"estValue":58230,"estValue2":55788,"estValue3":57727,"offer":27800,"offer1":29100,"offer2":27800,"offer3":28800,"offerPPA":0,"jasonOffer":0,"jasonEstValue":0,"statusColor":"green","marketValueFlag":false,"propertyLink":"https://www.google.com/search?q=CO","soldArr":[{"ADDRESS":"25555 RIVER PINES RD  AGUILAR, CO 81020 ","CITY":"AGUILAR","STATE":"CO","SOLD PRICE":["62500 "],"LOT AREA":1785960,"LOT ACREAGE":41,"PRICE PER ACRE":1524,"LATITUDE":"37.35485719","LONGITUDE":"-104.6928328","distance":0.98},{"ADDRESS":"25898 COUNTY ROAD 43 7  TRINIDAD, CO 81082 ","CITY":"AGUILAR","STATE":"CO","SOLD PRICE":["82000 "],"LOT AREA":1528085,"LOT ACREAGE":35.08,"PRICE PER ACRE":2338,"LATITUDE":"37.36635122","LONGITUDE":"-104.6925285","distance":0.25},{"ADDRESS":"25520 RIDGELINE DR  TRINIDAD, CO 81082 ","CITY":"AGUILAR","STATE":"CO","SOLD PRICE":["40000 "],"LOT AREA":1552478,"LOT ACREAGE":35.64,"PRICE PER ACRE":1122,"LATITUDE":"37.36473309","LONGITUDE":"-104.6623125","distance":1.5},{"ADDRESS":"24315 BIGHORN DR  TRINIDAD, CO 81082 ","CITY":"AGUILAR","STATE":"CO","SOLD PRICE":["55000 "],"LOT AREA":1531570,"LOT ACREAGE":35.16,"PRICE PER ACRE":1564,"LATITUDE":"37.40357375","LONGITUDE":"-104.7176055","distance":2.87},{"ADDRESS":"23241 S RIDGELINE DR  TRINIDAD, CO 81082 ","CITY":"AGUILAR","STATE":"CO","SOLD PRICE":["60000 "],"LOT AREA":1548994,"LOT ACREAGE":35.56,"PRICE PER ACRE":1687,"LATITUDE":"37.33121251","LONGITUDE":"-104.6683383","distance":2.84}],"estimatedValue":55788},{"SITUS FULL ADDRESS":"CO","SITUS CITY":"","ALTERNATE APN":"103 67 601","COUNTY":"LAS ANIMAS","LOT AREA":1528956,"LOT ACREAGE":35.1,"LATITUDE":"37.282760806153","LONGITUDE":"-104.531995747503","APN - UNFORMATTED":"=\"10367601\"","IN FLOOD ZONE":false,"OWNER MAILING NAME":"GET REAL II LLC","MAILING STREET ADDRESS":"20000 WALKING STICK RD","MAIL CITY":"TRINIDAD","MAIL STATE":"CO","MAIL ZIPZIP4":"81082-1209","MARKET TOTAL VALUE":12285,"id":13,"avgPPA":1006.3333333333334,"avgPPA2":911.3333333333334,"avgPPA3":917,"estValue":35322,"estValue2":31988,"estValue3":32187,"offer":15900,"offer1":17600,"offer2":15900,"offer3":16000,"offerPPA":0,"jasonOffer":0,"jasonEstValue":0,"statusColor":"green","marketValueFlag":false,"propertyLink":"https://www.google.com/search?q=CO","soldArr":[{"ADDRESS":"33203 COUNTY ROAD 40  TRINIDAD, CO 81082 ","CITY":"TRINIDAD","STATE":"CO","SOLD PRICE":["39950 "],"LOT AREA":1528956,"LOT ACREAGE":35.1,"PRICE PER ACRE":1138,"LATITUDE":"37.28390092","LONGITUDE":"-104.5499288","distance":0.99},{"ADDRESS":"CO ","CITY":"TRINIDAD","STATE":"CO","SOLD PRICE":["36000 "],"LOT AREA":1775244,"LOT ACREAGE":40.75,"PRICE PER ACRE":883,"LATITUDE":"37.27069073","LONGITUDE":"-104.5612101","distance":1.81},{"ADDRESS":"22990 RIDGE RD  TRINIDAD, CO 81082 ","CITY":"AGUILAR","STATE":"CO","SOLD PRICE":["30000 "],"LOT AREA":1830391,"LOT ACREAGE":42.02,"PRICE PER ACRE":714,"LATITUDE":"37.32361745","LONGITUDE":"-104.5412643","distance":2.87},{"ADDRESS":"33750 S CIRCLE  TRINIDAD, CO 81082 ","CITY":"AGUILAR","STATE":"CO","SOLD PRICE":["35000 "],"LOT AREA":1527649,"LOT ACREAGE":35.07,"PRICE PER ACRE":998,"LATITUDE":"37.31840758","LONGITUDE":"-104.5415716","distance":2.52},{"ADDRESS":"CO ","CITY":"TRINIDAD","STATE":"CO","SOLD PRICE":["32500 "],"LOT AREA":1659200,"LOT ACREAGE":38.09,"PRICE PER ACRE":853,"LATITUDE":"37.27321379","LONGITUDE":"-104.5843422","distance":2.95}],"estimatedValue":31988},{"SITUS FULL ADDRESS":"CO","SITUS CITY":"","ALTERNATE APN":"130 30 500","COUNTY":"LAS ANIMAS","LOT AREA":1572080,"LOT ACREAGE":36.09,"LATITUDE":"37.2275310538498","LONGITUDE":"-104.543997625664","APN - UNFORMATTED":"=\"13030500\"","IN FLOOD ZONE":false,"OWNER MAILING NAME":"RANCHMAN R W LLC","MAILING STREET ADDRESS":"2139 N WILLIAMS ST #1","MAIL CITY":"DENVER","MAIL STATE":"CO","MAIL ZIPZIP4":"80205-5517","MARKET TOTAL VALUE":41143,"id":14,"avgPPA":1979.6666666666667,"avgPPA2":1253.6666666666667,"avgPPA3":1340,"estValue":71446,"estValue2":45245,"estValue3":48361,"offer":22600,"offer1":35700,"offer2":22600,"offer3":24100,"offerPPA":0,"jasonOffer":0,"jasonEstValue":0,"statusColor":"green","marketValueFlag":false,"propertyLink":"https://www.google.com/search?q=CO","soldArr":[{"ADDRESS":"CO ","CITY":"TRINIDAD","STATE":"CO","SOLD PRICE":["69000 "],"LOT AREA":1572516,"LOT ACREAGE":36.1,"PRICE PER ACRE":1911,"LATITUDE":"37.22553143","LONGITUDE":"-104.5410779","distance":0.21},{"ADDRESS":"CO ","CITY":"TRINIDAD","STATE":"CO","SOLD PRICE":["11000 "],"LOT AREA":1742400,"LOT ACREAGE":40,"PRICE PER ACRE":275,"LATITUDE":"37.22371705","LONGITUDE":"-104.5283037","distance":0.9},{"ADDRESS":"16582 ROCKY HEIGHTS DR  TRINIDAD, CO 81082 ","CITY":"TRINIDAD","STATE":"CO","SOLD PRICE":["95350 "],"LOT AREA":1559448,"LOT ACREAGE":35.8,"PRICE PER ACRE":2663,"LATITUDE":"37.22999967","LONGITUDE":"-104.5402102","distance":0.27},{"ADDRESS":"CO ","CITY":"TRINIDAD","STATE":"CO","SOLD PRICE":["49000 "],"LOT AREA":1563804,"LOT ACREAGE":35.9,"PRICE PER ACRE":1365,"LATITUDE":"37.23933127","LONGITUDE":"-104.5462121","distance":0.82},{"ADDRESS":"CO ","CITY":"TRINIDAD","STATE":"CO","SOLD PRICE":["19900 "],"LOT AREA":1787702,"LOT ACREAGE":41.04,"PRICE PER ACRE":485,"LATITUDE":"37.23834446","LONGITUDE":"-104.5373513","distance":0.83}],"estimatedValue":45245},{"SITUS FULL ADDRESS":"CO","SITUS CITY":"","ALTERNATE APN":"140 89 900","COUNTY":"LAS ANIMAS","LOT AREA":1525036,"LOT ACREAGE":35.01,"LATITUDE":"37.2150253365199","LONGITUDE":"-104.970763959773","APN - UNFORMATTED":"=\"14089900\"","IN FLOOD ZONE":false,"OWNER MAILING NAME":"STEPHEN & LISA SPINELLI","MAILING STREET ADDRESS":"714 RIVIERA DR","MAIL CITY":"MASTIC BEACH","MAIL STATE":"NY","MAIL ZIPZIP4":"11951-7024","MARKET TOTAL VALUE":35010,"id":15,"avgPPA":1507,"avgPPA2":1489.6666666666667,"avgPPA3":1403,"estValue":52760,"estValue2":52153,"estValue3":49119,"offer":26000,"offer1":26300,"offer2":26000,"offer3":24500,"offerPPA":0,"jasonOffer":0,"jasonEstValue":0,"statusColor":"green","marketValueFlag":false,"propertyLink":"https://www.google.com/search?q=CO","soldArr":[{"ADDRESS":"CO ","CITY":"PRIMERO","STATE":"CO","SOLD PRICE":["55000 "],"LOT AREA":1535926,"LOT ACREAGE":35.26,"PRICE PER ACRE":1560,"LATITUDE":"37.20414591","LONGITUDE":"-104.9660327","distance":0.8},{"ADDRESS":"CO ","CITY":"PRIMERO","STATE":"CO","SOLD PRICE":["63671 "],"LOT AREA":1827778,"LOT ACREAGE":41.96,"PRICE PER ACRE":1517,"LATITUDE":"37.23499495","LONGITUDE":"-104.9539568","distance":1.66},{"ADDRESS":"16511 WILDERNESS RIDGE RD  CO ","CITY":"PRIMERO","STATE":"CO","SOLD PRICE":["40000 "],"LOT AREA":1782475,"LOT ACREAGE":40.92,"PRICE PER ACRE":978,"LATITUDE":"37.22985613","LONGITUDE":"-104.9449122","distance":1.75},{"ADDRESS":"CO ","CITY":"PRIMERO","STATE":"CO","SOLD PRICE":["59000 "],"LOT AREA":1637856,"LOT ACREAGE":37.6,"PRICE PER ACRE":1569,"LATITUDE":"37.19889912","LONGITUDE":"-104.9590609","distance":1.29},{"ADDRESS":"CO ","CITY":"PRIMERO","STATE":"CO","SOLD PRICE":["49000 "],"LOT AREA":1533748,"LOT ACREAGE":35.21,"PRICE PER ACRE":1392,"LATITUDE":"37.19557831","LONGITUDE":"-104.9801178","distance":1.44}],"estimatedValue":52153},{"SITUS FULL ADDRESS":"CO","SITUS CITY":"","ALTERNATE APN":"129 75 310","COUNTY":"LAS ANIMAS","LOT AREA":1742400,"LOT ACREAGE":40,"LATITUDE":"37.5147674953516","LONGITUDE":"-104.323558296564","APN - UNFORMATTED":"=\"12975310\"","IN FLOOD ZONE":false,"OWNER MAILING NAME":"EDWARD ABILI","MAILING STREET ADDRESS":"4004 PECK AVE","MAIL CITY":"AUSTIN","MAIL STATE":"TX","MAIL ZIPZIP4":"78751-5113","MARKET TOTAL VALUE":14000,"id":16,"avgPPA":234.33333333333334,"avgPPA2":266.6666666666667,"avgPPA3":265,"estValue":9373,"estValue2":10667,"estValue3":10600,"offer":5300,"offer1":4600,"offer2":5300,"offer3":5300,"offerPPA":0,"jasonOffer":0,"jasonEstValue":0,"statusColor":"green","marketValueFlag":false,"propertyLink":"https://www.google.com/search?q=CO","soldArr":[{"ADDRESS":"CO ","CITY":"HOEHNE","STATE":"CO","SOLD PRICE":["10000 "],"LOT AREA":1742400,"LOT ACREAGE":40,"PRICE PER ACRE":250,"LATITUDE":"37.50740822","LONGITUDE":"-104.2964055","distance":1.57},{"ADDRESS":"43485 COUNTY ROAD 64 8  TRINIDAD, CO 81082 ","CITY":"AGUILAR","STATE":"CO","SOLD PRICE":["11000 "],"LOT AREA":1742400,"LOT ACREAGE":40,"PRICE PER ACRE":275,"LATITUDE":"37.50034576","LONGITUDE":"-104.3693671","distance":2.7},{"ADDRESS":"CO ","CITY":"HOEHNE","STATE":"CO","SOLD PRICE":["12500 "],"LOT AREA":1576872,"LOT ACREAGE":36.2,"PRICE PER ACRE":345,"LATITUDE":"37.4964107","LONGITUDE":"-104.2743459","distance":2.98},{"ADDRESS":"CO ","CITY":"HOEHNE","STATE":"CO","SOLD PRICE":["10997 "],"LOT AREA":1742400,"LOT ACREAGE":40,"PRICE PER ACRE":275,"LATITUDE":"37.48938712","LONGITUDE":"-104.3422821","distance":2.03},{"ADDRESS":"CO ","CITY":"HOEHNE","STATE":"CO","SOLD PRICE":["7123 "],"LOT AREA":1742400,"LOT ACREAGE":40,"PRICE PER ACRE":178,"LATITUDE":"37.48550089","LONGITUDE":"-104.2921596","distance":2.66}],"estimatedValue":10667},{"SITUS FULL ADDRESS":"CO","SITUS CITY":"","ALTERNATE APN":"124 75 300","COUNTY":"LAS ANIMAS","LOT AREA":2038172,"LOT ACREAGE":46.79,"LATITUDE":"37.2120853273428","LONGITUDE":"-104.617649682177","APN - UNFORMATTED":"=\"12475300\"","IN FLOOD ZONE":false,"OWNER MAILING NAME":"DANIEL & REBECCA ARGUELLO","MAILING STREET ADDRESS":"3509 GREEN SPRING DR","MAIL CITY":"FORT COLLINS","MAIL STATE":"CO","MAIL ZIPZIP4":"80528-7006","MARKET TOTAL VALUE":29946,"id":17,"avgPPA":868.6666666666666,"avgPPA2":838.6666666666666,"avgPPA3":849,"estValue":40645,"estValue2":39241,"estValue3":39725,"offer":19600,"offer1":20300,"offer2":19600,"offer3":19800,"offerPPA":0,"jasonOffer":0,"jasonEstValue":0,"statusColor":"green","marketValueFlag":false,"propertyLink":"https://www.google.com/search?q=CO","soldArr":[{"ADDRESS":"CO ","CITY":"TRINIDAD","STATE":"CO","SOLD PRICE":["59900 "],"LOT AREA":2037301,"LOT ACREAGE":46.77,"PRICE PER ACRE":1281,"LATITUDE":"37.21023249","LONGITUDE":"-104.6176653","distance":0.13},{"ADDRESS":"CO ","CITY":"TRINIDAD","STATE":"CO","SOLD PRICE":["35000 "],"LOT AREA":1742400,"LOT ACREAGE":40,"PRICE PER ACRE":875,"LATITUDE":"37.21652743","LONGITUDE":"-104.6706273","distance":2.93},{"ADDRESS":"CO ","CITY":"TRINIDAD","STATE":"CO","SOLD PRICE":["35000 "],"LOT AREA":1927530,"LOT ACREAGE":44.25,"PRICE PER ACRE":791,"LATITUDE":"37.22814274","LONGITUDE":"-104.5493774","distance":3.92},{"ADDRESS":"CO ","CITY":"TRINIDAD","STATE":"CO","SOLD PRICE":["34000 "],"LOT AREA":1742400,"LOT ACREAGE":40,"PRICE PER ACRE":850,"LATITUDE":"37.2309222","LONGITUDE":"-104.6795102","distance":3.64},{"ADDRESS":"CO ","CITY":"TRINIDAD","STATE":"CO","SOLD PRICE":["18000 "],"LOT AREA":1742400,"LOT ACREAGE":40,"PRICE PER ACRE":450,"LATITUDE":"37.22733304","LONGITUDE":"-104.6795218","distance":3.56}],"estimatedValue":39241},{"SITUS FULL ADDRESS":"CO","SITUS CITY":"","ALTERNATE APN":"102 99 500","COUNTY":"LAS ANIMAS","LOT AREA":1528956,"LOT ACREAGE":35.1,"LATITUDE":"37.3158508186701","LONGITUDE":"-104.038716473201","APN - UNFORMATTED":"=\"10299500\"","IN FLOOD ZONE":false,"OWNER MAILING NAME":"ROBERT SUSEN","MAILING STREET ADDRESS":"7860 WOODLAND LN","MAIL CITY":"WEST BEND","MAIL STATE":"WI","MAIL ZIPZIP4":"53090-9017","MARKET TOTAL VALUE":1201,"id":18,"avgPPA":null,"avgPPA2":null,"avgPPA3":0,"estValue":null,"estValue2":null,"estValue3":0,"offer":0,"offer1":null,"offer2":null,"offer3":0,"offerPPA":0,"jasonOffer":0,"jasonEstValue":0,"statusColor":"red","marketValueFlag":false,"propertyLink":"https://www.google.com/search?q=CO","soldArr":[],"estimatedValue":0},{"SITUS FULL ADDRESS":"CO","SITUS CITY":"","ALTERNATE APN":"111 58 500","COUNTY":"LAS ANIMAS","LOT AREA":1554656,"LOT ACREAGE":35.69,"LATITUDE":"37.1693635","LONGITUDE":"-104.5298545","APN - UNFORMATTED":"=\"11158500\"","IN FLOOD ZONE":false,"OWNER MAILING NAME":"LISA & THOMAS FREITAG","MAILING STREET ADDRESS":"5915 N NINA AVE","MAIL CITY":"CHICAGO","MAIL STATE":"IL","MAIL ZIPZIP4":"60631-2479","MARKET TOTAL VALUE":1165,"id":19,"avgPPA":998,"avgPPA2":1076.6666666666667,"avgPPA3":1561,"estValue":35619,"estValue2":38426,"estValue3":55712,"offer":19200,"offer1":17800,"offer2":19200,"offer3":27800,"offerPPA":0,"jasonOffer":0,"jasonEstValue":0,"statusColor":"green","marketValueFlag":false,"propertyLink":"https://www.google.com/search?q=CO","soldArr":[{"ADDRESS":"29150 KINDIG DR  TRINIDAD, CO 81082 ","CITY":"AGUILAR","STATE":"CO","SOLD PRICE":["40000 "],"LOT AREA":1545509,"LOT ACREAGE":35.48,"PRICE PER ACRE":1127,"LATITUDE":"37.1736","LONGITUDE":"-104.5142","distance":0.91},{"ADDRESS":"CO ","CITY":"PRIMERO","STATE":"CO","SOLD PRICE":["38000 "],"LOT AREA":1668348,"LOT ACREAGE":38.3,"PRICE PER ACRE":992,"LATITUDE":"37.1714705","LONGITUDE":"-104.5196185","distance":0.58},{"ADDRESS":"CO ","CITY":"PRIMERO","STATE":"CO","SOLD PRICE":["35000 "],"LOT AREA":1742400,"LOT ACREAGE":40,"PRICE PER ACRE":875,"LATITUDE":"37.178747","LONGITUDE":"-104.5065975","distance":1.44},{"ADDRESS":"14004 PINION PINE LN  TRINIDAD, CO 81082 ","CITY":"TRINIDAD","STATE":"CO","SOLD PRICE":["40000 "],"LOT AREA":1568160,"LOT ACREAGE":36,"PRICE PER ACRE":1111,"LATITUDE":"37.19480235","LONGITUDE":"-104.5281732","distance":1.76},{"ADDRESS":"CO ","CITY":"TRINIDAD","STATE":"CO","SOLD PRICE":["130000 "],"LOT AREA":1530263,"LOT ACREAGE":35.13,"PRICE PER ACRE":3701,"LATITUDE":"37.18800164","LONGITUDE":"-104.5526527","distance":1.8}],"estimatedValue":38426},{"SITUS FULL ADDRESS":"CO","SITUS CITY":"","ALTERNATE APN":"119 32 001","COUNTY":"LAS ANIMAS","LOT AREA":1528956,"LOT ACREAGE":35.1,"LATITUDE":"37.4564297731861","LONGITUDE":"-104.66598253339","APN - UNFORMATTED":"=\"11932001\"","IN FLOOD ZONE":false,"OWNER MAILING NAME":"ISAIAH CHOW & WAH HING","MAILING STREET ADDRESS":"11727 CORAL HL","MAIL CITY":"DALLAS","MAIL STATE":"TX","MAIL ZIPZIP4":"75227","MARKET TOTAL VALUE":70200,"id":20,"avgPPA":2045.3333333333333,"avgPPA2":1963.6666666666667,"avgPPA3":1871,"estValue":71791,"estValue2":68925,"estValue3":65672,"offer":34400,"offer1":35800,"offer2":34400,"offer3":32800,"offerPPA":0,"jasonOffer":0,"jasonEstValue":0,"statusColor":"green","marketValueFlag":false,"propertyLink":"https://www.google.com/search?q=CO","soldArr":[{"ADDRESS":"31875 COUNT RD 53 7  TRINIDAD, CO 81082 ","CITY":"AGUILAR","STATE":"CO","SOLD PRICE":["77500 "],"LOT AREA":1528956,"LOT ACREAGE":35.1,"PRICE PER ACRE":2208,"LATITUDE":"37.45305691","LONGITUDE":"-104.6644549","distance":0.25},{"ADDRESS":"CO ","CITY":"AGUILAR","STATE":"CO","SOLD PRICE":["69900 "],"LOT AREA":1550736,"LOT ACREAGE":35.6,"PRICE PER ACRE":1963,"LATITUDE":"37.4627566","LONGITUDE":"-104.6780251","distance":0.79},{"ADDRESS":"32013 COUNTY ROAD 53 7  TRINIDAD, CO 81082 ","CITY":"AGUILAR","STATE":"CO","SOLD PRICE":["69900 "],"LOT AREA":1528956,"LOT ACREAGE":35.1,"PRICE PER ACRE":1991,"LATITUDE":"37.45476349","LONGITUDE":"-104.665103","distance":0.12},{"ADDRESS":"CO ","CITY":"AGUILAR","STATE":"CO","SOLD PRICE":["68000 "],"LOT AREA":1528956,"LOT ACREAGE":35.1,"PRICE PER ACRE":1937,"LATITUDE":"37.46019466","LONGITUDE":"-104.6745088","distance":0.54},{"ADDRESS":"CO ","CITY":"AGUILAR","STATE":"CO","SOLD PRICE":["44000 "],"LOT AREA":1526778,"LOT ACREAGE":35.05,"PRICE PER ACRE":1255,"LATITUDE":"37.44562827","LONGITUDE":"-104.6875304","distance":1.4}],"estimatedValue":68925},{"SITUS FULL ADDRESS":"CO","SITUS CITY":"","ALTERNATE APN":"128 58 500","COUNTY":"LAS ANIMAS","LOT AREA":1742400,"LOT ACREAGE":40,"LATITUDE":"37.2819807284142","LONGITUDE":"-104.863676284416","APN - UNFORMATTED":"=\"12858500\"","IN FLOOD ZONE":false,"OWNER MAILING NAME":"PATRICIA & PUEBLO MANZANARES","MAILING STREET ADDRESS":"1034 E 13TH ST","MAIL CITY":"PUEBLO","MAIL STATE":"CO","MAIL ZIPZIP4":"81001-3023","MARKET TOTAL VALUE":38000,"id":21,"avgPPA":1501,"avgPPA2":1444.6666666666667,"avgPPA3":1460,"estValue":60040,"estValue2":57787,"estValue3":58400,"offer":28800,"offer1":30000,"offer2":28800,"offer3":29200,"offerPPA":0,"jasonOffer":0,"jasonEstValue":0,"statusColor":"green","marketValueFlag":false,"propertyLink":"https://www.google.com/search?q=CO","soldArr":[{"ADDRESS":"CO ","CITY":"AGUILAR","STATE":"CO","SOLD PRICE":["75000 "],"LOT AREA":1572516,"LOT ACREAGE":36.1,"PRICE PER ACRE":2078,"LATITUDE":"37.27277466","LONGITUDE":"-104.9297294","distance":3.69},{"ADDRESS":"CO ","CITY":"AGUILAR","STATE":"CO","SOLD PRICE":["59000 "],"LOT AREA":1742400,"LOT ACREAGE":40,"PRICE PER ACRE":1475,"LATITUDE":"37.25300918","LONGITUDE":"-104.9134952","distance":3.39},{"ADDRESS":"CO ","CITY":"PRIMERO","STATE":"CO","SOLD PRICE":["38000 "],"LOT AREA":1742400,"LOT ACREAGE":40,"PRICE PER ACRE":950,"LATITUDE":"37.23851559","LONGITUDE":"-104.9044993","distance":3.75},{"ADDRESS":"CO ","CITY":"AGUILAR","STATE":"CO","SOLD PRICE":["30250 "],"LOT AREA":1484089,"LOT ACREAGE":34.07,"PRICE PER ACRE":888,"LATITUDE":"37.25309871","LONGITUDE":"-104.9354394","distance":4.42},{"ADDRESS":"CO ","CITY":"AGUILAR","STATE":"CO","SOLD PRICE":["67000 "],"LOT AREA":1528956,"LOT ACREAGE":35.1,"PRICE PER ACRE":1909,"LATITUDE":"37.2802617","LONGITUDE":"-104.9510747","distance":4.81}],"estimatedValue":57787},{"SITUS FULL ADDRESS":"CO","SITUS CITY":"","ALTERNATE APN":"126 31 500","COUNTY":"LAS ANIMAS","LOT AREA":1742400,"LOT ACREAGE":40,"LATITUDE":"37.6353071456831","LONGITUDE":"-103.919506694673","APN - UNFORMATTED":"=\"12631500\"","IN FLOOD ZONE":false,"OWNER MAILING NAME":"BLANCHE LEWIS","MAILING STREET ADDRESS":"PO BOX 775","MAIL CITY":"WEST CHESTER","MAIL STATE":"OH","MAIL ZIPZIP4":"45071","MARKET TOTAL VALUE":14000,"id":22,"avgPPA":152.66666666666666,"avgPPA2":235.66666666666666,"avgPPA3":242,"estValue":6107,"estValue2":9427,"estValue3":9680,"offer":4700,"offer1":3000,"offer2":4700,"offer3":4800,"offerPPA":0,"jasonOffer":0,"jasonEstValue":0,"statusColor":"red","marketValueFlag":true,"propertyLink":"https://www.google.com/search?q=CO","soldArr":[{"ADDRESS":"44203 BEAR SPRINGS TRL  TRINIDAD, CO 81082 ","CITY":"HOEHNE","STATE":"CO","SOLD PRICE":["6000 "],"LOT AREA":1733252,"LOT ACREAGE":39.79,"PRICE PER ACRE":151,"LATITUDE":"37.6245814","LONGITUDE":"-103.9148689","distance":0.78},{"ADDRESS":"CO ","CITY":"HOEHNE","STATE":"CO","SOLD PRICE":["5000 "],"LOT AREA":1733252,"LOT ACREAGE":39.79,"PRICE PER ACRE":126,"LATITUDE":"37.6242766","LONGITUDE":"-103.9241761","distance":0.8},{"ADDRESS":"CO ","CITY":"HOEHNE","STATE":"CO","SOLD PRICE":["15400 "],"LOT AREA":1784218,"LOT ACREAGE":40.96,"PRICE PER ACRE":376,"LATITUDE":"37.61396836","LONGITUDE":"-103.9627008","distance":2.79},{"ADDRESS":"43751 BEAR SPRINGS TRL  CO ","CITY":"HOEHNE","STATE":"CO","SOLD PRICE":["7500 "],"LOT AREA":1808611,"LOT ACREAGE":41.52,"PRICE PER ACRE":181,"LATITUDE":"37.62526442","LONGITUDE":"-103.9651547","distance":2.59},{"ADDRESS":"CO ","CITY":"HOEHNE","STATE":"CO","SOLD PRICE":["15000 "],"LOT AREA":1742400,"LOT ACREAGE":40,"PRICE PER ACRE":375,"LATITUDE":"37.60742955","LONGITUDE":"-103.9696814","distance":3.35}],"estimatedValue":9427},{"SITUS FULL ADDRESS":"14450 SANDSTONE HOLW  TRINIDAD, CO 81082","SITUS CITY":"TRINIDAD","ALTERNATE APN":"132 86 500","COUNTY":"LAS ANIMAS","LOT AREA":1529392,"LOT ACREAGE":35.11,"LATITUDE":"37.2022452509283","LONGITUDE":"-104.878608111746","APN - UNFORMATTED":"=\"13286500\"","IN FLOOD ZONE":false,"OWNER MAILING NAME":"JIMMIE ATKINSON","MAILING STREET ADDRESS":"927 ATCHISON AVE","MAIL CITY":"TRINIDAD","MAIL STATE":"CO","MAIL ZIPZIP4":"81082-2211","MARKET TOTAL VALUE":35110,"id":23,"avgPPA":1614.6666666666667,"avgPPA2":1482.6666666666667,"avgPPA3":1349,"estValue":56691,"estValue2":52056,"estValue3":47363,"offer":26000,"offer1":28300,"offer2":26000,"offer3":23600,"offerPPA":0,"jasonOffer":0,"jasonEstValue":0,"statusColor":"green","marketValueFlag":false,"propertyLink":"https://www.google.com/search?q=14450+SANDSTONE+HOLW+TRINIDAD,+CO+81082","soldArr":[{"ADDRESS":"CO ","CITY":"HOEHNE","STATE":"CO","SOLD PRICE":["11900 "],"LOT AREA":1571645,"LOT ACREAGE":36.08,"PRICE PER ACRE":330,"LATITUDE":"37.2096265","LONGITUDE":"-104.908852","distance":1.74},{"ADDRESS":"55511 COUNTY ROAD 32 5  TRINIDAD, CO 81082 ","CITY":"PRIMERO","STATE":"CO","SOLD PRICE":["50000 "],"LOT AREA":1524600,"LOT ACREAGE":35,"PRICE PER ACRE":1429,"LATITUDE":"37.22443425","LONGITUDE":"-104.8773627","distance":1.53},{"ADDRESS":"CO ","CITY":"PRIMERO","STATE":"CO","SOLD PRICE":["55000 "],"LOT AREA":1524600,"LOT ACREAGE":35,"PRICE PER ACRE":1571,"LATITUDE":"37.1815431","LONGITUDE":"-104.9030725","distance":1.96},{"ADDRESS":"CO ","CITY":"PRIMERO","STATE":"CO","SOLD PRICE":["69000 "],"LOT AREA":1528085,"LOT ACREAGE":35.08,"PRICE PER ACRE":1967,"LATITUDE":"37.18869793","LONGITUDE":"-104.8892836","distance":1.11},{"ADDRESS":"CO ","CITY":"PRIMERO","STATE":"CO","SOLD PRICE":["52112 "],"LOT AREA":1567724,"LOT ACREAGE":35.99,"PRICE PER ACRE":1448,"LATITUDE":"37.19132335","LONGITUDE":"-104.8612098","distance":1.22}],"estimatedValue":52056},{"SITUS FULL ADDRESS":"CO","SITUS CITY":"","ALTERNATE APN":"106 50 900","COUNTY":"LAS ANIMAS","LOT AREA":1816016,"LOT ACREAGE":41.69,"LATITUDE":"37.5622264920695","LONGITUDE":"-103.992964423568","APN - UNFORMATTED":"=\"10650900\"","IN FLOOD ZONE":false,"OWNER MAILING NAME":"KENNETH & DEC CLARK","MAILING STREET ADDRESS":"706 MIKE AVE","MAIL CITY":"FRUITLAND PARK","MAIL STATE":"FL","MAIL ZIPZIP4":"34731-2002","MARKET TOTAL VALUE":14592,"id":24,"avgPPA":344,"avgPPA2":405.3333333333333,"avgPPA3":380,"estValue":14341,"estValue2":16898,"estValue3":15842,"offer":8400,"offer1":7100,"offer2":8400,"offer3":7900,"offerPPA":0,"jasonOffer":0,"jasonEstValue":0,"statusColor":"green","marketValueFlag":false,"propertyLink":"https://www.google.com/search?q=CO","soldArr":[{"ADDRESS":"CA ","CITY":"HOEHNE","STATE":"CA","SOLD PRICE":["14000 "],"LOT AREA":1749805,"LOT ACREAGE":40.17,"PRICE PER ACRE":349,"LATITUDE":"37.55839933","LONGITUDE":"-103.9838199","distance":0.57},{"ADDRESS":"CO ","CITY":"HOEHNE","STATE":"CO","SOLD PRICE":["7677 "],"LOT AREA":1863061,"LOT ACREAGE":42.77,"PRICE PER ACRE":179,"LATITUDE":"37.57366151","LONGITUDE":"-104.0020161","distance":0.93},{"ADDRESS":"61987 COUNTY ROAD 78 4  TRINIDAD, CO 81082 ","CITY":"HOEHNE","STATE":"CO","SOLD PRICE":["19500 "],"LOT AREA":1747627,"LOT ACREAGE":40.12,"PRICE PER ACRE":486,"LATITUDE":"37.56667348","LONGITUDE":"-104.0249144","distance":1.78},{"ADDRESS":"39722 BEAR SPRINGS TRL  CO ","CITY":"HOEHNE","STATE":"CO","SOLD PRICE":["19900 "],"LOT AREA":1720620,"LOT ACREAGE":39.5,"PRICE PER ACRE":504,"LATITUDE":"37.56960009","LONGITUDE":"-103.9745208","distance":1.13},{"ADDRESS":"41088 BEAR SPRINGS TRL  CO ","CITY":"HOEHNE","STATE":"CO","SOLD PRICE":["15900 "],"LOT AREA":1815581,"LOT ACREAGE":41.68,"PRICE PER ACRE":381,"LATITUDE":"37.58854597","LONGITUDE":"-103.9789577","distance":1.97}],"estimatedValue":16898},{"SITUS FULL ADDRESS":"CO","SITUS CITY":"","ALTERNATE APN":"100 46 300","COUNTY":"LAS ANIMAS","LOT AREA":1550736,"LOT ACREAGE":35.6,"LATITUDE":"37.4497593663321","LONGITUDE":"-104.279117267337","APN - UNFORMATTED":"=\"10046300\"","IN FLOOD ZONE":false,"OWNER MAILING NAME":"CARLOS ALANIZ","MAILING STREET ADDRESS":"5866 POTOMAC ST","MAIL CITY":"SAN DIEGO","MAIL STATE":"CA","MAIL ZIPZIP4":"92139-1752","MARKET TOTAL VALUE":1162,"id":25,"avgPPA":268.3333333333333,"avgPPA2":226.66666666666666,"avgPPA3":230,"estValue":9553,"estValue2":8069,"estValue3":8188,"offer":4000,"offer1":4700,"offer2":4000,"offer3":4000,"offerPPA":0,"jasonOffer":0,"jasonEstValue":0,"statusColor":"green","marketValueFlag":false,"propertyLink":"https://www.google.com/search?q=CO","soldArr":[{"ADDRESS":"CO ","CITY":"HOEHNE","STATE":"CO","SOLD PRICE":["7123 "],"LOT AREA":1742400,"LOT ACREAGE":40,"PRICE PER ACRE":178,"LATITUDE":"37.48550089","LONGITUDE":"-104.2921596","distance":2.57},{"ADDRESS":"51015 COUNTY ROAD 64  MODEL, CO 81059 ","CITY":"HOEHNE","STATE":"CO","SOLD PRICE":["9997 "],"LOT AREA":1546380,"LOT ACREAGE":35.5,"PRICE PER ACRE":282,"LATITUDE":"37.45900053","LONGITUDE":"-104.2278854","distance":2.88},{"ADDRESS":"CO ","CITY":"HOEHNE","STATE":"CO","SOLD PRICE":["8000 "],"LOT AREA":1585584,"LOT ACREAGE":36.4,"PRICE PER ACRE":220,"LATITUDE":"37.46949111","LONGITUDE":"-104.2180498","distance":3.62},{"ADDRESS":"CO ","CITY":"HOEHNE","STATE":"CO","SOLD PRICE":["12500 "],"LOT AREA":1576872,"LOT ACREAGE":36.2,"PRICE PER ACRE":345,"LATITUDE":"37.4964107","LONGITUDE":"-104.2743459","distance":3.23},{"ADDRESS":"CO ","CITY":"HOEHNE","STATE":"CO","SOLD PRICE":["4600 "],"LOT AREA":1581228,"LOT ACREAGE":36.3,"PRICE PER ACRE":127,"LATITUDE":"37.49654247","LONGITUDE":"-104.2581232","distance":3.43}],"estimatedValue":8069},{"SITUS FULL ADDRESS":"CO","SITUS CITY":"","ALTERNATE APN":"141 32 621","COUNTY":"LAS ANIMAS","LOT AREA":1625659,"LOT ACREAGE":37.32,"LATITUDE":"37.604616188599","LONGITUDE":"-104.067031422623","APN - UNFORMATTED":"=\"14132621\"","IN FLOOD ZONE":false,"OWNER MAILING NAME":"PACIFIC SERVIC CORPORATION","MAILING STREET ADDRESS":"63 VIA PICO PLZ #544","MAIL CITY":"SAN CLEMENTE","MAIL STATE":"CA","MAIL ZIPZIP4":"92672-3998","MARKET TOTAL VALUE":13062,"id":26,"avgPPA":271.3333333333333,"avgPPA2":271.3333333333333,"avgPPA3":309,"estValue":10126,"estValue2":10126,"estValue3":11532,"offer":5000,"offer1":5000,"offer2":5000,"offer3":5700,"offerPPA":0,"jasonOffer":0,"jasonEstValue":0,"statusColor":"green","marketValueFlag":false,"propertyLink":"https://www.google.com/search?q=CO","soldArr":[{"ADDRESS":"CO ","CITY":"HOEHNE","STATE":"CO","SOLD PRICE":["11900 "],"LOT AREA":1568160,"LOT ACREAGE":36,"PRICE PER ACRE":331,"LATITUDE":"37.60465344","LONGITUDE":"-104.0692791","distance":0.12},{"ADDRESS":"CO ","CITY":"HOEHNE","STATE":"CO","SOLD PRICE":["8250 "],"LOT AREA":1568160,"LOT ACREAGE":36,"PRICE PER ACRE":229,"LATITUDE":"37.61695483","LONGITUDE":"-104.0701853","distance":0.87},{"ADDRESS":"CO ","CITY":"HOEHNE","STATE":"CO","SOLD PRICE":["4000 "],"LOT AREA":1568160,"LOT ACREAGE":36,"PRICE PER ACRE":111,"LATITUDE":"37.60952556","LONGITUDE":"-104.1016688","distance":1.93},{"ADDRESS":"CO ","CITY":"HOEHNE","STATE":"CO","SOLD PRICE":["9000 "],"LOT AREA":1546380,"LOT ACREAGE":35.5,"PRICE PER ACRE":254,"LATITUDE":"37.61502986","LONGITUDE":"-104.0987037","distance":1.88},{"ADDRESS":"60651 COUNTY ROAD 78  TRINIDAD, CO 81082 ","CITY":"HOEHNE","STATE":"CO","SOLD PRICE":["26500 "],"LOT AREA":1863932,"LOT ACREAGE":42.79,"PRICE PER ACRE":619,"LATITUDE":"37.55881014","LONGITUDE":"-104.0480836","distance":3.33}],"estimatedValue":10126},{"SITUS FULL ADDRESS":"8000 OVER LOOK DR  TRINIDAD, CO 81082","SITUS CITY":"TRINIDAD","ALTERNATE APN":"105 39 301","COUNTY":"LAS ANIMAS","LOT AREA":1528520,"LOT ACREAGE":35.09,"LATITUDE":"37.0974415278412","LONGITUDE":"-104.52663101648","APN - UNFORMATTED":"=\"10539301\"","IN FLOOD ZONE":false,"OWNER MAILING NAME":"ELIZABETH BARKER","MAILING STREET ADDRESS":"21734 FARMINGDALE CT","MAIL CITY":"PARKER","MAIL STATE":"CO","MAIL ZIPZIP4":"80138-7234","MARKET TOTAL VALUE":1145,"id":27,"avgPPA":1540,"avgPPA2":1298.6666666666667,"avgPPA3":1301,"estValue":54039,"estValue2":45570,"estValue3":45652,"offer":22700,"offer1":27000,"offer2":22700,"offer3":22800,"offerPPA":0,"jasonOffer":0,"jasonEstValue":0,"statusColor":"green","marketValueFlag":false,"propertyLink":"https://www.google.com/search?q=8000+OVER+LOOK+DR+TRINIDAD,+CO+81082","soldArr":[{"ADDRESS":"7662 PASS CREEK CT  CO ","CITY":"TRINIDAD","STATE":"CO","SOLD PRICE":["40000 "],"LOT AREA":1526778,"LOT ACREAGE":35.05,"PRICE PER ACRE":1141,"LATITUDE":"37.09215159","LONGITUDE":"-104.526314","distance":0.37},{"ADDRESS":"34150 VISTA WEST DR  TRINIDAD, CO 81082 ","CITY":"TRINIDAD","STATE":"CO","SOLD PRICE":["62000 "],"LOT AREA":1528520,"LOT ACREAGE":35.09,"PRICE PER ACRE":1767,"LATITUDE":"37.09500911","LONGITUDE":"-104.5408734","distance":0.8},{"ADDRESS":"34366 VISTA WEST DR  TRINIDAD, CO 81082 ","CITY":"TRINIDAD","STATE":"CO","SOLD PRICE":["60000 "],"LOT AREA":1526778,"LOT ACREAGE":35.05,"PRICE PER ACRE":1712,"LATITUDE":"37.09561215","LONGITUDE":"-104.5381007","distance":0.64},{"ADDRESS":"33622 VISTA WEST DR  TRINIDAD, CO 81082 ","CITY":"TRINIDAD","STATE":"CO","SOLD PRICE":["39000 "],"LOT AREA":1629144,"LOT ACREAGE":37.4,"PRICE PER ACRE":1043,"LATITUDE":"37.08848466","LONGITUDE":"-104.5486214","distance":1.36},{"ADDRESS":"34419 OVER LOOK DR  TRINIDAD, CO 81082 ","CITY":"TRINIDAD","STATE":"CO","SOLD PRICE":["30000 "],"LOT AREA":1548122,"LOT ACREAGE":35.54,"PRICE PER ACRE":844,"LATITUDE":"37.08460168","LONGITUDE":"-104.5358541","distance":1.02}],"estimatedValue":45570},{"SITUS FULL ADDRESS":"CO","SITUS CITY":"","ALTERNATE APN":"104 92 501","COUNTY":"LAS ANIMAS","LOT AREA":1958893,"LOT ACREAGE":44.97,"LATITUDE":"37.2177716432571","LONGITUDE":"-104.627845507887","APN - UNFORMATTED":"=\"10492501\"","IN FLOOD ZONE":false,"OWNER MAILING NAME":"DANIEL & JONELLE JORDAN","MAILING STREET ADDRESS":"1115 YOUNGFIELD ST","MAIL CITY":"GOLDEN","MAIL STATE":"CO","MAIL ZIPZIP4":"80401-4288","MARKET TOTAL VALUE":28781,"id":28,"avgPPA":889.3333333333334,"avgPPA2":745.6666666666666,"avgPPA3":794,"estValue":39993,"estValue2":33533,"estValue3":35706,"offer":16700,"offer1":19900,"offer2":16700,"offer3":17800,"offerPPA":0,"jasonOffer":0,"jasonEstValue":0,"statusColor":"green","marketValueFlag":false,"propertyLink":"https://www.google.com/search?q=CO","soldArr":[{"ADDRESS":"CO ","CITY":"TRINIDAD","STATE":"CO","SOLD PRICE":["59900 "],"LOT AREA":2037301,"LOT ACREAGE":46.77,"PRICE PER ACRE":1281,"LATITUDE":"37.21023249","LONGITUDE":"-104.6176653","distance":0.76},{"ADDRESS":"CO ","CITY":"TRINIDAD","STATE":"CO","SOLD PRICE":["34000 "],"LOT AREA":1742400,"LOT ACREAGE":40,"PRICE PER ACRE":850,"LATITUDE":"37.2309222","LONGITUDE":"-104.6795102","distance":2.98},{"ADDRESS":"CO ","CITY":"TRINIDAD","STATE":"CO","SOLD PRICE":["20000 "],"LOT AREA":1703196,"LOT ACREAGE":39.1,"PRICE PER ACRE":512,"LATITUDE":"37.20934451","LONGITUDE":"-104.6706449","distance":2.43},{"ADDRESS":"CO ","CITY":"TRINIDAD","STATE":"CO","SOLD PRICE":["18000 "],"LOT AREA":1742400,"LOT ACREAGE":40,"PRICE PER ACRE":450,"LATITUDE":"37.22733304","LONGITUDE":"-104.6795218","distance":2.92},{"ADDRESS":"CO ","CITY":"TRINIDAD","STATE":"CO","SOLD PRICE":["35000 "],"LOT AREA":1742400,"LOT ACREAGE":40,"PRICE PER ACRE":875,"LATITUDE":"37.21652743","LONGITUDE":"-104.6706273","distance":2.36}],"estimatedValue":33533},{"SITUS FULL ADDRESS":"CO","SITUS CITY":"","ALTERNATE APN":"100 73 000","COUNTY":"LAS ANIMAS","LOT AREA":1792494,"LOT ACREAGE":41.15,"LATITUDE":"37.6129536536767","LONGITUDE":"-103.938170614615","APN - UNFORMATTED":"=\"10073000\"","IN FLOOD ZONE":false,"OWNER MAILING NAME":"ROBERT & GRACE AMIRA","MAILING STREET ADDRESS":"564 RR 2","MAIL CITY":"AVA","MAIL STATE":"MO","MAIL ZIPZIP4":"65608-9623","MARKET TOTAL VALUE":14403,"id":29,"avgPPA":349.3333333333333,"avgPPA2":310.6666666666667,"avgPPA3":321,"estValue":14375,"estValue2":12784,"estValue3":13209,"offer":6300,"offer1":7100,"offer2":6300,"offer3":6600,"offerPPA":0,"jasonOffer":0,"jasonEstValue":0,"statusColor":"green","marketValueFlag":false,"propertyLink":"https://www.google.com/search?q=CO","soldArr":[{"ADDRESS":"CO ","CITY":"HOEHNE","STATE":"CO","SOLD PRICE":["15000 "],"LOT AREA":1742400,"LOT ACREAGE":40,"PRICE PER ACRE":375,"LATITUDE":"37.60742955","LONGITUDE":"-103.9696814","distance":1.77},{"ADDRESS":"CO ","CITY":"HOEHNE","STATE":"CO","SOLD PRICE":["15400 "],"LOT AREA":1784218,"LOT ACREAGE":40.96,"PRICE PER ACRE":376,"LATITUDE":"37.61396836","LONGITUDE":"-103.9627008","distance":1.34},{"ADDRESS":"CO ","CITY":"HOEHNE","STATE":"CO","SOLD PRICE":["21000 "],"LOT AREA":1754161,"LOT ACREAGE":40.27,"PRICE PER ACRE":521,"LATITUDE":"37.60319972","LONGITUDE":"-103.9604493","distance":1.39},{"ADDRESS":"44203 BEAR SPRINGS TRL  TRINIDAD, CO 81082 ","CITY":"HOEHNE","STATE":"CO","SOLD PRICE":["6000 "],"LOT AREA":1733252,"LOT ACREAGE":39.79,"PRICE PER ACRE":151,"LATITUDE":"37.6245814","LONGITUDE":"-103.9148689","distance":1.51},{"ADDRESS":"43751 BEAR SPRINGS TRL  CO ","CITY":"HOEHNE","STATE":"CO","SOLD PRICE":["7500 "],"LOT AREA":1808611,"LOT ACREAGE":41.52,"PRICE PER ACRE":181,"LATITUDE":"37.62526442","LONGITUDE":"-103.9651547","distance":1.7}],"estimatedValue":12784},{"SITUS FULL ADDRESS":"CO","SITUS CITY":"","ALTERNATE APN":"122 89 900","COUNTY":"LAS ANIMAS","LOT AREA":1560319,"LOT ACREAGE":35.82,"LATITUDE":"37.3092921207622","LONGITUDE":"-104.666937598832","APN - UNFORMATTED":"=\"12289900\"","IN FLOOD ZONE":false,"OWNER MAILING NAME":"BUDD RENTALS LLC","MAILING STREET ADDRESS":"1601 S LANSING ST","MAIL CITY":"AURORA","MAIL STATE":"CO","MAIL ZIPZIP4":"80012-5128","MARKET TOTAL VALUE":35820,"id":30,"avgPPA":1339.6666666666667,"avgPPA2":1274.6666666666667,"avgPPA3":1281,"estValue":47987,"estValue2":45659,"estValue3":45885,"offer":22800,"offer1":23900,"offer2":22800,"offer3":22900,"offerPPA":0,"jasonOffer":0,"jasonEstValue":0,"statusColor":"green","marketValueFlag":false,"propertyLink":"https://www.google.com/search?q=CO","soldArr":[{"ADDRESS":"CO ","CITY":"AGUILAR","STATE":"CO","SOLD PRICE":["51500 "],"LOT AREA":1560755,"LOT ACREAGE":35.83,"PRICE PER ACRE":1437,"LATITUDE":"37.30714239","LONGITUDE":"-104.6522077","distance":0.82},{"ADDRESS":"CO ","CITY":"AGUILAR","STATE":"CO","SOLD PRICE":["69000 "],"LOT AREA":1546380,"LOT ACREAGE":35.5,"PRICE PER ACRE":1944,"LATITUDE":"37.3027325","LONGITUDE":"-104.668013","distance":0.46},{"ADDRESS":"23241 S RIDGELINE DR  TRINIDAD, CO 81082 ","CITY":"AGUILAR","STATE":"CO","SOLD PRICE":["60000 "],"LOT AREA":1548994,"LOT ACREAGE":35.56,"PRICE PER ACRE":1687,"LATITUDE":"37.33121251","LONGITUDE":"-104.6683383","distance":1.52},{"ADDRESS":"CO ","CITY":"AGUILAR","STATE":"CO","SOLD PRICE":["28000 "],"LOT AREA":1742400,"LOT ACREAGE":40,"PRICE PER ACRE":700,"LATITUDE":"37.31090499","LONGITUDE":"-104.6433216","distance":1.3},{"ADDRESS":"28224 WILLIS LN  TRINIDAD, CO 81082 ","CITY":"AGUILAR","STATE":"CO","SOLD PRICE":["25500 "],"LOT AREA":1742400,"LOT ACREAGE":40,"PRICE PER ACRE":638,"LATITUDE":"37.30363922","LONGITUDE":"-104.647979","distance":1.11}],"estimatedValue":45659},{"SITUS FULL ADDRESS":"23930 ADAMS RD  TRINIDAD, CO 81082","SITUS CITY":"TRINIDAD","ALTERNATE APN":"123 02 300","COUNTY":"LAS ANIMAS","LOT AREA":1528956,"LOT ACREAGE":35.1,"LATITUDE":"37.3338131078862","LONGITUDE":"-104.526606065001","APN - UNFORMATTED":"=\"12302300\"","IN FLOOD ZONE":false,"OWNER MAILING NAME":"RICHARD SIMMONS","MAILING STREET ADDRESS":"23930 ADAMS RD","MAIL CITY":"TRINIDAD","MAIL STATE":"CO","MAIL ZIPZIP4":"81082-4108","MARKET TOTAL VALUE":1146,"id":31,"avgPPA":964,"avgPPA2":774,"avgPPA3":806,"estValue":33836,"estValue2":27167,"estValue3":28291,"offer":13500,"offer1":16900,"offer2":13500,"offer3":14100,"offerPPA":0,"jasonOffer":0,"jasonEstValue":0,"statusColor":"green","marketValueFlag":false,"propertyLink":"https://www.google.com/search?q=23930+ADAMS+RD+TRINIDAD,+CO+81082","soldArr":[{"ADDRESS":"24030 BERWIND RD  TRINIDAD, CO 81082 ","CITY":"AGUILAR","STATE":"CO","SOLD PRICE":["40000 "],"LOT AREA":1528956,"LOT ACREAGE":35.1,"PRICE PER ACRE":1140,"LATITUDE":"37.34031869","LONGITUDE":"-104.5135854","distance":0.84},{"ADDRESS":"24020 ADAMS RD  TRINIDAD, CO 81082 ","CITY":"AGUILAR","STATE":"CO","SOLD PRICE":["37000 "],"LOT AREA":1528956,"LOT ACREAGE":35.1,"PRICE PER ACRE":1054,"LATITUDE":"37.34158706","LONGITUDE":"-104.534911","distance":0.7},{"ADDRESS":"24100 HILL TOP RD  CO ","CITY":"AGUILAR","STATE":"CO","SOLD PRICE":["20000 "],"LOT AREA":1528956,"LOT ACREAGE":35.1,"PRICE PER ACRE":570,"LATITUDE":"37.34729294","LONGITUDE":"-104.5012221","distance":1.68},{"ADDRESS":"23600 BLACK HILLS DR  TRINIDAD, CO 81082 ","CITY":"AGUILAR","STATE":"CO","SOLD PRICE":["24500 "],"LOT AREA":1528956,"LOT ACREAGE":35.1,"PRICE PER ACRE":698,"LATITUDE":"37.32611883","LONGITUDE":"-104.5096542","distance":1.07},{"ADDRESS":"23630 BLACK HILLS DR  TRINIDAD, CO 81082 ","CITY":"AGUILAR","STATE":"CO","SOLD PRICE":["20000 "],"LOT AREA":1528956,"LOT ACREAGE":35.1,"PRICE PER ACRE":570,"LATITUDE":"37.32974794","LONGITUDE":"-104.5031451","distance":1.32}],"estimatedValue":27167},{"SITUS FULL ADDRESS":"CO","SITUS CITY":"","ALTERNATE APN":"106 99 300","COUNTY":"LAS ANIMAS","LOT AREA":1528956,"LOT ACREAGE":35.1,"LATITUDE":"37.6257938528467","LONGITUDE":"-104.202663185415","APN - UNFORMATTED":"=\"10699300\"","IN FLOOD ZONE":false,"OWNER MAILING NAME":"DOUGLAS CONNOLLY","MAILING STREET ADDRESS":"266 N 8TH AVE","MAIL CITY":"BRIGHTON","MAIL STATE":"CO","MAIL ZIPZIP4":"80601-1730","MARKET TOTAL VALUE":12285,"id":32,"avgPPA":1967.3333333333333,"avgPPA2":391,"avgPPA3":1346,"estValue":69053,"estValue2":13724,"estValue3":47245,"offer":6800,"offer1":34500,"offer2":6800,"offer3":23600,"offerPPA":0,"jasonOffer":0,"jasonEstValue":0,"statusColor":"green","marketValueFlag":false,"propertyLink":"https://www.google.com/search?q=CO","soldArr":[{"ADDRESS":"CO ","CITY":"HOEHNE","STATE":"CO","SOLD PRICE":["183320 "],"LOT AREA":1528956,"LOT ACREAGE":35.1,"PRICE PER ACRE":5223,"LATITUDE":"37.6259344","LONGITUDE":"-104.1967702","distance":0.32},{"ADDRESS":"CO ","CITY":"HOEHNE","STATE":"CO","SOLD PRICE":["12500 "],"LOT AREA":1626966,"LOT ACREAGE":37.35,"PRICE PER ACRE":335,"LATITUDE":"37.59485642","LONGITUDE":"-104.1716585","distance":2.73},{"ADDRESS":"CO ","CITY":"HOEHNE","STATE":"CO","SOLD PRICE":["14900 "],"LOT AREA":1572080,"LOT ACREAGE":36.09,"PRICE PER ACRE":413,"LATITUDE":"37.62018129","LONGITUDE":"-104.1485417","distance":2.99},{"ADDRESS":"CO ","CITY":"HOEHNE","STATE":"CO","SOLD PRICE":["13499 "],"LOT AREA":1711472,"LOT ACREAGE":39.29,"PRICE PER ACRE":344,"LATITUDE":"37.63062128","LONGITUDE":"-104.1558974","distance":2.58},{"ADDRESS":"CO ","CITY":"HOEHNE","STATE":"CO","SOLD PRICE":["14900 "],"LOT AREA":1558577,"LOT ACREAGE":35.78,"PRICE PER ACRE":416,"LATITUDE":"37.63728593","LONGITUDE":"-104.1466443","distance":3.17}],"estimatedValue":13724},{"SITUS FULL ADDRESS":"CO","SITUS CITY":"","ALTERNATE APN":"122 89 000","COUNTY":"LAS ANIMAS","LOT AREA":1812096,"LOT ACREAGE":41.6,"LATITUDE":"37.5772877706074","LONGITUDE":"-103.988224056185","APN - UNFORMATTED":"=\"12289000\"","IN FLOOD ZONE":false,"OWNER MAILING NAME":"CHELSEA GUTIERREZ","MAILING STREET ADDRESS":"9515 N 119TH ST W","MAIL CITY":"SEDGWICK","MAIL STATE":"KS","MAIL ZIPZIP4":"67135-9582","MARKET TOTAL VALUE":14560,"id":33,"avgPPA":381.3333333333333,"avgPPA2":359.3333333333333,"avgPPA3":352,"estValue":15863,"estValue2":14948,"estValue3":14643,"offer":7400,"offer1":7900,"offer2":7400,"offer3":7300,"offerPPA":0,"jasonOffer":0,"jasonEstValue":0,"statusColor":"green","marketValueFlag":false,"propertyLink":"https://www.google.com/search?q=CO","soldArr":[{"ADDRESS":"39722 BEAR SPRINGS TRL  CO ","CITY":"HOEHNE","STATE":"CO","SOLD PRICE":["19900 "],"LOT AREA":1720620,"LOT ACREAGE":39.5,"PRICE PER ACRE":504,"LATITUDE":"37.56960009","LONGITUDE":"-103.9745208","distance":0.92},{"ADDRESS":"41088 BEAR SPRINGS TRL  CO ","CITY":"HOEHNE","STATE":"CO","SOLD PRICE":["15900 "],"LOT AREA":1815581,"LOT ACREAGE":41.68,"PRICE PER ACRE":381,"LATITUDE":"37.58854597","LONGITUDE":"-103.9789577","distance":0.93},{"ADDRESS":"CO ","CITY":"HOEHNE","STATE":"CO","SOLD PRICE":["19000 "],"LOT AREA":1795108,"LOT ACREAGE":41.21,"PRICE PER ACRE":461,"LATITUDE":"37.58111012","LONGITUDE":"-103.9973556","distance":0.57},{"ADDRESS":"CO ","CITY":"HOEHNE","STATE":"CO","SOLD PRICE":["7677 "],"LOT AREA":1863061,"LOT ACREAGE":42.77,"PRICE PER ACRE":179,"LATITUDE":"37.57366151","LONGITUDE":"-104.0020161","distance":0.8},{"ADDRESS":"CO ","CITY":"HOEHNE","STATE":"CO","SOLD PRICE":["9500 "],"LOT AREA":1752419,"LOT ACREAGE":40.23,"PRICE PER ACRE":236,"LATITUDE":"37.5998016","LONGITUDE":"-104.0017567","distance":1.72}],"estimatedValue":14948},{"SITUS FULL ADDRESS":"23870 BLACK BEAR RD  TRINIDAD, CO 81082","SITUS CITY":"TRINIDAD","ALTERNATE APN":"143 72 500","COUNTY":"LAS ANIMAS","LOT AREA":1525471,"LOT ACREAGE":35.02,"LATITUDE":"37.3370699357983","LONGITUDE":"-104.714416422946","APN - UNFORMATTED":"=\"14372500\"","IN FLOOD ZONE":false,"OWNER MAILING NAME":"RONALD & MELISSA JONES","MAILING STREET ADDRESS":"180437 N 2650 RD","MAIL CITY":"WALTERS","MAIL STATE":"OK","MAIL ZIPZIP4":"73572-3908","MARKET TOTAL VALUE":24037,"id":34,"avgPPA":2733.3333333333335,"avgPPA2":2208,"avgPPA3":2369,"estValue":95721,"estValue2":77324,"estValue3":82962,"offer":38600,"offer1":47800,"offer2":38600,"offer3":41400,"offerPPA":0,"jasonOffer":0,"jasonEstValue":0,"statusColor":"green","marketValueFlag":false,"propertyLink":"https://www.google.com/search?q=23870+BLACK+BEAR+RD+TRINIDAD,+CO+81082","soldArr":[{"ADDRESS":"CO ","CITY":"AGUILAR","STATE":"CO","SOLD PRICE":["67750 "],"LOT AREA":1534183,"LOT ACREAGE":35.22,"PRICE PER ACRE":1924,"LATITUDE":"37.34393979","LONGITUDE":"-104.7264132","distance":0.81},{"ADDRESS":"CO ","CITY":"AGUILAR","STATE":"CO","SOLD PRICE":["89500 "],"LOT AREA":1524600,"LOT ACREAGE":35,"PRICE PER ACRE":2557,"LATITUDE":"37.32970169","LONGITUDE":"-104.7163068","distance":0.52},{"ADDRESS":"CO ","CITY":"AGUILAR","STATE":"CO","SOLD PRICE":["139300 "],"LOT AREA":1631758,"LOT ACREAGE":37.46,"PRICE PER ACRE":3719,"LATITUDE":"37.32895869","LONGITUDE":"-104.7258336","distance":0.84},{"ADDRESS":"CO ","CITY":"AGUILAR","STATE":"CO","SOLD PRICE":["55000 "],"LOT AREA":1595167,"LOT ACREAGE":36.62,"PRICE PER ACRE":1502,"LATITUDE":"37.34304643","LONGITUDE":"-104.7297767","distance":0.94},{"ADDRESS":"CO ","CITY":"AGUILAR","STATE":"CO","SOLD PRICE":["75000 "],"LOT AREA":1524600,"LOT ACREAGE":35,"PRICE PER ACRE":2143,"LATITUDE":"37.32957573","LONGITUDE":"-104.702164","distance":0.85}],"estimatedValue":77324},{"SITUS FULL ADDRESS":"CO","SITUS CITY":"","ALTERNATE APN":"142 96 500","COUNTY":"LAS ANIMAS","LOT AREA":1546380,"LOT ACREAGE":35.5,"LATITUDE":"37.4821723585884","LONGITUDE":"-104.235322042481","APN - UNFORMATTED":"=\"14296500\"","IN FLOOD ZONE":false,"OWNER MAILING NAME":"ALBERT & WANDA TROY","MAILING STREET ADDRESS":"743 CIRCLE CT","MAIL CITY":"SOUTH SAN FRANCISCO","MAIL STATE":"CA","MAIL ZIPZIP4":"94080-2443","MARKET TOTAL VALUE":1159,"id":35,"avgPPA":255.66666666666666,"avgPPA2":282.3333333333333,"avgPPA3":279,"estValue":9076,"estValue2":10023,"estValue3":9905,"offer":5000,"offer1":4500,"offer2":5000,"offer3":4900,"offerPPA":0,"jasonOffer":0,"jasonEstValue":0,"statusColor":"green","marketValueFlag":false,"propertyLink":"https://www.google.com/search?q=CO","soldArr":[{"ADDRESS":"CO ","CITY":"HOEHNE","STATE":"CO","SOLD PRICE":["8000 "],"LOT AREA":1585584,"LOT ACREAGE":36.4,"PRICE PER ACRE":220,"LATITUDE":"37.46949111","LONGITUDE":"-104.2180498","distance":1.29},{"ADDRESS":"CO ","CITY":"HOEHNE","STATE":"CO","SOLD PRICE":["14900 "],"LOT AREA":1546380,"LOT ACREAGE":35.5,"PRICE PER ACRE":420,"LATITUDE":"37.47419487","LONGITUDE":"-104.2091959","distance":1.53},{"ADDRESS":"CO ","CITY":"HOEHNE","STATE":"CO","SOLD PRICE":["4600 "],"LOT AREA":1581228,"LOT ACREAGE":36.3,"PRICE PER ACRE":127,"LATITUDE":"37.49654247","LONGITUDE":"-104.2581232","distance":1.6},{"ADDRESS":"51015 COUNTY ROAD 64  MODEL, CO 81059 ","CITY":"HOEHNE","STATE":"CO","SOLD PRICE":["9997 "],"LOT AREA":1546380,"LOT ACREAGE":35.5,"PRICE PER ACRE":282,"LATITUDE":"37.45900053","LONGITUDE":"-104.2278854","distance":1.65},{"ADDRESS":"CO ","CITY":"HOEHNE","STATE":"CO","SOLD PRICE":["12500 "],"LOT AREA":1576872,"LOT ACREAGE":36.2,"PRICE PER ACRE":345,"LATITUDE":"37.4964107","LONGITUDE":"-104.2743459","distance":2.35}],"estimatedValue":10023},{"SITUS FULL ADDRESS":"CO","SITUS CITY":"","ALTERNATE APN":"107 42 800","COUNTY":"LAS ANIMAS","LOT AREA":1534183,"LOT ACREAGE":35.22,"LATITUDE":"37.2010144030723","LONGITUDE":"-104.541373088338","APN - UNFORMATTED":"=\"10742800\"","IN FLOOD ZONE":false,"OWNER MAILING NAME":"BECKY CORTNER","MAILING STREET ADDRESS":"2060 POTEAE CIR","MAIL CITY":"COLORADO SPRINGS","MAIL STATE":"CO","MAIL ZIPZIP4":"80915-1811","MARKET TOTAL VALUE":40151,"id":36,"avgPPA":994.3333333333334,"avgPPA2":1088,"avgPPA3":1569,"estValue":35020,"estValue2":38319,"estValue3":55260,"offer":19100,"offer1":17500,"offer2":19100,"offer3":27600,"offerPPA":0,"jasonOffer":0,"jasonEstValue":0,"statusColor":"green","marketValueFlag":false,"propertyLink":"https://www.google.com/search?q=CO","soldArr":[{"ADDRESS":"CO ","CITY":"TRINIDAD","STATE":"CO","SOLD PRICE":["38000 "],"LOT AREA":1527649,"LOT ACREAGE":35.07,"PRICE PER ACRE":1084,"LATITUDE":"37.20492881","LONGITUDE":"-104.5456293","distance":0.36},{"ADDRESS":"14946 HIGHVIEW CIR  TRINIDAD, CO 81082 ","CITY":"TRINIDAD","STATE":"CO","SOLD PRICE":["30000 "],"LOT AREA":1575130,"LOT ACREAGE":36.16,"PRICE PER ACRE":830,"LATITUDE":"37.2051236","LONGITUDE":"-104.5521428","distance":0.66},{"ADDRESS":"14004 PINION PINE LN  TRINIDAD, CO 81082 ","CITY":"TRINIDAD","STATE":"CO","SOLD PRICE":["40000 "],"LOT AREA":1568160,"LOT ACREAGE":36,"PRICE PER ACRE":1111,"LATITUDE":"37.19480235","LONGITUDE":"-104.5281732","distance":0.84},{"ADDRESS":"CO ","CITY":"TRINIDAD","STATE":"CO","SOLD PRICE":["37550 "],"LOT AREA":1530698,"LOT ACREAGE":35.14,"PRICE PER ACRE":1069,"LATITUDE":"37.20234836","LONGITUDE":"-104.5379561","distance":0.21},{"ADDRESS":"CO ","CITY":"TRINIDAD","STATE":"CO","SOLD PRICE":["150000 "],"LOT AREA":1742400,"LOT ACREAGE":40,"PRICE PER ACRE":3750,"LATITUDE":"37.19861243","LONGITUDE":"-104.5239586","distance":0.97}],"estimatedValue":38319},{"SITUS FULL ADDRESS":"CO","SITUS CITY":"","ALTERNATE APN":"139 20 700","COUNTY":"LAS ANIMAS","LOT AREA":2037301,"LOT ACREAGE":46.77,"LATITUDE":"37.2102324945793","LONGITUDE":"-104.617665345453","APN - UNFORMATTED":"=\"13920700\"","IN FLOOD ZONE":false,"OWNER MAILING NAME":"RAMSEY & KOINA ORR","MAILING STREET ADDRESS":"4340 DURHAM CT","MAIL CITY":"DENVER","MAIL STATE":"CO","MAIL ZIPZIP4":"80239-5172","MARKET TOTAL VALUE":29933,"id":37,"avgPPA":691.6666666666666,"avgPPA2":797,"avgPPA3":743,"estValue":32349,"estValue2":37276,"estValue3":34750,"offer":18600,"offer1":16100,"offer2":18600,"offer3":17300,"offerPPA":0,"jasonOffer":0,"jasonEstValue":0,"statusColor":"green","marketValueFlag":false,"propertyLink":"https://www.google.com/search?q=CO","soldArr":[{"ADDRESS":"CO ","CITY":"TRINIDAD","STATE":"CO","SOLD PRICE":["35000 "],"LOT AREA":1742400,"LOT ACREAGE":40,"PRICE PER ACRE":875,"LATITUDE":"37.21652743","LONGITUDE":"-104.6706273","distance":2.95},{"ADDRESS":"CO ","CITY":"TRINIDAD","STATE":"CO","SOLD PRICE":["35000 "],"LOT AREA":1927530,"LOT ACREAGE":44.25,"PRICE PER ACRE":791,"LATITUDE":"37.22814274","LONGITUDE":"-104.5493774","distance":3.96},{"ADDRESS":"CO ","CITY":"TRINIDAD","STATE":"CO","SOLD PRICE":["34000 "],"LOT AREA":1742400,"LOT ACREAGE":40,"PRICE PER ACRE":850,"LATITUDE":"37.2309222","LONGITUDE":"-104.6795102","distance":3.69},{"ADDRESS":"CO ","CITY":"TRINIDAD","STATE":"CO","SOLD PRICE":["18000 "],"LOT AREA":1742400,"LOT ACREAGE":40,"PRICE PER ACRE":450,"LATITUDE":"37.22733304","LONGITUDE":"-104.6795218","distance":3.6},{"ADDRESS":"CO ","CITY":"TRINIDAD","STATE":"CO","SOLD PRICE":["30000 "],"LOT AREA":1742400,"LOT ACREAGE":40,"PRICE PER ACRE":750,"LATITUDE":"37.21292532","LONGITUDE":"-104.6750998","distance":3.17}],"estimatedValue":37276},{"SITUS FULL ADDRESS":"CO","SITUS CITY":"","ALTERNATE APN":"108 02 801","COUNTY":"LAS ANIMAS","LOT AREA":1528956,"LOT ACREAGE":35.1,"LATITUDE":"37.2926656830535","LONGITUDE":"-104.53419045753","APN - UNFORMATTED":"=\"10802801\"","IN FLOOD ZONE":false,"OWNER MAILING NAME":"MYRON SCOTT","MAILING STREET ADDRESS":"19892 COUNTY ROAD 677","MAIL CITY":"TRINIDAD","MAIL STATE":"CO","MAIL ZIPZIP4":"81082","MARKET TOTAL VALUE":1201,"id":38,"avgPPA":578.6666666666666,"avgPPA2":772.6666666666666,"avgPPA3":697,"estValue":20311,"estValue2":27121,"estValue3":24465,"offer":13500,"offer1":10100,"offer2":13500,"offer3":12200,"offerPPA":0,"jasonOffer":0,"jasonEstValue":0,"statusColor":"green","marketValueFlag":false,"propertyLink":"https://www.google.com/search?q=CO","soldArr":[{"ADDRESS":"33750 S CIRCLE  TRINIDAD, CO 81082 ","CITY":"AGUILAR","STATE":"CO","SOLD PRICE":["35000 "],"LOT AREA":1527649,"LOT ACREAGE":35.07,"PRICE PER ACRE":998,"LATITUDE":"37.31840758","LONGITUDE":"-104.5415716","distance":1.82},{"ADDRESS":"33203 COUNTY ROAD 40  TRINIDAD, CO 81082 ","CITY":"TRINIDAD","STATE":"CO","SOLD PRICE":["39950 "],"LOT AREA":1528956,"LOT ACREAGE":35.1,"PRICE PER ACRE":1138,"LATITUDE":"37.28390092","LONGITUDE":"-104.5499288","distance":1.06},{"ADDRESS":"34420 COUNTY ROAD 42 2  TRINIDAD, CO 81082 ","CITY":"TRINIDAD","STATE":"CO","SOLD PRICE":["20000 "],"LOT AREA":1528956,"LOT ACREAGE":35.1,"PRICE PER ACRE":570,"LATITUDE":"37.31653053","LONGITUDE":"-104.5263319","distance":1.7},{"ADDRESS":"34400 PRONGHORN RD  TRINIDAD, CO 81082 ","CITY":"TRINIDAD","STATE":"CO","SOLD PRICE":["1000 "],"LOT AREA":1528956,"LOT ACREAGE":35.1,"PRICE PER ACRE":28,"LATITUDE":"37.31600433","LONGITUDE":"-104.5348573","distance":1.61},{"ADDRESS":"32510 TOLLERBURG RD  CO ","CITY":"TRINIDAD","STATE":"CO","SOLD PRICE":["30000 "],"LOT AREA":1742400,"LOT ACREAGE":40,"PRICE PER ACRE":750,"LATITUDE":"37.28661344","LONGITUDE":"-104.5684518","distance":1.93}],"estimatedValue":27121},{"SITUS FULL ADDRESS":"CO","SITUS CITY":"","ALTERNATE APN":"122 66 900","COUNTY":"LAS ANIMAS","LOT AREA":1635678,"LOT ACREAGE":37.55,"LATITUDE":"37.4349979395881","LONGITUDE":"-104.709351465339","APN - UNFORMATTED":"=\"12266900\"","IN FLOOD ZONE":false,"OWNER MAILING NAME":"TAMARA SATTERFIELD","MAILING STREET ADDRESS":"6810 DAUNTLESS CT","MAIL CITY":"COLORADO SPRINGS","MAIL STATE":"CO","MAIL ZIPZIP4":"80919-1305","MARKET TOTAL VALUE":1226,"id":39,"avgPPA":2223.6666666666665,"avgPPA2":1683.6666666666667,"avgPPA3":1768,"estValue":83499,"estValue2":63222,"estValue3":66388,"offer":31600,"offer1":41700,"offer2":31600,"offer3":33100,"offerPPA":0,"jasonOffer":0,"jasonEstValue":0,"statusColor":"green","marketValueFlag":false,"propertyLink":"https://www.google.com/search?q=CO","soldArr":[{"ADDRESS":"CO ","CITY":"AGUILAR","STATE":"CO","SOLD PRICE":["72000 "],"LOT AREA":1408730,"LOT ACREAGE":32.34,"PRICE PER ACRE":2226,"LATITUDE":"37.42832146","LONGITUDE":"-104.7221214","distance":0.84},{"ADDRESS":"CO ","CITY":"AGUILAR","STATE":"CO","SOLD PRICE":["44000 "],"LOT AREA":1526778,"LOT ACREAGE":35.05,"PRICE PER ACRE":1255,"LATITUDE":"37.44562827","LONGITUDE":"-104.6875304","distance":1.4},{"ADDRESS":"CO ","CITY":"AGUILAR","STATE":"CO","SOLD PRICE":["32000 "],"LOT AREA":1526778,"LOT ACREAGE":35.05,"PRICE PER ACRE":913,"LATITUDE":"37.41639165","LONGITUDE":"-104.7368443","distance":1.98},{"ADDRESS":"24777 SANDS WOODS DR  CO ","CITY":"AGUILAR","STATE":"CO","SOLD PRICE":["55000 "],"LOT AREA":1526342,"LOT ACREAGE":35.04,"PRICE PER ACRE":1570,"LATITUDE":"37.41993439","LONGITUDE":"-104.7060814","distance":1.06},{"ADDRESS":"CO ","CITY":"AGUILAR","STATE":"CO","SOLD PRICE":["95000 "],"LOT AREA":1439222,"LOT ACREAGE":33.04,"PRICE PER ACRE":2875,"LATITUDE":"37.42540105","LONGITUDE":"-104.7297387","distance":1.3}],"estimatedValue":63222},{"SITUS FULL ADDRESS":"4955 EAGLES NEST OVERLOOK  TRINIDAD, CO 81082","SITUS CITY":"TRINIDAD","ALTERNATE APN":"102 43 000","COUNTY":"LAS ANIMAS","LOT AREA":1670526,"LOT ACREAGE":38.35,"LATITUDE":"37.0600986182257","LONGITUDE":"-104.533523190599","APN - UNFORMATTED":"=\"10243000\"","IN FLOOD ZONE":false,"OWNER MAILING NAME":"MARTIN PACHELLI","MAILING STREET ADDRESS":"33016 EAGLES NEST OVERLOOK","MAIL CITY":"TRINIDAD","MAIL STATE":"CO","MAIL ZIPZIP4":"81082-9094","MARKET TOTAL VALUE":1252,"id":40,"avgPPA":2150.6666666666665,"avgPPA2":1959,"avgPPA3":2038,"estValue":82478,"estValue2":75128,"estValue3":78157,"offer":37500,"offer1":41200,"offer2":37500,"offer3":39000,"offerPPA":0,"jasonOffer":0,"jasonEstValue":0,"statusColor":"green","marketValueFlag":false,"propertyLink":"https://www.google.com/search?q=4955+EAGLES+NEST+OVERLOOK+TRINIDAD,+CO+81082","soldArr":[{"ADDRESS":"33090 TURKEY CREEK LN  TRINIDAD, CO 81082 ","CITY":"TRINIDAD","STATE":"CO","SOLD PRICE":["107450 "],"LOT AREA":1528956,"LOT ACREAGE":35.1,"PRICE PER ACRE":3061,"LATITUDE":"37.05684827","LONGITUDE":"-104.5351551","distance":0.24},{"ADDRESS":"34111 TURKEY CREEK LN  AGUILAR, CO 81020 ","CITY":"TRINIDAD","STATE":"CO","SOLD PRICE":["44000 "],"LOT AREA":1528956,"LOT ACREAGE":35.1,"PRICE PER ACRE":1254,"LATITUDE":"37.05692781","LONGITUDE":"-104.5428918","distance":0.56},{"ADDRESS":"33260 TURKEY CREEK LN  CO ","CITY":"TRINIDAD","STATE":"CO","SOLD PRICE":["75000 "],"LOT AREA":1528956,"LOT ACREAGE":35.1,"PRICE PER ACRE":2137,"LATITUDE":"37.06402399","LONGITUDE":"-104.544486","distance":0.66},{"ADDRESS":"33084 PONDEROSA RIDGE DR  CO ","CITY":"TRINIDAD","STATE":"CO","SOLD PRICE":["69000 "],"LOT AREA":1526778,"LOT ACREAGE":35.05,"PRICE PER ACRE":1969,"LATITUDE":"37.07151193","LONGITUDE":"-104.5263236","distance":0.88},{"ADDRESS":"34338 MOUNTAIN MEADOW OVERLOOK  TRINIDAD, CO 81082 ","CITY":"TRINIDAD","STATE":"CO","SOLD PRICE":["63000 "],"LOT AREA":1549865,"LOT ACREAGE":35.58,"PRICE PER ACRE":1771,"LATITUDE":"37.04663946","LONGITUDE":"-104.5353038","distance":0.94}],"estimatedValue":75128},{"SITUS FULL ADDRESS":"CO","SITUS CITY":"","ALTERNATE APN":"121 63 800","COUNTY":"LAS ANIMAS","LOT AREA":1742400,"LOT ACREAGE":40,"LATITUDE":"37.6354342974352","LONGITUDE":"-103.914835354611","APN - UNFORMATTED":"=\"12163800\"","IN FLOOD ZONE":false,"OWNER MAILING NAME":"MICHAEL RUAF","MAILING STREET ADDRESS":"9600 BROADVIEW TER","MAIL CITY":"BAY HARBOR ISLANDS","MAIL STATE":"FL","MAIL ZIPZIP4":"33154-1934","MARKET TOTAL VALUE":14000,"id":41,"avgPPA":152.66666666666666,"avgPPA2":235.66666666666666,"avgPPA3":242,"estValue":6107,"estValue2":9427,"estValue3":9680,"offer":4700,"offer1":3000,"offer2":4700,"offer3":4800,"offerPPA":0,"jasonOffer":0,"jasonEstValue":0,"statusColor":"red","marketValueFlag":true,"propertyLink":"https://www.google.com/search?q=CO","soldArr":[{"ADDRESS":"44203 BEAR SPRINGS TRL  TRINIDAD, CO 81082 ","CITY":"HOEHNE","STATE":"CO","SOLD PRICE":["6000 "],"LOT AREA":1733252,"LOT ACREAGE":39.79,"PRICE PER ACRE":151,"LATITUDE":"37.6245814","LONGITUDE":"-103.9148689","distance":0.75},{"ADDRESS":"CO ","CITY":"HOEHNE","STATE":"CO","SOLD PRICE":["5000 "],"LOT AREA":1733252,"LOT ACREAGE":39.79,"PRICE PER ACRE":126,"LATITUDE":"37.6242766","LONGITUDE":"-103.9241761","distance":0.92},{"ADDRESS":"43751 BEAR SPRINGS TRL  CO ","CITY":"HOEHNE","STATE":"CO","SOLD PRICE":["7500 "],"LOT AREA":1808611,"LOT ACREAGE":41.52,"PRICE PER ACRE":181,"LATITUDE":"37.62526442","LONGITUDE":"-103.9651547","distance":2.84},{"ADDRESS":"CO ","CITY":"HOEHNE","STATE":"CO","SOLD PRICE":["15000 "],"LOT AREA":1742400,"LOT ACREAGE":40,"PRICE PER ACRE":375,"LATITUDE":"37.60742955","LONGITUDE":"-103.9696814","distance":3.57},{"ADDRESS":"CO ","CITY":"HOEHNE","STATE":"CO","SOLD PRICE":["15400 "],"LOT AREA":1784218,"LOT ACREAGE":40.96,"PRICE PER ACRE":376,"LATITUDE":"37.61396836","LONGITUDE":"-103.9627008","distance":3.01}],"estimatedValue":9427},{"SITUS FULL ADDRESS":"CO","SITUS CITY":"","ALTERNATE APN":"145 21 310","COUNTY":"LAS ANIMAS","LOT AREA":1546641,"LOT ACREAGE":35.51,"LATITUDE":"37.3158508186701","LONGITUDE":"-104.038716473201","APN - UNFORMATTED":"=\"14521310\"","IN FLOOD ZONE":false,"OWNER MAILING NAME":"KENNETH & GAIL DECKER","MAILING STREET ADDRESS":"25611 N RIDGELINE DR","MAIL CITY":"TRINIDAD","MAIL STATE":"CO","MAIL ZIPZIP4":"81082-8676","MARKET TOTAL VALUE":35506,"id":42,"avgPPA":null,"avgPPA2":null,"avgPPA3":0,"estValue":null,"estValue2":null,"estValue3":0,"offer":0,"offer1":null,"offer2":null,"offer3":0,"offerPPA":0,"jasonOffer":0,"jasonEstValue":0,"statusColor":"red","marketValueFlag":false,"propertyLink":"https://www.google.com/search?q=CO","soldArr":[],"estimatedValue":0},{"SITUS FULL ADDRESS":"CO","SITUS CITY":"","ALTERNATE APN":"101 86 800","COUNTY":"LAS ANIMAS","LOT AREA":1534619,"LOT ACREAGE":35.23,"LATITUDE":"37.2009275767992","LONGITUDE":"-104.56058114949","APN - UNFORMATTED":"=\"10186800\"","IN FLOOD ZONE":false,"OWNER MAILING NAME":"LAND COUPLE LLC","MAILING STREET ADDRESS":"PO BOX 881929","MAIL CITY":"STEAMBOAT SPRINGS","MAIL STATE":"CO","MAIL ZIPZIP4":"80488-1929","MARKET TOTAL VALUE":40162,"id":43,"avgPPA":926.6666666666666,"avgPPA2":926.6666666666666,"avgPPA3":1451,"estValue":32646,"estValue2":32646,"estValue3":51119,"offer":16300,"offer1":16300,"offer2":16300,"offer3":25500,"offerPPA":0,"jasonOffer":0,"jasonEstValue":0,"statusColor":"green","marketValueFlag":false,"propertyLink":"https://www.google.com/search?q=CO","soldArr":[{"ADDRESS":"CO ","CITY":"TRINIDAD","STATE":"CO","SOLD PRICE":["38000 "],"LOT AREA":1527649,"LOT ACREAGE":35.07,"PRICE PER ACRE":1084,"LATITUDE":"37.20492881","LONGITUDE":"-104.5456293","distance":0.87},{"ADDRESS":"14946 HIGHVIEW CIR  TRINIDAD, CO 81082 ","CITY":"TRINIDAD","STATE":"CO","SOLD PRICE":["30000 "],"LOT AREA":1575130,"LOT ACREAGE":36.16,"PRICE PER ACRE":830,"LATITUDE":"37.2051236","LONGITUDE":"-104.5521428","distance":0.55},{"ADDRESS":"CO ","CITY":"TRINIDAD","STATE":"CO","SOLD PRICE":["130000 "],"LOT AREA":1530263,"LOT ACREAGE":35.13,"PRICE PER ACRE":3701,"LATITUDE":"37.18800164","LONGITUDE":"-104.5526527","distance":0.99},{"ADDRESS":"14799 HIGHVIEW CIR  TRINIDAD, CO 81082 ","CITY":"TRINIDAD","STATE":"CO","SOLD PRICE":["27500 "],"LOT AREA":1546380,"LOT ACREAGE":35.5,"PRICE PER ACRE":775,"LATITUDE":"37.1972791","LONGITUDE":"-104.5447989","distance":0.9},{"ADDRESS":"CO ","CITY":"TRINIDAD","STATE":"CO","SOLD PRICE":["33000 "],"LOT AREA":1660507,"LOT ACREAGE":38.12,"PRICE PER ACRE":866,"LATITUDE":"37.19652789","LONGITUDE":"-104.5597329","distance":0.31}],"estimatedValue":32646},{"SITUS FULL ADDRESS":"CO","SITUS CITY":"","ALTERNATE APN":"120 02 521","COUNTY":"LAS ANIMAS","LOT AREA":1742400,"LOT ACREAGE":40,"LATITUDE":"37.5550223576675","LONGITUDE":"-104.318550063019","APN - UNFORMATTED":"=\"12002521\"","IN FLOOD ZONE":false,"OWNER MAILING NAME":"STANLEY & BARBARA GRANAAS","MAILING STREET ADDRESS":"PO BOX 427","MAIL CITY":"GLENROCK","MAIL STATE":"WY","MAIL ZIPZIP4":"82637","MARKET TOTAL VALUE":14000,"id":44,"avgPPA":290,"avgPPA2":266.6666666666667,"avgPPA3":265,"estValue":11600,"estValue2":10667,"estValue3":10600,"offer":5300,"offer1":5800,"offer2":5300,"offer3":5300,"offerPPA":0,"jasonOffer":0,"jasonEstValue":0,"statusColor":"green","marketValueFlag":false,"propertyLink":"https://www.google.com/search?q=CO","soldArr":[{"ADDRESS":"CO ","CITY":"HOEHNE","STATE":"CO","SOLD PRICE":["10000 "],"LOT AREA":1742400,"LOT ACREAGE":40,"PRICE PER ACRE":250,"LATITUDE":"37.50740822","LONGITUDE":"-104.2964055","distance":3.51},{"ADDRESS":"43485 COUNTY ROAD 64 8  TRINIDAD, CO 81082 ","CITY":"AGUILAR","STATE":"CO","SOLD PRICE":["11000 "],"LOT AREA":1742400,"LOT ACREAGE":40,"PRICE PER ACRE":275,"LATITUDE":"37.50034576","LONGITUDE":"-104.3693671","distance":4.69},{"ADDRESS":"CO ","CITY":"HOEHNE","STATE":"CO","SOLD PRICE":["12500 "],"LOT AREA":1576872,"LOT ACREAGE":36.2,"PRICE PER ACRE":345,"LATITUDE":"37.4964107","LONGITUDE":"-104.2743459","distance":4.72},{"ADDRESS":"CO ","CITY":"HOEHNE","STATE":"CO","SOLD PRICE":["10997 "],"LOT AREA":1742400,"LOT ACREAGE":40,"PRICE PER ACRE":275,"LATITUDE":"37.48938712","LONGITUDE":"-104.3422821","distance":4.72},{"ADDRESS":"CO ","CITY":"HOEHNE","STATE":"CO","SOLD PRICE":["7123 "],"LOT AREA":1742400,"LOT ACREAGE":40,"PRICE PER ACRE":178,"LATITUDE":"37.48550089","LONGITUDE":"-104.2921596","distance":5.02}],"estimatedValue":10667},{"SITUS FULL ADDRESS":"CO","SITUS CITY":"","ALTERNATE APN":"104 99 300","COUNTY":"LAS ANIMAS","LOT AREA":1742400,"LOT ACREAGE":40,"LATITUDE":"37.5220703610008","LONGITUDE":"-104.323440228301","APN - UNFORMATTED":"=\"10499300\"","IN FLOOD ZONE":false,"OWNER MAILING NAME":"SHIROD BURCH","MAILING STREET ADDRESS":"3636 GARLAND CT","MAIL CITY":"COLORADO SPRINGS","MAIL STATE":"CO","MAIL ZIPZIP4":"80910-2827","MARKET TOTAL VALUE":14000,"id":45,"avgPPA":266.6666666666667,"avgPPA2":266.6666666666667,"avgPPA3":265,"estValue":10667,"estValue2":10667,"estValue3":10600,"offer":5300,"offer1":5300,"offer2":5300,"offer3":5300,"offerPPA":0,"jasonOffer":0,"jasonEstValue":0,"statusColor":"green","marketValueFlag":false,"propertyLink":"https://www.google.com/search?q=CO","soldArr":[{"ADDRESS":"CO ","CITY":"HOEHNE","STATE":"CO","SOLD PRICE":["10000 "],"LOT AREA":1742400,"LOT ACREAGE":40,"PRICE PER ACRE":250,"LATITUDE":"37.50740822","LONGITUDE":"-104.2964055","distance":1.79},{"ADDRESS":"43485 COUNTY ROAD 64 8  TRINIDAD, CO 81082 ","CITY":"AGUILAR","STATE":"CO","SOLD PRICE":["11000 "],"LOT AREA":1742400,"LOT ACREAGE":40,"PRICE PER ACRE":275,"LATITUDE":"37.50034576","LONGITUDE":"-104.3693671","distance":2.93},{"ADDRESS":"CO ","CITY":"HOEHNE","STATE":"CO","SOLD PRICE":["10997 "],"LOT AREA":1742400,"LOT ACREAGE":40,"PRICE PER ACRE":275,"LATITUDE":"37.48938712","LONGITUDE":"-104.3422821","distance":2.48},{"ADDRESS":"CO ","CITY":"HOEHNE","STATE":"CO","SOLD PRICE":["12500 "],"LOT AREA":1576872,"LOT ACREAGE":36.2,"PRICE PER ACRE":345,"LATITUDE":"37.4964107","LONGITUDE":"-104.2743459","distance":3.22},{"ADDRESS":"CO ","CITY":"HOEHNE","STATE":"CO","SOLD PRICE":["7123 "],"LOT AREA":1742400,"LOT ACREAGE":40,"PRICE PER ACRE":178,"LATITUDE":"37.48550089","LONGITUDE":"-104.2921596","distance":3.05}],"estimatedValue":10667},{"SITUS FULL ADDRESS":"CO","SITUS CITY":"","ALTERNATE APN":"143 34 000","COUNTY":"LAS ANIMAS","LOT AREA":1770714,"LOT ACREAGE":40.65,"LATITUDE":"37.5848755086656","LONGITUDE":"-104.001897114133","APN - UNFORMATTED":"=\"14334000\"","IN FLOOD ZONE":false,"OWNER MAILING NAME":"SANDRA MILENSKI","MAILING STREET ADDRESS":"4186 STATE HIGHWAY 194","MAIL CITY":"LAS ANIMAS","MAIL STATE":"CO","MAIL ZIPZIP4":"81054-9411","MARKET TOTAL VALUE":1391,"id":46,"avgPPA":340.6666666666667,"avgPPA2":359.6666666666667,"avgPPA3":360,"estValue":13848,"estValue2":14620,"estValue3":14634,"offer":7300,"offer1":6900,"offer2":7300,"offer3":7300,"offerPPA":0,"jasonOffer":0,"jasonEstValue":0,"statusColor":"green","marketValueFlag":false,"propertyLink":"https://www.google.com/search?q=CO","soldArr":[{"ADDRESS":"CO ","CITY":"HOEHNE","STATE":"CO","SOLD PRICE":["19000 "],"LOT AREA":1795108,"LOT ACREAGE":41.21,"PRICE PER ACRE":461,"LATITUDE":"37.58111012","LONGITUDE":"-103.9973556","distance":0.36},{"ADDRESS":"CO ","CITY":"HOEHNE","STATE":"CO","SOLD PRICE":["21900 "],"LOT AREA":1762438,"LOT ACREAGE":40.46,"PRICE PER ACRE":541,"LATITUDE":"37.5961122","LONGITUDE":"-103.9926648","distance":0.93},{"ADDRESS":"CO ","CITY":"HOEHNE","STATE":"CO","SOLD PRICE":["7677 "],"LOT AREA":1863061,"LOT ACREAGE":42.77,"PRICE PER ACRE":179,"LATITUDE":"37.57366151","LONGITUDE":"-104.0020161","distance":0.77},{"ADDRESS":"CO ","CITY":"HOEHNE","STATE":"CO","SOLD PRICE":["15900 "],"LOT AREA":1812096,"LOT ACREAGE":41.6,"PRICE PER ACRE":382,"LATITUDE":"37.57728777","LONGITUDE":"-103.9882241","distance":0.91},{"ADDRESS":"CO ","CITY":"HOEHNE","STATE":"CO","SOLD PRICE":["9500 "],"LOT AREA":1752419,"LOT ACREAGE":40.23,"PRICE PER ACRE":236,"LATITUDE":"37.5998016","LONGITUDE":"-104.0017567","distance":1.03}],"estimatedValue":14620},{"SITUS FULL ADDRESS":"CO","SITUS CITY":"","ALTERNATE APN":"125 24 800","COUNTY":"LAS ANIMAS","LOT AREA":1568160,"LOT ACREAGE":36,"LATITUDE":"37.1215623153434","LONGITUDE":"-104.627837985955","APN - UNFORMATTED":"=\"12524800\"","IN FLOOD ZONE":false,"OWNER MAILING NAME":"RICHARD & ANNE KNEPPER","MAILING STREET ADDRESS":"1813 RUGER CT","MAIL CITY":"SAINT CHARLES","MAIL STATE":"MO","MAIL ZIPZIP4":"63303-1118","MARKET TOTAL VALUE":61200,"id":47,"avgPPA":1777.6666666666667,"avgPPA2":1562,"avgPPA3":1605,"estValue":63996,"estValue2":56232,"estValue3":57780,"offer":28100,"offer1":31900,"offer2":28100,"offer3":28800,"offerPPA":0,"jasonOffer":0,"jasonEstValue":0,"statusColor":"green","marketValueFlag":false,"propertyLink":"https://www.google.com/search?q=CO","soldArr":[{"ADDRESS":"CO ","CITY":"PRIMERO","STATE":"CO","SOLD PRICE":["75000 "],"LOT AREA":1525036,"LOT ACREAGE":35.01,"PRICE PER ACRE":2142,"LATITUDE":"37.12348713","LONGITUDE":"-104.6267578","distance":0.15},{"ADDRESS":"CO ","CITY":"TRINIDAD","STATE":"CO","SOLD PRICE":["70000 "],"LOT AREA":1530263,"LOT ACREAGE":35.13,"PRICE PER ACRE":1993,"LATITUDE":"37.10904041","LONGITUDE":"-104.6191361","distance":0.99},{"ADDRESS":"7511 COUNTY ROAD 53.1  TRINIDAD, CO 81082 ","CITY":"TRINIDAD","STATE":"CO","SOLD PRICE":["42000 "],"LOT AREA":1526778,"LOT ACREAGE":35.05,"PRICE PER ACRE":1198,"LATITUDE":"37.09628036","LONGITUDE":"-104.6193167","distance":1.81},{"ADDRESS":"5851 FARVIEW VALLEY RD  TRINIDAD, CO 81082 ","CITY":"PRIMERO","STATE":"CO","SOLD PRICE":["45000 "],"LOT AREA":1550736,"LOT ACREAGE":35.6,"PRICE PER ACRE":1264,"LATITUDE":"37.10185206","LONGITUDE":"-104.6554644","distance":2.04},{"ADDRESS":"26701 MADRID CANYON RD  TRINIDAD, CO 81082 ","CITY":"PRIMERO","STATE":"CO","SOLD PRICE":["60000 "],"LOT AREA":1829084,"LOT ACREAGE":41.99,"PRICE PER ACRE":1429,"LATITUDE":"37.11007677","LONGITUDE":"-104.6748916","distance":2.71}],"estimatedValue":56232},{"SITUS FULL ADDRESS":"32013 COUNTY ROAD 53 7  TRINIDAD, CO 81082","SITUS CITY":"TRINIDAD","ALTERNATE APN":"119 31 000","COUNTY":"LAS ANIMAS","LOT AREA":1528956,"LOT ACREAGE":35.1,"LATITUDE":"37.4547634871109","LONGITUDE":"-104.665103031052","APN - UNFORMATTED":"=\"11931000\"","IN FLOOD ZONE":false,"OWNER MAILING NAME":"CHERRY GOUR & RICHARD FORD","MAILING STREET ADDRESS":"PO BOX 444","MAIL CITY":"CONIFER","MAIL STATE":"CO","MAIL ZIPZIP4":"80433","MARKET TOTAL VALUE":70200,"id":48,"avgPPA":2036,"avgPPA2":1841.6666666666667,"avgPPA3":1798,"estValue":71464,"estValue2":64643,"estValue3":63110,"offer":32300,"offer1":35700,"offer2":32300,"offer3":31500,"offerPPA":0,"jasonOffer":0,"jasonEstValue":0,"statusColor":"green","marketValueFlag":false,"propertyLink":"https://www.google.com/search?q=32013+COUNTY+ROAD+53+7+TRINIDAD,+CO+81082","soldArr":[{"ADDRESS":"31875 COUNT RD 53 7  TRINIDAD, CO 81082 ","CITY":"AGUILAR","STATE":"CO","SOLD PRICE":["77500 "],"LOT AREA":1528956,"LOT ACREAGE":35.1,"PRICE PER ACRE":2208,"LATITUDE":"37.45305691","LONGITUDE":"-104.6644549","distance":0.12},{"ADDRESS":"CO ","CITY":"AGUILAR","STATE":"CO","SOLD PRICE":["69900 "],"LOT AREA":1550736,"LOT ACREAGE":35.6,"PRICE PER ACRE":1963,"LATITUDE":"37.4627566","LONGITUDE":"-104.6780251","distance":0.9},{"ADDRESS":"CO ","CITY":"AGUILAR","STATE":"CO","SOLD PRICE":["68000 "],"LOT AREA":1528956,"LOT ACREAGE":35.1,"PRICE PER ACRE":1937,"LATITUDE":"37.46019466","LONGITUDE":"-104.6745088","distance":0.64},{"ADDRESS":"CO ","CITY":"AGUILAR","STATE":"CO","SOLD PRICE":["44000 "],"LOT AREA":1526778,"LOT ACREAGE":35.05,"PRICE PER ACRE":1255,"LATITUDE":"37.44562827","LONGITUDE":"-104.6875304","distance":1.38},{"ADDRESS":"CO ","CITY":"AGUILAR","STATE":"CO","SOLD PRICE":["61000 "],"LOT AREA":1635678,"LOT ACREAGE":37.55,"PRICE PER ACRE":1625,"LATITUDE":"37.43499794","LONGITUDE":"-104.7093515","distance":2.78}],"estimatedValue":64643},{"SITUS FULL ADDRESS":"CO","SITUS CITY":"","ALTERNATE APN":"120 10 300","COUNTY":"LAS ANIMAS","LOT AREA":1529827,"LOT ACREAGE":35.12,"LATITUDE":"37.3795591385984","LONGITUDE":"-104.622291664753","APN - UNFORMATTED":"=\"12010300\"","IN FLOOD ZONE":false,"OWNER MAILING NAME":"DALE SMITH & RACHELLE WERME","MAILING STREET ADDRESS":"511 TELFORD LN","MAIL CITY":"RAMONA","MAIL STATE":"CA","MAIL ZIPZIP4":"92065-2984","MARKET TOTAL VALUE":35120,"id":49,"avgPPA":1438.3333333333333,"avgPPA2":1444.3333333333333,"avgPPA3":1505,"estValue":50514,"estValue2":50725,"estValue3":52856,"offer":25300,"offer1":25200,"offer2":25300,"offer3":26400,"offerPPA":0,"jasonOffer":0,"jasonEstValue":0,"statusColor":"green","marketValueFlag":false,"propertyLink":"https://www.google.com/search?q=CO","soldArr":[{"ADDRESS":"CO ","CITY":"AGUILAR","STATE":"CO","SOLD PRICE":["30000 "],"LOT AREA":1528956,"LOT ACREAGE":35.1,"PRICE PER ACRE":855,"LATITUDE":"37.37335917","LONGITUDE":"-104.6135805","distance":0.64},{"ADDRESS":"25520 RIDGELINE DR  TRINIDAD, CO 81082 ","CITY":"AGUILAR","STATE":"CO","SOLD PRICE":["40000 "],"LOT AREA":1552478,"LOT ACREAGE":35.64,"PRICE PER ACRE":1122,"LATITUDE":"37.36473309","LONGITUDE":"-104.6623125","distance":2.42},{"ADDRESS":"25898 COUNTY ROAD 43 7  TRINIDAD, CO 81082 ","CITY":"AGUILAR","STATE":"CO","SOLD PRICE":["82000 "],"LOT AREA":1528085,"LOT ACREAGE":35.08,"PRICE PER ACRE":2338,"LATITUDE":"37.36635122","LONGITUDE":"-104.6925285","distance":3.96},{"ADDRESS":"25555 RIVER PINES RD  AGUILAR, CO 81020 ","CITY":"AGUILAR","STATE":"CO","SOLD PRICE":["62500 "],"LOT AREA":1785960,"LOT ACREAGE":41,"PRICE PER ACRE":1524,"LATITUDE":"37.35485719","LONGITUDE":"-104.6928328","distance":4.23},{"ADDRESS":"23241 S RIDGELINE DR  TRINIDAD, CO 81082 ","CITY":"AGUILAR","STATE":"CO","SOLD PRICE":["60000 "],"LOT AREA":1548994,"LOT ACREAGE":35.56,"PRICE PER ACRE":1687,"LATITUDE":"37.33121251","LONGITUDE":"-104.6683383","distance":4.19}],"estimatedValue":50725},{"SITUS FULL ADDRESS":"CO","SITUS CITY":"","ALTERNATE APN":"121 86 300","COUNTY":"LAS ANIMAS","LOT AREA":1534183,"LOT ACREAGE":35.22,"LATITUDE":"37.1791377643116","LONGITUDE":"-104.870880451489","APN - UNFORMATTED":"=\"12186300\"","IN FLOOD ZONE":false,"OWNER MAILING NAME":"SYDNEY & LAVINIA NEWMAN","MAILING STREET ADDRESS":"2658 SASHA CT","MAIL CITY":"SIMI VALLEY","MAIL STATE":"CA","MAIL ZIPZIP4":"93063-2255","MARKET TOTAL VALUE":35220,"id":50,"avgPPA":1945.6666666666667,"avgPPA2":1671.6666666666667,"avgPPA3":1777,"estValue":68526,"estValue2":58876,"estValue3":62586,"offer":29400,"offer1":34200,"offer2":29400,"offer3":31200,"offerPPA":0,"jasonOffer":0,"jasonEstValue":0,"statusColor":"green","marketValueFlag":false,"propertyLink":"https://www.google.com/search?q=CO","soldArr":[{"ADDRESS":"CO ","CITY":"PRIMERO","STATE":"CO","SOLD PRICE":["85000 "],"LOT AREA":1528956,"LOT ACREAGE":35.1,"PRICE PER ACRE":2422,"LATITUDE":"37.17053923","LONGITUDE":"-104.8696315","distance":0.6},{"ADDRESS":"CO ","CITY":"PRIMERO","STATE":"CO","SOLD PRICE":["52112 "],"LOT AREA":1567724,"LOT ACREAGE":35.99,"PRICE PER ACRE":1448,"LATITUDE":"37.19132335","LONGITUDE":"-104.8612098","distance":1},{"ADDRESS":"CO ","CITY":"PRIMERO","STATE":"CO","SOLD PRICE":["54000 "],"LOT AREA":1592989,"LOT ACREAGE":36.57,"PRICE PER ACRE":1477,"LATITUDE":"37.16335878","LONGITUDE":"-104.8861537","distance":1.38},{"ADDRESS":"CO ","CITY":"PRIMERO","STATE":"CO","SOLD PRICE":["55000 "],"LOT AREA":1524600,"LOT ACREAGE":35,"PRICE PER ACRE":1571,"LATITUDE":"37.1815431","LONGITUDE":"-104.9030725","distance":1.78},{"ADDRESS":"CO ","CITY":"PRIMERO","STATE":"CO","SOLD PRICE":["69000 "],"LOT AREA":1528085,"LOT ACREAGE":35.08,"PRICE PER ACRE":1967,"LATITUDE":"37.18869793","LONGITUDE":"-104.8892836","distance":1.21}],"estimatedValue":58876},{"SITUS FULL ADDRESS":"22990 RIDGE RD  TRINIDAD, CO 81082","SITUS CITY":"TRINIDAD","ALTERNATE APN":"125 99 000","COUNTY":"LAS ANIMAS","LOT AREA":1830391,"LOT ACREAGE":42.02,"LATITUDE":"37.3236174483672","LONGITUDE":"-104.541264260833","APN - UNFORMATTED":"=\"12599000\"","IN FLOOD ZONE":false,"OWNER MAILING NAME":"RONNIE & JOSEPH ARMSTRONG","MAILING STREET ADDRESS":"22990 W RIDGE RD","MAIL CITY":"TRINIDAD","MAIL STATE":"CO","MAIL ZIPZIP4":"81082","MARKET TOTAL VALUE":1372,"id":51,"avgPPA":570,"avgPPA2":750.6666666666666,"avgPPA3":684,"estValue":23951,"estValue2":31543,"estValue3":28742,"offer":15700,"offer1":11900,"offer2":15700,"offer3":14300,"offerPPA":0,"jasonOffer":0,"jasonEstValue":0,"statusColor":"green","marketValueFlag":false,"propertyLink":"https://www.google.com/search?q=22990+RIDGE+RD+TRINIDAD,+CO+81082","soldArr":[{"ADDRESS":"33750 S CIRCLE  TRINIDAD, CO 81082 ","CITY":"AGUILAR","STATE":"CO","SOLD PRICE":["35000 "],"LOT AREA":1527649,"LOT ACREAGE":35.07,"PRICE PER ACRE":998,"LATITUDE":"37.31840758","LONGITUDE":"-104.5415716","distance":0.36},{"ADDRESS":"34420 COUNTY ROAD 42 2  TRINIDAD, CO 81082 ","CITY":"TRINIDAD","STATE":"CO","SOLD PRICE":["20000 "],"LOT AREA":1528956,"LOT ACREAGE":35.1,"PRICE PER ACRE":570,"LATITUDE":"37.31653053","LONGITUDE":"-104.5263319","distance":0.96},{"ADDRESS":"34400 PRONGHORN RD  TRINIDAD, CO 81082 ","CITY":"TRINIDAD","STATE":"CO","SOLD PRICE":["1000 "],"LOT AREA":1528956,"LOT ACREAGE":35.1,"PRICE PER ACRE":28,"LATITUDE":"37.31600433","LONGITUDE":"-104.5348573","distance":0.63},{"ADDRESS":"CO ","CITY":"TRINIDAD","STATE":"CO","SOLD PRICE":["24000 "],"LOT AREA":1528956,"LOT ACREAGE":35.1,"PRICE PER ACRE":684,"LATITUDE":"37.3151237","LONGITUDE":"-104.5457444","distance":0.64},{"ADDRESS":"24030 BERWIND RD  TRINIDAD, CO 81082 ","CITY":"AGUILAR","STATE":"CO","SOLD PRICE":["40000 "],"LOT AREA":1528956,"LOT ACREAGE":35.1,"PRICE PER ACRE":1140,"LATITUDE":"37.34031869","LONGITUDE":"-104.5135854","distance":1.91}],"estimatedValue":31543},{"SITUS FULL ADDRESS":"CO","SITUS CITY":"","ALTERNATE APN":"107 57 300","COUNTY":"LAS ANIMAS","LOT AREA":1526342,"LOT ACREAGE":35.04,"LATITUDE":"37.585206888892","LONGITUDE":"-104.006461205157","APN - UNFORMATTED":"=\"10757300\"","IN FLOOD ZONE":false,"OWNER MAILING NAME":"RICHARD COX","MAILING STREET ADDRESS":"143 ROBINSON LN","MAIL CITY":"SANTA CRUZ","MAIL STATE":"CA","MAIL ZIPZIP4":"95060-2351","MARKET TOTAL VALUE":12264,"id":52,"avgPPA":412.6666666666667,"avgPPA2":442.6666666666667,"avgPPA3":421,"estValue":14460,"estValue2":15511,"estValue3":14752,"offer":7700,"offer1":7200,"offer2":7700,"offer3":7300,"offerPPA":0,"jasonOffer":0,"jasonEstValue":0,"statusColor":"green","marketValueFlag":false,"propertyLink":"https://www.google.com/search?q=CO","soldArr":[{"ADDRESS":"CO ","CITY":"HOEHNE","STATE":"CO","SOLD PRICE":["19000 "],"LOT AREA":1795108,"LOT ACREAGE":41.21,"PRICE PER ACRE":461,"LATITUDE":"37.58111012","LONGITUDE":"-103.9973556","distance":0.57},{"ADDRESS":"CO ","CITY":"HOEHNE","STATE":"CO","SOLD PRICE":["9500 "],"LOT AREA":1752419,"LOT ACREAGE":40.23,"PRICE PER ACRE":236,"LATITUDE":"37.5998016","LONGITUDE":"-104.0017567","distance":1.04},{"ADDRESS":"61987 COUNTY ROAD 78 4  TRINIDAD, CO 81082 ","CITY":"HOEHNE","STATE":"CO","SOLD PRICE":["19500 "],"LOT AREA":1747627,"LOT ACREAGE":40.12,"PRICE PER ACRE":486,"LATITUDE":"37.56667348","LONGITUDE":"-104.0249144","distance":1.63},{"ADDRESS":"41088 BEAR SPRINGS TRL  CO ","CITY":"HOEHNE","STATE":"CO","SOLD PRICE":["15900 "],"LOT AREA":1815581,"LOT ACREAGE":41.68,"PRICE PER ACRE":381,"LATITUDE":"37.58854597","LONGITUDE":"-103.9789577","distance":1.52},{"ADDRESS":"CO ","CITY":"HOEHNE","STATE":"CO","SOLD PRICE":["21900 "],"LOT AREA":1762438,"LOT ACREAGE":40.46,"PRICE PER ACRE":541,"LATITUDE":"37.5961122","LONGITUDE":"-103.9926648","distance":1.07}],"estimatedValue":15511},{"SITUS FULL ADDRESS":"CO","SITUS CITY":"","ALTERNATE APN":"132 70 800","COUNTY":"LAS ANIMAS","LOT AREA":1652231,"LOT ACREAGE":37.93,"LATITUDE":"37.3473525201065","LONGITUDE":"-104.695070076265","APN - UNFORMATTED":"=\"13270800\"","IN FLOOD ZONE":false,"OWNER MAILING NAME":"ARTHUR JONES","MAILING STREET ADDRESS":"49377 HIGH OAKS LN","MAIL CITY":"SQUAW VALLEY","MAIL STATE":"CA","MAIL ZIPZIP4":"93675-9658","MARKET TOTAL VALUE":37930,"id":53,"avgPPA":1746,"avgPPA2":1800.3333333333333,"avgPPA3":1853,"estValue":66226,"estValue2":68287,"estValue3":70284,"offer":34100,"offer1":33100,"offer2":34100,"offer3":35100,"offerPPA":0,"jasonOffer":0,"jasonEstValue":0,"statusColor":"green","marketValueFlag":false,"propertyLink":"https://www.google.com/search?q=CO","soldArr":[{"ADDRESS":"25555 RIVER PINES RD  AGUILAR, CO 81020 ","CITY":"AGUILAR","STATE":"CO","SOLD PRICE":["62500 "],"LOT AREA":1785960,"LOT ACREAGE":41,"PRICE PER ACRE":1524,"LATITUDE":"37.35485719","LONGITUDE":"-104.6928328","distance":0.53},{"ADDRESS":"23995 DEER TRL  CO ","CITY":"AGUILAR","STATE":"CO","SOLD PRICE":["65000 "],"LOT AREA":1524600,"LOT ACREAGE":35,"PRICE PER ACRE":1857,"LATITUDE":"37.33807945","LONGITUDE":"-104.6944771","distance":0.64},{"ADDRESS":"CO ","CITY":"AGUILAR","STATE":"CO","SOLD PRICE":["65000 "],"LOT AREA":1525036,"LOT ACREAGE":35.01,"PRICE PER ACRE":1857,"LATITUDE":"37.33935121","LONGITUDE":"-104.6907916","distance":0.6},{"ADDRESS":"25898 COUNTY ROAD 43 7  TRINIDAD, CO 81082 ","CITY":"AGUILAR","STATE":"CO","SOLD PRICE":["82000 "],"LOT AREA":1528085,"LOT ACREAGE":35.08,"PRICE PER ACRE":2338,"LATITUDE":"37.36635122","LONGITUDE":"-104.6925285","distance":1.32},{"ADDRESS":"23241 S RIDGELINE DR  TRINIDAD, CO 81082 ","CITY":"AGUILAR","STATE":"CO","SOLD PRICE":["60000 "],"LOT AREA":1548994,"LOT ACREAGE":35.56,"PRICE PER ACRE":1687,"LATITUDE":"37.33121251","LONGITUDE":"-104.6683383","distance":1.84}],"estimatedValue":68287},{"SITUS FULL ADDRESS":"25898 COUNTY ROAD 43 7  TRINIDAD, CO 81082","SITUS CITY":"TRINIDAD","ALTERNATE APN":"104 10 000","COUNTY":"LAS ANIMAS","LOT AREA":1528085,"LOT ACREAGE":35.08,"LATITUDE":"37.3663512208081","LONGITUDE":"-104.692528548241","APN - UNFORMATTED":"=\"10410000\"","IN FLOOD ZONE":false,"OWNER MAILING NAME":"BLAUS & MARIJA PLISSNER","MAILING STREET ADDRESS":"6588 BETHESDA PT B","MAIL CITY":"COLORADO SPRINGS","MAIL STATE":"CO","MAIL ZIPZIP4":"80918-1058","MARKET TOTAL VALUE":35080,"id":54,"avgPPA":1661.3333333333333,"avgPPA2":1746,"avgPPA3":1740,"estValue":58280,"estValue2":61250,"estValue3":61039,"offer":30600,"offer1":29100,"offer2":30600,"offer3":30500,"offerPPA":0,"jasonOffer":0,"jasonEstValue":0,"statusColor":"green","marketValueFlag":false,"propertyLink":"https://www.google.com/search?q=25898+COUNTY+ROAD+43+7+TRINIDAD,+CO+81082","soldArr":[{"ADDRESS":"25555 RIVER PINES RD  AGUILAR, CO 81020 ","CITY":"AGUILAR","STATE":"CO","SOLD PRICE":["62500 "],"LOT AREA":1785960,"LOT ACREAGE":41,"PRICE PER ACRE":1524,"LATITUDE":"37.35485719","LONGITUDE":"-104.6928328","distance":0.79},{"ADDRESS":"25898 COUNTY ROAD 43 7  TRINIDAD, CO 81082 ","CITY":"AGUILAR","STATE":"CO","SOLD PRICE":["82000 "],"LOT AREA":1528085,"LOT ACREAGE":35.08,"PRICE PER ACRE":2338,"LATITUDE":"37.36635122","LONGITUDE":"-104.6925285","distance":0},{"ADDRESS":"23995 DEER TRL  CO ","CITY":"AGUILAR","STATE":"CO","SOLD PRICE":["65000 "],"LOT AREA":1524600,"LOT ACREAGE":35,"PRICE PER ACRE":1857,"LATITUDE":"37.33807945","LONGITUDE":"-104.6944771","distance":1.96},{"ADDRESS":"25520 RIDGELINE DR  TRINIDAD, CO 81082 ","CITY":"AGUILAR","STATE":"CO","SOLD PRICE":["40000 "],"LOT AREA":1552478,"LOT ACREAGE":35.64,"PRICE PER ACRE":1122,"LATITUDE":"37.36473309","LONGITUDE":"-104.6623125","distance":1.66},{"ADDRESS":"CO ","CITY":"AGUILAR","STATE":"CO","SOLD PRICE":["65000 "],"LOT AREA":1525036,"LOT ACREAGE":35.01,"PRICE PER ACRE":1857,"LATITUDE":"37.33935121","LONGITUDE":"-104.6907916","distance":1.87}],"estimatedValue":61250},{"SITUS FULL ADDRESS":"13077 COUNTY ROAD 57.7  BONCARBO, CO 81024","SITUS CITY":"BONCARBO","ALTERNATE APN":"141 11 101","COUNTY":"LAS ANIMAS","LOT AREA":1528956,"LOT ACREAGE":35.1,"LATITUDE":"37.1642391768083","LONGITUDE":"-104.63831191854","APN - UNFORMATTED":"=\"14111101\"","IN FLOOD ZONE":false,"OWNER MAILING NAME":"CHARLES GARCIA & CINDY LOU","MAILING STREET ADDRESS":"PO BOX 825","MAIL CITY":"TRINIDAD","MAIL STATE":"CO","MAIL ZIPZIP4":"81082","MARKET TOTAL VALUE":1201,"id":55,"avgPPA":1551,"avgPPA2":1501.3333333333333,"avgPPA3":1432,"estValue":54440,"estValue2":52697,"estValue3":50263,"offer":26300,"offer1":27200,"offer2":26300,"offer3":25100,"offerPPA":0,"jasonOffer":0,"jasonEstValue":0,"statusColor":"green","marketValueFlag":false,"propertyLink":"https://www.google.com/search?q=13077+COUNTY+ROAD+57.7+BONCARBO,+CO+81024","soldArr":[{"ADDRESS":"CO ","CITY":"TRINIDAD","STATE":"CO","SOLD PRICE":["40250 "],"LOT AREA":1528956,"LOT ACREAGE":35.1,"PRICE PER ACRE":1147,"LATITUDE":"37.17405997","LONGITUDE":"-104.6367352","distance":0.68},{"ADDRESS":"13011 COUNTY ROAD 57.7  BONCARBO, CO 81024 ","CITY":"TRINIDAD","STATE":"CO","SOLD PRICE":["47900 "],"LOT AREA":1530263,"LOT ACREAGE":35.13,"PRICE PER ACRE":1364,"LATITUDE":"37.17437116","LONGITUDE":"-104.6482722","distance":0.89},{"ADDRESS":"CO ","CITY":"PRIMERO","STATE":"CO","SOLD PRICE":["75000 "],"LOT AREA":1525036,"LOT ACREAGE":35.01,"PRICE PER ACRE":2142,"LATITUDE":"37.12348713","LONGITUDE":"-104.6267578","distance":2.89},{"ADDRESS":"CO ","CITY":"TRINIDAD","STATE":"CO","SOLD PRICE":["70000 "],"LOT AREA":1530263,"LOT ACREAGE":35.13,"PRICE PER ACRE":1993,"LATITUDE":"37.10904041","LONGITUDE":"-104.6191361","distance":3.96},{"ADDRESS":"CO ","CITY":"TRINIDAD","STATE":"CO","SOLD PRICE":["20000 "],"LOT AREA":1703196,"LOT ACREAGE":39.1,"PRICE PER ACRE":512,"LATITUDE":"37.20934451","LONGITUDE":"-104.6706449","distance":3.59}],"estimatedValue":52697},