[{"SITUS STREET ADDRESS":"1424 Edgar St","SITUS CITY":"Greenville","SITUS STATE":"TX","SITUS ZIP CODE":"75401","COUNTY":"Hunt","LOT AREA":26363,"LOT ACREAGE":0.605,"LEGAL DESCRIPTION":"S4385 Orig Town Of Greenville Blk 482 Lot 6","LEGAL LOT":"6","SUBDIVISION":"Orig Town Of Greenville","MUNICIPALITY/TOWNSHIP":"City Of Greenville","LATITUDE":"33.14716945","LONGITUDE":"-96.11461659","APN - FORMATTED":"73256","IN FLOOD ZONE":"X","OWNER MAILING NAME":"Spencer Cecil B Cecil B & Dudley Spencer","MAILING STREET ADDRESS":"100 Bellerive Ln","MAIL CITY":"Covington","MAIL STATE":"GA","MAIL ZIPZIP4":"30014-4120","MARKET TOTAL VALUE":13450,"MARKET IMPROVEMENT VALUE":0,"date":"04/29/2020","id":1,"pricePerAcre":89273,"avgPPA":84532.66666666667,"avgPPA2":89272,"avgPPA3":86409,"estValue":51142,"estValue2":54010,"estValue3":52277,"offer":27000,"offer1":25500,"offer2":27000,"offer3":26100,"offerPPA":0,"jasonOffer":0,"jasonEstValue":0,"statusColor":"green","marketValueFlag":false,"propertyLink":"https://www.google.com/maps/place/33.14716945+-96.11461659","soldArr":[{"ADDRESS":"0 Stonewall St","CITY":"Greenville","STATE":"TX","ZIP":"75401","SOLD PRICE":35000,"LOT AREA":15682,"LOT ACREAGE":0.36,"PRICE PER ACRE":97220,"LATITUDE":"33.145683","LONGITUDE":"-96.107387","URL":"http://www.redfin.com/TX/GREENVILLE/STONEWALL-ST-75401/home/33845594","distance":0.43},{"ADDRESS":"4401 Washington St","CITY":"Greenville","STATE":"TX","ZIP":"75401","SOLD PRICE":35000,"LOT AREA":16030,"LOT ACREAGE":0.37,"PRICE PER ACRE":95109,"LATITUDE":"33.1389202","LONGITUDE":"-96.126528","URL":"http://www.redfin.com/TX/Greenville/4401-Washington-St-75401/home/33798022","distance":0.89},{"ADDRESS":"1206 Speedway St","CITY":"Greenville","STATE":"TX","ZIP":"75401","SOLD PRICE":18500,"LOT AREA":9017,"LOT ACREAGE":0.21,"PRICE PER ACRE":89371,"LATITUDE":"33.148953","LONGITUDE":"-96.121484","URL":"http://www.redfin.com/TX/Greenville/1206-Speedway-St-75401/home/33862394","distance":0.42},{"ADDRESS":"4227 Washington","CITY":"Greenville","STATE":"TX","ZIP":"75401","SOLD PRICE":18500,"LOT AREA":9670,"LOT ACREAGE":0.22,"PRICE PER ACRE":83336,"LATITUDE":"33.138753","LONGITUDE":"-96.124685","URL":"http://www.redfin.com/TX/Greenville/4227-Washington-St-75401/home/33872308","distance":0.82},{"ADDRESS":"1829 College St","CITY":"Greenville","STATE":"TX","ZIP":"75401","SOLD PRICE":13000,"LOT AREA":8451,"LOT ACREAGE":0.19,"PRICE PER ACRE":67007,"LATITUDE":"33.143658","LONGITUDE":"-96.124178","URL":"http://www.redfin.com/TX/Greenville/1829-College-St-75401/home/33830229","distance":0.6}],"estimatedValue":54010},{"SITUS STREET ADDRESS":"7 Creekside Dr","SITUS CITY":"Greenville","SITUS STATE":"TX","SITUS ZIP CODE":"75402","COUNTY":"Hunt","LOT AREA":15255,"LOT ACREAGE":0.35,"LEGAL DESCRIPTION":"S4277 Oak Village South Addn Sec 5 Blk 1 Lot 1 Acres 0.3502","LEGAL LOT":"1","SUBDIVISION":"Oak Village South Addn Sec 5","MUNICIPALITY/TOWNSHIP":"City Of Greenville","LATITUDE":"33.10338409","LONGITUDE":"-96.08445535","APN - FORMATTED":"53390","IN FLOOD ZONE":"X","OWNER MAILING NAME":"Leo Faubion","MAILING STREET ADDRESS":"1000 Forest Ave","MAIL CITY":"Dallas","MAIL STATE":"TX","MAIL ZIPZIP4":"75215-3126","MARKET TOTAL VALUE":13420,"MARKET IMPROVEMENT VALUE":0,"date":"04/29/2020","id":2,"pricePerAcre":69163,"avgPPA":40933,"avgPPA2":69163.66666666667,"avgPPA3":81949,"estValue":14327,"estValue2":24207,"estValue3":28682,"offer":12100,"offer1":7100,"offer2":12100,"offer3":14300,"offerPPA":0,"jasonOffer":0,"jasonEstValue":0,"statusColor":"green","marketValueFlag":false,"propertyLink":"https://www.google.com/maps/place/33.10338409+-96.08445535","soldArr":[{"ADDRESS":"Heritage Pl","CITY":"Greenville","STATE":"TX","ZIP":"75402","SOLD PRICE":15000,"LOT AREA":17642,"LOT ACREAGE":0.41,"PRICE PER ACRE":37037,"LATITUDE":"33.108547","LONGITUDE":"-96.080775","URL":"http://www.redfin.com/TX/Greenville/Heritage-Ln-75402/home/33815745","distance":0.42},{"ADDRESS":"Heritage Pl","CITY":"Greenville","STATE":"TX","ZIP":"75402","SOLD PRICE":15000,"LOT AREA":19297,"LOT ACREAGE":0.44,"PRICE PER ACRE":33860,"LATITUDE":"33.108743","LONGITUDE":"-96.080501","URL":"http://www.redfin.com/TX/Greenville/Heritage-Ln-75402/home/33815747","distance":0.44},{"ADDRESS":"Colorado St","CITY":"Greenville","STATE":"TX","ZIP":"75402","SOLD PRICE":15000,"LOT AREA":12589,"LOT ACREAGE":0.29,"PRICE PER ACRE":51902,"LATITUDE":"33.110729","LONGITUDE":"-96.117755","URL":"http://www.redfin.com/TX/Greenville/Colorado-St-75402/home/40134605","distance":1.99},{"ADDRESS":"0 Brooke St","CITY":"Greenville","STATE":"TX","ZIP":"75401","SOLD PRICE":32500,"LOT AREA":8407,"LOT ACREAGE":0.19,"PRICE PER ACRE":168395,"LATITUDE":"33.0665","LONGITUDE":"-96.087476","URL":"http://www.redfin.com/TX/GREENVILLE/BROOKE-ST-75401/home/33749619","distance":2.55},{"ADDRESS":"4121 Stonewall St","CITY":"Greenville","STATE":"TX","ZIP":"75401","SOLD PRICE":23000,"LOT AREA":8451,"LOT ACREAGE":0.19,"PRICE PER ACRE":118552,"LATITUDE":"33.1273709","LONGITUDE":"-96.107148","URL":"http://www.redfin.com/TX/Greenville/4121-Stonewall-St-75401/home/33842837","distance":2.11}],"estimatedValue":24207},{"SITUS STREET ADDRESS":"149 Luna Dr","SITUS CITY":"Greenville","SITUS STATE":"TX","SITUS ZIP CODE":"75402","COUNTY":"Hunt","LOT AREA":18901,"LOT ACREAGE":0.434,"LEGAL DESCRIPTION":"S5207 Town & Country Mobile Home Park Lot 405","LEGAL LOT":"405","SUBDIVISION":"Town & Country Mobile Home Park","MUNICIPALITY/TOWNSHIP":"","LATITUDE":"33.064265","LONGITUDE":"-96.10834247","APN - FORMATTED":"21859","IN FLOOD ZONE":"X","OWNER MAILING NAME":"Chloe & Susan Vanhuss","MAILING STREET ADDRESS":"101 San Vincente Blvd","MAIL CITY":"Greenville","MAIL STATE":"TX","MAIL ZIPZIP4":"75402-9749","MARKET TOTAL VALUE":3590,"MARKET IMPROVEMENT VALUE":0,"date":"04/29/2020","id":3,"pricePerAcre":69164,"avgPPA":85778,"avgPPA2":69163.66666666667,"avgPPA3":81949,"estValue":37228,"estValue2":30017,"estValue3":35566,"offer":15000,"offer1":18600,"offer2":15000,"offer3":17700,"offerPPA":0,"jasonOffer":0,"jasonEstValue":0,"statusColor":"green","marketValueFlag":false,"propertyLink":"https://www.google.com/maps/place/33.064265+-96.10834247","soldArr":[{"ADDRESS":"0 Brooke St","CITY":"Greenville","STATE":"TX","ZIP":"75401","SOLD PRICE":32500,"LOT AREA":8407,"LOT ACREAGE":0.19,"PRICE PER ACRE":168395,"LATITUDE":"33.0665","LONGITUDE":"-96.087476","URL":"http://www.redfin.com/TX/GREENVILLE/BROOKE-ST-75401/home/33749619","distance":1.22},{"ADDRESS":"Colorado St","CITY":"Greenville","STATE":"TX","ZIP":"75402","SOLD PRICE":15000,"LOT AREA":12589,"LOT ACREAGE":0.29,"PRICE PER ACRE":51902,"LATITUDE":"33.110729","LONGITUDE":"-96.117755","URL":"http://www.redfin.com/TX/Greenville/Colorado-St-75402/home/40134605","distance":3.26},{"ADDRESS":"Heritage Pl","CITY":"Greenville","STATE":"TX","ZIP":"75402","SOLD PRICE":15000,"LOT AREA":17642,"LOT ACREAGE":0.41,"PRICE PER ACRE":37037,"LATITUDE":"33.108547","LONGITUDE":"-96.080775","URL":"http://www.redfin.com/TX/Greenville/Heritage-Ln-75402/home/33815745","distance":3.45},{"ADDRESS":"Heritage Pl","CITY":"Greenville","STATE":"TX","ZIP":"75402","SOLD PRICE":15000,"LOT AREA":19297,"LOT ACREAGE":0.44,"PRICE PER ACRE":33860,"LATITUDE":"33.108743","LONGITUDE":"-96.080501","URL":"http://www.redfin.com/TX/Greenville/Heritage-Ln-75402/home/33815747","distance":3.47},{"ADDRESS":"4121 Stonewall St","CITY":"Greenville","STATE":"TX","ZIP":"75401","SOLD PRICE":23000,"LOT AREA":8451,"LOT ACREAGE":0.19,"PRICE PER ACRE":118552,"LATITUDE":"33.1273709","LONGITUDE":"-96.107148","URL":"http://www.redfin.com/TX/Greenville/4121-Stonewall-St-75401/home/33842837","distance":4.36}],"estimatedValue":30017},{"SITUS STREET ADDRESS":"3521 Bourland St","SITUS CITY":"Greenville","SITUS STATE":"TX","SITUS ZIP CODE":"75401","COUNTY":"Hunt","LOT AREA":16614,"LOT ACREAGE":0.381,"LEGAL DESCRIPTION":"S4385 Orig Town Of Greenville Blk 523 Lot 2B","LEGAL LOT":"2B","SUBDIVISION":"Orig Town Of Greenville","MUNICIPALITY/TOWNSHIP":"City Of Greenville","LATITUDE":"33.14302841","LONGITUDE":"-96.11634645","APN - FORMATTED":"73505","IN FLOOD ZONE":"X","OWNER MAILING NAME":"Hubert Pritchett","MAILING STREET ADDRESS":"1011 Fm 859","MAIL CITY":"Edgewood","MAIL STATE":"TX","MAIL ZIPZIP4":"75117-3843","MARKET TOTAL VALUE":10970,"MARKET IMPROVEMENT VALUE":0,"date":"04/29/2020","id":4,"pricePerAcre":89273,"avgPPA":84532.66666666667,"avgPPA2":89272,"avgPPA3":86409,"estValue":32207,"estValue2":34013,"estValue3":32922,"offer":17000,"offer1":16100,"offer2":17000,"offer3":16400,"offerPPA":0,"jasonOffer":0,"jasonEstValue":0,"statusColor":"green","marketValueFlag":false,"propertyLink":"https://www.google.com/maps/place/33.14302841+-96.11634645","soldArr":[{"ADDRESS":"0 Stonewall St","CITY":"Greenville","STATE":"TX","ZIP":"75401","SOLD PRICE":35000,"LOT AREA":15682,"LOT ACREAGE":0.36,"PRICE PER ACRE":97220,"LATITUDE":"33.145683","LONGITUDE":"-96.107387","URL":"http://www.redfin.com/TX/GREENVILLE/STONEWALL-ST-75401/home/33845594","distance":0.55},{"ADDRESS":"4401 Washington St","CITY":"Greenville","STATE":"TX","ZIP":"75401","SOLD PRICE":35000,"LOT AREA":16030,"LOT ACREAGE":0.37,"PRICE PER ACRE":95109,"LATITUDE":"33.1389202","LONGITUDE":"-96.126528","URL":"http://www.redfin.com/TX/Greenville/4401-Washington-St-75401/home/33798022","distance":0.65},{"ADDRESS":"1206 Speedway St","CITY":"Greenville","STATE":"TX","ZIP":"75401","SOLD PRICE":18500,"LOT AREA":9017,"LOT ACREAGE":0.21,"PRICE PER ACRE":89371,"LATITUDE":"33.148953","LONGITUDE":"-96.121484","URL":"http://www.redfin.com/TX/Greenville/1206-Speedway-St-75401/home/33862394","distance":0.51},{"ADDRESS":"4227 Washington","CITY":"Greenville","STATE":"TX","ZIP":"75401","SOLD PRICE":18500,"LOT AREA":9670,"LOT ACREAGE":0.22,"PRICE PER ACRE":83336,"LATITUDE":"33.138753","LONGITUDE":"-96.124685","URL":"http://www.redfin.com/TX/Greenville/4227-Washington-St-75401/home/33872308","distance":0.57},{"ADDRESS":"1829 College St","CITY":"Greenville","STATE":"TX","ZIP":"75401","SOLD PRICE":13000,"LOT AREA":8451,"LOT ACREAGE":0.19,"PRICE PER ACRE":67007,"LATITUDE":"33.143658","LONGITUDE":"-96.124178","URL":"http://www.redfin.com/TX/Greenville/1829-College-St-75401/home/33830229","distance":0.46}],"estimatedValue":34013},{"SITUS STREET ADDRESS":"315 N Santa Fe St","SITUS CITY":"Wolfe City","SITUS STATE":"TX","SITUS ZIP CODE":"75496","COUNTY":"Hunt","LOT AREA":52002,"LOT ACREAGE":1.194,"LEGAL DESCRIPTION":"S4430 Orig Town Of Wolfe City Blk 137 Lot 12","LEGAL LOT":"12","SUBDIVISION":"Orig Town Of Wolfe City","MUNICIPALITY/TOWNSHIP":"City Of Wolfe City","LATITUDE":"33.37381282","LONGITUDE":"-96.06935555","APN - FORMATTED":"74751","IN FLOOD ZONE":"X","OWNER MAILING NAME":"James Linley","MAILING STREET ADDRESS":"1012 Bois D Arc St","MAIL CITY":"Commerce","MAIL STATE":"TX","MAIL ZIPZIP4":"75428-2102","MARKET TOTAL VALUE":16140,"MARKET IMPROVEMENT VALUE":0,"date":"04/29/2020","id":5,"pricePerAcre":0,"avgPPA":null,"avgPPA2":null,"avgPPA3":0,"estValue":null,"estValue2":null,"estValue3":0,"offer":0,"offer1":null,"offer2":null,"offer3":0,"offerPPA":0,"jasonOffer":0,"jasonEstValue":0,"statusColor":"red","marketValueFlag":false,"propertyLink":"https://www.google.com/maps/place/33.37381282+-96.06935555","soldArr":[],"estimatedValue":0},{"SITUS STREET ADDRESS":"3106 Anderson St","SITUS CITY":"Greenville","SITUS STATE":"TX","SITUS ZIP CODE":"75401","COUNTY":"Hunt","LOT AREA":3001,"LOT ACREAGE":0.69,"LEGAL DESCRIPTION":"S4385 Orig Town Of Greenville Blk 474 Lot 2B","LEGAL LOT":"2B","SUBDIVISION":"Orig Town Of Greenville","MUNICIPALITY/TOWNSHIP":"City Of Greenville","LATITUDE":"33.14653866","LONGITUDE":"-96.11235507","APN - FORMATTED":"73152","IN FLOOD ZONE":"X","OWNER MAILING NAME":"Coretta Price","MAILING STREET ADDRESS":"1015 Pecan Dr","MAIL CITY":"Greenville","MAIL STATE":"TX","MAIL ZIPZIP4":"75401-2229","MARKET TOTAL VALUE":2400,"MARKET IMPROVEMENT VALUE":0,"date":"04/29/2020","id":6,"pricePerAcre":89272,"avgPPA":84532.66666666667,"avgPPA2":89272,"avgPPA3":86409,"estValue":58328,"estValue2":61598,"estValue3":59622,"offer":30700,"offer1":29100,"offer2":30700,"offer3":29800,"offerPPA":0,"jasonOffer":0,"jasonEstValue":0,"statusColor":"green","marketValueFlag":false,"propertyLink":"https://www.google.com/maps/place/33.14653866+-96.11235507","soldArr":[{"ADDRESS":"0 Stonewall St","CITY":"Greenville","STATE":"TX","ZIP":"75401","SOLD PRICE":35000,"LOT AREA":15682,"LOT ACREAGE":0.36,"PRICE PER ACRE":97220,"LATITUDE":"33.145683","LONGITUDE":"-96.107387","URL":"http://www.redfin.com/TX/GREENVILLE/STONEWALL-ST-75401/home/33845594","distance":0.29},{"ADDRESS":"4401 Washington St","CITY":"Greenville","STATE":"TX","ZIP":"75401","SOLD PRICE":35000,"LOT AREA":16030,"LOT ACREAGE":0.37,"PRICE PER ACRE":95109,"LATITUDE":"33.1389202","LONGITUDE":"-96.126528","URL":"http://www.redfin.com/TX/Greenville/4401-Washington-St-75401/home/33798022","distance":0.97},{"ADDRESS":"1206 Speedway St","CITY":"Greenville","STATE":"TX","ZIP":"75401","SOLD PRICE":18500,"LOT AREA":9017,"LOT ACREAGE":0.21,"PRICE PER ACRE":89371,"LATITUDE":"33.148953","LONGITUDE":"-96.121484","URL":"http://www.redfin.com/TX/Greenville/1206-Speedway-St-75401/home/33862394","distance":0.55},{"ADDRESS":"4227 Washington","CITY":"Greenville","STATE":"TX","ZIP":"75401","SOLD PRICE":18500,"LOT AREA":9670,"LOT ACREAGE":0.22,"PRICE PER ACRE":83336,"LATITUDE":"33.138753","LONGITUDE":"-96.124685","URL":"http://www.redfin.com/TX/Greenville/4227-Washington-St-75401/home/33872308","distance":0.89},{"ADDRESS":"1829 College St","CITY":"Greenville","STATE":"TX","ZIP":"75401","SOLD PRICE":13000,"LOT AREA":8451,"LOT ACREAGE":0.19,"PRICE PER ACRE":67007,"LATITUDE":"33.143658","LONGITUDE":"-96.124178","URL":"http://www.redfin.com/TX/Greenville/1829-College-St-75401/home/33830229","distance":0.71}],"estimatedValue":61598},{"SITUS STREET ADDRESS":"3332 Interstate Highway 30 E","SITUS CITY":"Greenville","SITUS STATE":"TX","SITUS ZIP CODE":"75402","COUNTY":"Hunt","LOT AREA":87120,"LOT ACREAGE":2,"LEGAL DESCRIPTION":"S4280 101 Subdivision Lot 1 Acres 2.","LEGAL LOT":"1","SUBDIVISION":"101 subdivision","MUNICIPALITY/TOWNSHIP":"","LATITUDE":"33.13127567","LONGITUDE":"-96.0047732","APN - FORMATTED":"124978","IN FLOOD ZONE":"X","OWNER MAILING NAME":"Benito & Maria Lucio","MAILING STREET ADDRESS":"102 Austin St","MAIL CITY":"Sulphur Springs","MAIL STATE":"TX","MAIL ZIPZIP4":"75482-4362","MARKET TOTAL VALUE":16000,"MARKET IMPROVEMENT VALUE":0,"date":"04/29/2020","id":7,"pricePerAcre":22187,"avgPPA":18582.666666666668,"avgPPA2":22186.333333333332,"avgPPA3":21417,"estValue":37165,"estValue2":44373,"estValue3":42834,"offer":22100,"offer1":18500,"offer2":22100,"offer3":21400,"offerPPA":0,"jasonOffer":0,"jasonEstValue":0,"statusColor":"green","marketValueFlag":false,"propertyLink":"https://www.google.com/maps/place/33.13127567+-96.0047732","soldArr":[{"ADDRESS":"2795 Private Road 4127","CITY":"Greenville","STATE":"TX","ZIP":"75401","SOLD PRICE":32000,"LOT AREA":70132,"LOT ACREAGE":1.61,"PRICE PER ACRE":19876,"LATITUDE":"33.133667","LONGITUDE":"-96.016171","URL":"http://www.redfin.com/TX/Greenville/Unknown-Unknown/home/33829851","distance":0.68},{"ADDRESS":"440 County Road 3102","CITY":"Greenville","STATE":"TX","ZIP":"75402","SOLD PRICE":48000,"LOT AREA":91520,"LOT ACREAGE":2.1,"PRICE PER ACRE":22846,"LATITUDE":"33.1267238","LONGITUDE":"-96.042441","URL":"http://www.redfin.com/TX/Greenville/440-Co-Rd-3102-75402/home/161989368","distance":2.2},{"ADDRESS":"2 County Rd 3111","CITY":"Campbell","STATE":"TX","ZIP":"75422","SOLD PRICE":28500,"LOT AREA":95309,"LOT ACREAGE":2.19,"PRICE PER ACRE":13026,"LATITUDE":"33.094295","LONGITUDE":"-95.966826","URL":"http://www.redfin.com/TX/Unknown/2-County-Road-3111-75422/home/148690505","distance":3.37},{"ADDRESS":"Old Mill Rd","CITY":"Greenville","STATE":"TX","ZIP":"75402","SOLD PRICE":55000,"LOT AREA":87120,"LOT ACREAGE":2,"PRICE PER ACRE":27500,"LATITUDE":"33.071502","LONGITUDE":"-96.095308","URL":"http://www.redfin.com/TX/Greenville/Old-Mill-Rd-75402/home/33735191","distance":6.67},{"ADDRESS":"3300 Polk St","CITY":"Greenville","STATE":"TX","ZIP":"75401","SOLD PRICE":41000,"LOT AREA":74923,"LOT ACREAGE":1.72,"PRICE PER ACRE":23837,"LATITUDE":"33.145406","LONGITUDE":"-96.114405","URL":"http://www.redfin.com/TX/Greenville/3300-Polk-St-75401/home/33848993","distance":6.42}],"estimatedValue":44373},{"SITUS STREET ADDRESS":"104 Owl Tree Trl","SITUS CITY":"Greenville","SITUS STATE":"TX","SITUS ZIP CODE":"75402","COUNTY":"Hunt","LOT AREA":15808,"LOT ACREAGE":0.363,"LEGAL DESCRIPTION":"S5185 the Trees Addition Blk A Lot 3","LEGAL LOT":"3","SUBDIVISION":"Trees Addn","MUNICIPALITY/TOWNSHIP":"City Of Greenville","LATITUDE":"33.11317765","LONGITUDE":"-96.08440372","APN - FORMATTED":"81906","IN FLOOD ZONE":"X","OWNER MAILING NAME":"Doyle & Leslie Dick","MAILING STREET ADDRESS":"102 Owl Tree Trl","MAIL CITY":"Greenville","MAIL STATE":"TX","MAIL ZIPZIP4":"75402-4215","MARKET TOTAL VALUE":22760,"MARKET IMPROVEMENT VALUE":0,"date":"04/29/2020","id":8,"pricePerAcre":51430,"avgPPA":45415.333333333336,"avgPPA2":51429.333333333336,"avgPPA3":61340,"estValue":16486,"estValue2":18669,"estValue3":22266,"offer":9300,"offer1":8200,"offer2":9300,"offer3":11100,"offerPPA":0,"jasonOffer":0,"jasonEstValue":0,"statusColor":"green","marketValueFlag":false,"propertyLink":"https://www.google.com/maps/place/33.11317765+-96.08440372","soldArr":[{"ADDRESS":"Heritage Pl","CITY":"Greenville","STATE":"TX","ZIP":"75402","SOLD PRICE":15000,"LOT AREA":17642,"LOT ACREAGE":0.41,"PRICE PER ACRE":37037,"LATITUDE":"33.108547","LONGITUDE":"-96.080775","URL":"http://www.redfin.com/TX/Greenville/Heritage-Ln-75402/home/33815745","distance":0.38},{"ADDRESS":"Heritage Pl","CITY":"Greenville","STATE":"TX","ZIP":"75402","SOLD PRICE":15000,"LOT AREA":19297,"LOT ACREAGE":0.44,"PRICE PER ACRE":33860,"LATITUDE":"33.108743","LONGITUDE":"-96.080501","URL":"http://www.redfin.com/TX/Greenville/Heritage-Ln-75402/home/33815747","distance":0.38},{"ADDRESS":"4121 Stonewall St","CITY":"Greenville","STATE":"TX","ZIP":"75401","SOLD PRICE":23000,"LOT AREA":8451,"LOT ACREAGE":0.19,"PRICE PER ACRE":118552,"LATITUDE":"33.1273709","LONGITUDE":"-96.107148","URL":"http://www.redfin.com/TX/Greenville/4121-Stonewall-St-75401/home/33842837","distance":1.64},{"ADDRESS":"1813 Oneal St","CITY":"Greenville","STATE":"TX","ZIP":"75401","SOLD PRICE":14900,"LOT AREA":9932,"LOT ACREAGE":0.23,"PRICE PER ACRE":65349,"LATITUDE":"33.1316215","LONGITUDE":"-96.1015604","URL":"http://www.redfin.com/TX/Greenville/1813-Oneal-St-75401/home/33842536","distance":1.62},{"ADDRESS":"Colorado St","CITY":"Greenville","STATE":"TX","ZIP":"75402","SOLD PRICE":15000,"LOT AREA":12589,"LOT ACREAGE":0.29,"PRICE PER ACRE":51902,"LATITUDE":"33.110729","LONGITUDE":"-96.117755","URL":"http://www.redfin.com/TX/Greenville/Colorado-St-75402/home/40134605","distance":1.94}],"estimatedValue":18669},{"SITUS STREET ADDRESS":"3405 Cottonbelt St","SITUS CITY":"Greenville","SITUS STATE":"TX","SITUS ZIP CODE":"75401","COUNTY":"Hunt","LOT AREA":3219,"LOT ACREAGE":0.74,"LEGAL DESCRIPTION":"S3915 Logan Addition Blk 1 Lot 5B","LEGAL LOT":"5B","SUBDIVISION":"Logan Addition","MUNICIPALITY/TOWNSHIP":"City Of Greenville","LATITUDE":"33.13519856","LONGITUDE":"-96.11461915","APN - FORMATTED":"50581","IN FLOOD ZONE":"X","OWNER MAILING NAME":"Sammy Brown","MAILING STREET ADDRESS":"103 Buffington St","MAIL CITY":"Commerce","MAIL STATE":"TX","MAIL ZIPZIP4":"75428-2706","MARKET TOTAL VALUE":2570,"MARKET IMPROVEMENT VALUE":0,"date":"04/29/2020","id":9,"pricePerAcre":70085,"avgPPA":74123.33333333333,"avgPPA2":70085.33333333333,"avgPPA3":67503,"estValue":54851,"estValue2":51863,"estValue3":49952,"offer":25900,"offer1":27400,"offer2":25900,"offer3":24900,"offerPPA":0,"jasonOffer":0,"jasonEstValue":0,"statusColor":"green","marketValueFlag":false,"propertyLink":"https://www.google.com/maps/place/33.13519856+-96.11461915","soldArr":[{"ADDRESS":"0 Stonewall St","CITY":"Greenville","STATE":"TX","ZIP":"75401","SOLD PRICE":35000,"LOT AREA":15682,"LOT ACREAGE":0.36,"PRICE PER ACRE":97220,"LATITUDE":"33.145683","LONGITUDE":"-96.107387","URL":"http://www.redfin.com/TX/GREENVILLE/STONEWALL-ST-75401/home/33845594","distance":0.84},{"ADDRESS":"4401 Washington St","CITY":"Greenville","STATE":"TX","ZIP":"75401","SOLD PRICE":35000,"LOT AREA":16030,"LOT ACREAGE":0.37,"PRICE PER ACRE":95109,"LATITUDE":"33.1389202","LONGITUDE":"-96.126528","URL":"http://www.redfin.com/TX/Greenville/4401-Washington-St-75401/home/33798022","distance":0.74},{"ADDRESS":"1205 Sayle St","CITY":"Greenville","STATE":"TX","ZIP":"75401","SOLD PRICE":20000,"LOT AREA":15246,"LOT ACREAGE":0.35,"PRICE PER ACRE":57143,"LATITUDE":"33.14944","LONGITUDE":"-96.115058","URL":"http://www.redfin.com/TX/Greenville/1205-Sayle-St-75401/home/33849239","distance":0.98},{"ADDRESS":"0 Marshall St","CITY":"Greenville","STATE":"TX","ZIP":"75401","SOLD PRICE":14990,"LOT AREA":21736,"LOT ACREAGE":0.5,"PRICE PER ACRE":30041,"LATITUDE":"33.134209","LONGITUDE":"-96.117604","URL":"http://www.redfin.com/TX/GREENVILLE/MARSHALL-ST-75401/home/33821174","distance":0.19},{"ADDRESS":"0 Mitchell St","CITY":"Greenville","STATE":"TX","ZIP":"75401","SOLD PRICE":50000,"LOT AREA":37549,"LOT ACREAGE":0.86,"PRICE PER ACRE":58004,"LATITUDE":"33.109605","LONGITUDE":"-96.117785","URL":"http://www.redfin.com/TX/GREENVILLE/MITCHELL-ST-75401/home/33832965","distance":1.78}],"estimatedValue":51863},{"SITUS STREET ADDRESS":"2308 Bourland St","SITUS CITY":"Greenville","SITUS STATE":"TX","SITUS ZIP CODE":"75401","COUNTY":"Hunt","LOT AREA":4138,"LOT ACREAGE":0.95,"LEGAL DESCRIPTION":"S4385 Orig Town Of Greenville Blk 393 Lot 2B","LEGAL LOT":"2B","SUBDIVISION":"Orig Town Of Greenville","MUNICIPALITY/TOWNSHIP":"City Of Greenville","LATITUDE":"33.14346495","LONGITUDE":"-96.10490027","APN - FORMATTED":"72633","IN FLOOD ZONE":"X","OWNER MAILING NAME":"Flores Alejandro","MAILING STREET ADDRESS":"1070 N Ben Payne Rd","MAIL CITY":"Rockwall","MAIL STATE":"TX","MAIL ZIPZIP4":"75087-2184","MARKET TOTAL VALUE":3310,"MARKET IMPROVEMENT VALUE":0,"date":"04/29/2020","id":10,"pricePerAcre":31181,"avgPPA":40712,"avgPPA2":31181.333333333332,"avgPPA3":35310,"estValue":38676,"estValue2":29622,"estValue3":33545,"offer":14800,"offer1":19300,"offer2":14800,"offer3":16700,"offerPPA":0,"jasonOffer":0,"jasonEstValue":0,"statusColor":"green","marketValueFlag":false,"propertyLink":"https://www.google.com/maps/place/33.14346495+-96.10490027","soldArr":[{"ADDRESS":"0 Marshall St","CITY":"Greenville","STATE":"TX","ZIP":"75401","SOLD PRICE":14990,"LOT AREA":21736,"LOT ACREAGE":0.5,"PRICE PER ACRE":30041,"LATITUDE":"33.134209","LONGITUDE":"-96.117604","URL":"http://www.redfin.com/TX/GREENVILLE/MARSHALL-ST-75401/home/33821174","distance":0.97},{"ADDRESS":"0 Mitchell St","CITY":"Greenville","STATE":"TX","ZIP":"75401","SOLD PRICE":50000,"LOT AREA":37549,"LOT ACREAGE":0.86,"PRICE PER ACRE":58004,"LATITUDE":"33.109605","LONGITUDE":"-96.117785","URL":"http://www.redfin.com/TX/GREENVILLE/MITCHELL-ST-75401/home/33832965","distance":2.46},{"ADDRESS":"639 Forrester St","CITY":"Greenville","STATE":"TX","ZIP":"75401","SOLD PRICE":36000,"LOT AREA":45999,"LOT ACREAGE":1.06,"PRICE PER ACRE":34091,"LATITUDE":"33.1390799","LONGITUDE":"-96.0666577","URL":"http://www.redfin.com/TX/Greenville/639-Forester-St-75401/home/33780414","distance":2.23},{"ADDRESS":"1 County Rd 3324","CITY":"Greenville","STATE":"TX","ZIP":"75401","SOLD PRICE":35000,"LOT AREA":51836,"LOT ACREAGE":1.19,"PRICE PER ACRE":29412,"LATITUDE":"33.0299","LONGITUDE":"-96.106821","URL":"http://www.redfin.com/TX/Greenville/1-County-Rd-3324-75401/home/147521144","distance":7.85},{"ADDRESS":"Hwy 69 N","CITY":"Greenville","STATE":"TX","ZIP":"75401","SOLD PRICE":25000,"LOT AREA":43560,"LOT ACREAGE":1,"PRICE PER ACRE":25000,"LATITUDE":"33.0421455","LONGITUDE":"-96.0138141","URL":"http://www.redfin.com/TX/Greenville/4747-Hwy-69-S-75402/home/143499511","distance":8.76}],"estimatedValue":29622},{"SITUS STREET ADDRESS":"720 Pin Oak Rd","SITUS CITY":"Quinlan","SITUS STATE":"TX","SITUS ZIP CODE":"75474","COUNTY":"Hunt","LOT AREA":20878,"LOT ACREAGE":0.479,"LEGAL DESCRIPTION":"S4020 Mel-Ran-Ter-Ka Village Addn Lot 86 Acres 0.2314","LEGAL LOT":"86|87","SUBDIVISION":"Mel-Ran-Ter-Ka Village Addn","MUNICIPALITY/TOWNSHIP":"","LATITUDE":"32.89116366","LONGITUDE":"-96.04865427","APN - FORMATTED":"51005","IN FLOOD ZONE":"X","OWNER MAILING NAME":"Hector Aguado","MAILING STREET ADDRESS":"10740 N Central Expy #170","MAIL CITY":"Dallas","MAIL STATE":"TX","MAIL ZIPZIP4":"75231-2103","MARKET TOTAL VALUE":7310,"MARKET IMPROVEMENT VALUE":0,"date":"04/29/2020","id":11,"pricePerAcre":49770,"avgPPA":49769.666666666664,"avgPPA2":49769.666666666664,"avgPPA3":50203,"estValue":23840,"estValue2":23840,"estValue3":24047,"offer":11900,"offer1":11900,"offer2":11900,"offer3":12000,"offerPPA":0,"jasonOffer":0,"jasonEstValue":0,"statusColor":"green","marketValueFlag":false,"propertyLink":"https://www.google.com/maps/place/32.89116366+-96.04865427","soldArr":[{"ADDRESS":"Amy Dr","CITY":"Hawk Cove","STATE":"TX","ZIP":"75474","SOLD PRICE":15900,"LOT AREA":12632,"LOT ACREAGE":0.29,"PRICE PER ACRE":54829,"LATITUDE":"32.882348","LONGITUDE":"-96.079231","URL":"http://www.redfin.com/TX/Hawk-Cove/Amy-Dr-75474/home/33873687","distance":1.88},{"ADDRESS":"601 Rabbit Cove Rd","CITY":"West Tawakoni","STATE":"TX","ZIP":"75474","SOLD PRICE":26500,"LOT AREA":21780,"LOT ACREAGE":0.5,"PRICE PER ACRE":53000,"LATITUDE":"32.888717","LONGITUDE":"-96.028689","URL":"http://www.redfin.com/TX/West-Tawakoni/601-E-Rabbit-Cove-Rd-75474/home/33857085","distance":1.17},{"ADDRESS":"225 Opal Dr","CITY":"West Tawakoni","STATE":"TX","ZIP":"75474","SOLD PRICE":15900,"LOT AREA":14375,"LOT ACREAGE":0.33,"PRICE PER ACRE":48181,"LATITUDE":"32.9065012","LONGITUDE":"-96.0348929","URL":"http://www.redfin.com/TX/West-Tawakoni/225-Opal-Dr-75474/home/33815862","distance":1.33},{"ADDRESS":"1209 Red Hawk Bay Dr","CITY":"West Tawakoni","STATE":"TX","ZIP":"75474","SOLD PRICE":20599,"LOT AREA":18644,"LOT ACREAGE":0.43,"PRICE PER ACRE":48128,"LATITUDE":"32.887642","LONGITUDE":"-96.028568","URL":"http://www.redfin.com/TX/West-Tawakoni/1209-Red-Hawk-Bay-Dr-75474/home/33857077","distance":1.19},{"ADDRESS":"9985 Brinwood Dr","CITY":"Wills Point","STATE":"TX","ZIP":"75169","SOLD PRICE":22500,"LOT AREA":20909,"LOT ACREAGE":0.48,"PRICE PER ACRE":46875,"LATITUDE":"32.8630425","LONGITUDE":"-96.0455419","URL":"http://www.redfin.com/TX/Wills-Point/9985-Brinwood-Dr-75169/home/33793247","distance":1.95}],"estimatedValue":23840},{"SITUS STREET ADDRESS":"10928 Lakeview Trl","SITUS CITY":"Quinlan","SITUS STATE":"TX","SITUS ZIP CODE":"75474","COUNTY":"Hunt","LOT AREA":37462,"LOT ACREAGE":0.86,"LEGAL DESCRIPTION":"S5505 Whiskers Retreat Phase 2-2 Lot 364 Acres 0.86","LEGAL LOT":"364","SUBDIVISION":"Whiskers Retreat Phase 2-2","MUNICIPALITY/TOWNSHIP":"Unincorporated Area","LATITUDE":"32.84223847","LONGITUDE":"-96.1388478","APN - FORMATTED":"89769","IN FLOOD ZONE":"X","OWNER MAILING NAME":"Craig Kidd","MAILING STREET ADDRESS":"10845 Lakeview Trl","MAIL CITY":"Quinlan","MAIL STATE":"TX","MAIL ZIPZIP4":"75474-6138","MARKET TOTAL VALUE":7490,"MARKET IMPROVEMENT VALUE":0,"date":"04/29/2020","id":12,"pricePerAcre":39851,"avgPPA":45758.666666666664,"avgPPA2":39850.666666666664,"avgPPA3":44366,"estValue":39352,"estValue2":34272,"estValue3":38155,"offer":17100,"offer1":19600,"offer2":17100,"offer3":19000,"offerPPA":0,"jasonOffer":0,"jasonEstValue":0,"statusColor":"green","marketValueFlag":false,"propertyLink":"https://www.google.com/maps/place/32.84223847+-96.1388478","soldArr":[{"ADDRESS":"County Rd 3625","CITY":"Quinlan","STATE":"TX","ZIP":"75474","SOLD PRICE":19000,"LOT AREA":40990,"LOT ACREAGE":0.94,"PRICE PER ACRE":20191,"LATITUDE":"32.869014","LONGITUDE":"-96.100135","URL":"http://www.redfin.com/TX/Unknown/Unknown-75474/home/147400792","distance":2.91},{"ADDRESS":"Kitsee Knoll Way","CITY":"Quinlan","STATE":"TX","ZIP":"75474","SOLD PRICE":44900,"LOT AREA":23827,"LOT ACREAGE":0.55,"PRICE PER ACRE":82085,"LATITUDE":"32.849487","LONGITUDE":"-96.075843","URL":"http://www.redfin.com/TX/Unknown/Kitsee-Knoll-Way-75474/home/33710097","distance":3.69},{"ADDRESS":"Karol Jean Way","CITY":"Quinlan","STATE":"TX","ZIP":"75474","SOLD PRICE":35000,"LOT AREA":28009,"LOT ACREAGE":0.64,"PRICE PER ACRE":54433,"LATITUDE":"32.850808","LONGITUDE":"-96.072985","URL":"http://www.redfin.com/TX/Unknown/Karol-Jean-Way-75474/home/33710055","distance":3.87},{"ADDRESS":"Karen Sue Ct","CITY":"Quinlan","STATE":"TX","ZIP":"75474","SOLD PRICE":35000,"LOT AREA":43560,"LOT ACREAGE":1,"PRICE PER ACRE":35000,"LATITUDE":"32.848064","LONGITUDE":"-96.078449","URL":"http://www.redfin.com/TX/Unknown/Karen-Sue-Ct-75474/home/33710082","distance":3.53},{"ADDRESS":"9829 Kathy Lynn Pl","CITY":"Quinlan","STATE":"TX","ZIP":"75474","SOLD PRICE":29999,"LOT AREA":43386,"LOT ACREAGE":1,"PRICE PER ACRE":30119,"LATITUDE":"32.8485975","LONGITUDE":"-96.0748517","URL":"http://www.redfin.com/TX/Quinlan/9829-Kathy-Lynn-Pl-75474/home/33710030","distance":3.74}],"estimatedValue":34272},{"SITUS STREET ADDRESS":"4703 Lee St","SITUS CITY":"Greenville","SITUS STATE":"TX","SITUS ZIP CODE":"75401","COUNTY":"Hunt","LOT AREA":16000,"LOT ACREAGE":0.367,"LEGAL DESCRIPTION":"S2535 College Hill Addition Blk 31 Lot 1 2","LEGAL LOT":"1|2","SUBDIVISION":"College Hill Addition (Greenville)","MUNICIPALITY/TOWNSHIP":"City Of Greenville","LATITUDE":"33.13994486","LONGITUDE":"-96.13019991","APN - FORMATTED":"42048","IN FLOOD ZONE":"X","OWNER MAILING NAME":"Clyde & Bertha Simmons","MAILING STREET ADDRESS":"109 Greenfield Trl","MAIL CITY":"Forney","MAIL STATE":"TX","MAIL ZIPZIP4":"75126-6891","MARKET TOTAL VALUE":10720,"MARKET IMPROVEMENT VALUE":0,"date":"04/29/2020","id":13,"pricePerAcre":79905,"avgPPA":81817.33333333333,"avgPPA2":79904.66666666667,"avgPPA3":80201,"estValue":30027,"estValue2":29325,"estValue3":29434,"offer":14600,"offer1":15000,"offer2":14600,"offer3":14700,"offerPPA":0,"jasonOffer":0,"jasonEstValue":0,"statusColor":"green","marketValueFlag":false,"propertyLink":"https://www.google.com/maps/place/33.13994486+-96.13019991","soldArr":[{"ADDRESS":"4401 Washington St","CITY":"Greenville","STATE":"TX","ZIP":"75401","SOLD PRICE":35000,"LOT AREA":16030,"LOT ACREAGE":0.37,"PRICE PER ACRE":95109,"LATITUDE":"33.1389202","LONGITUDE":"-96.126528","URL":"http://www.redfin.com/TX/Greenville/4401-Washington-St-75401/home/33798022","distance":0.22},{"ADDRESS":"1206 Speedway St","CITY":"Greenville","STATE":"TX","ZIP":"75401","SOLD PRICE":18500,"LOT AREA":9017,"LOT ACREAGE":0.21,"PRICE PER ACRE":89371,"LATITUDE":"33.148953","LONGITUDE":"-96.121484","URL":"http://www.redfin.com/TX/Greenville/1206-Speedway-St-75401/home/33862394","distance":0.8},{"ADDRESS":"4227 Washington","CITY":"Greenville","STATE":"TX","ZIP":"75401","SOLD PRICE":18500,"LOT AREA":9670,"LOT ACREAGE":0.22,"PRICE PER ACRE":83336,"LATITUDE":"33.138753","LONGITUDE":"-96.124685","URL":"http://www.redfin.com/TX/Greenville/4227-Washington-St-75401/home/33872308","distance":0.33},{"ADDRESS":"1829 College St","CITY":"Greenville","STATE":"TX","ZIP":"75401","SOLD PRICE":13000,"LOT AREA":8451,"LOT ACREAGE":0.19,"PRICE PER ACRE":67007,"LATITUDE":"33.143658","LONGITUDE":"-96.124178","URL":"http://www.redfin.com/TX/Greenville/1829-College-St-75401/home/33830229","distance":0.43},{"ADDRESS":"3702 Mcdougal St","CITY":"Greenville","STATE":"TX","ZIP":"75401","SOLD PRICE":13700,"LOT AREA":9017,"LOT ACREAGE":0.21,"PRICE PER ACRE":66183,"LATITUDE":"33.146203","LONGITUDE":"-96.117407","URL":"http://www.redfin.com/TX/Greenville/3702-McDougal-St-75401/home/33790717","distance":0.86}],"estimatedValue":29325},{"SITUS STREET ADDRESS":"3500 Pace St","SITUS CITY":"Greenville","SITUS STATE":"TX","SITUS ZIP CODE":"75401","COUNTY":"Hunt","LOT AREA":32670,"LOT ACREAGE":0.75,"LEGAL DESCRIPTION":"S3020 Gates A J Addition Blk 1 Lot 8","LEGAL LOT":"8","SUBDIVISION":"Gates A J Addition","MUNICIPALITY/TOWNSHIP":"City Of Greenville","LATITUDE":"33.14736679","LONGITUDE":"-96.11597884","APN - FORMATTED":"44996","IN FLOOD ZONE":"X","OWNER MAILING NAME":"Robert Carl","MAILING STREET ADDRESS":"109 Orchard Acres Ct","MAIL CITY":"Ennis","MAIL STATE":"TX","MAIL ZIPZIP4":"75119-7291","MARKET TOTAL VALUE":16010,"MARKET IMPROVEMENT VALUE":0,"date":"04/29/2020","id":14,"pricePerAcre":70085,"avgPPA":83157.33333333333,"avgPPA2":70085.33333333333,"avgPPA3":67503,"estValue":62368,"estValue2":52564,"estValue3":50627,"offer":26200,"offer1":31100,"offer2":26200,"offer3":25300,"offerPPA":0,"jasonOffer":0,"jasonEstValue":0,"statusColor":"green","marketValueFlag":false,"propertyLink":"https://www.google.com/maps/place/33.14736679+-96.11597884","soldArr":[{"ADDRESS":"0 Stonewall St","CITY":"Greenville","STATE":"TX","ZIP":"75401","SOLD PRICE":35000,"LOT AREA":15682,"LOT ACREAGE":0.36,"PRICE PER ACRE":97220,"LATITUDE":"33.145683","LONGITUDE":"-96.107387","URL":"http://www.redfin.com/TX/GREENVILLE/STONEWALL-ST-75401/home/33845594","distance":0.51},{"ADDRESS":"4401 Washington St","CITY":"Greenville","STATE":"TX","ZIP":"75401","SOLD PRICE":35000,"LOT AREA":16030,"LOT ACREAGE":0.37,"PRICE PER ACRE":95109,"LATITUDE":"33.1389202","LONGITUDE":"-96.126528","URL":"http://www.redfin.com/TX/Greenville/4401-Washington-St-75401/home/33798022","distance":0.84},{"ADDRESS":"1205 Sayle St","CITY":"Greenville","STATE":"TX","ZIP":"75401","SOLD PRICE":20000,"LOT AREA":15246,"LOT ACREAGE":0.35,"PRICE PER ACRE":57143,"LATITUDE":"33.14944","LONGITUDE":"-96.115058","URL":"http://www.redfin.com/TX/Greenville/1205-Sayle-St-75401/home/33849239","distance":0.15},{"ADDRESS":"0 Marshall St","CITY":"Greenville","STATE":"TX","ZIP":"75401","SOLD PRICE":14990,"LOT AREA":21736,"LOT ACREAGE":0.5,"PRICE PER ACRE":30041,"LATITUDE":"33.134209","LONGITUDE":"-96.117604","URL":"http://www.redfin.com/TX/GREENVILLE/MARSHALL-ST-75401/home/33821174","distance":0.91},{"ADDRESS":"0 Mitchell St","CITY":"Greenville","STATE":"TX","ZIP":"75401","SOLD PRICE":50000,"LOT AREA":37549,"LOT ACREAGE":0.86,"PRICE PER ACRE":58004,"LATITUDE":"33.109605","LONGITUDE":"-96.117785","URL":"http://www.redfin.com/TX/GREENVILLE/MITCHELL-ST-75401/home/33832965","distance":2.61}],"estimatedValue":52564},{"SITUS STREET ADDRESS":"3208 Star St","SITUS CITY":"Greenville","SITUS STATE":"TX","SITUS ZIP CODE":"75402","COUNTY":"Hunt","LOT AREA":15499,"LOT ACREAGE":0.356,"LEGAL DESCRIPTION":"S4950 Smith Resubdivision Blk 1 Lot 15","LEGAL LOT":"15","SUBDIVISION":"Smith Resubdivision","MUNICIPALITY/TOWNSHIP":"City Of Greenville","LATITUDE":"33.10717137","LONGITUDE":"-96.1157679","APN - FORMATTED":"78750","IN FLOOD ZONE":"X","OWNER MAILING NAME":"Gaytan & Laura Sanchez","MAILING STREET ADDRESS":"10906 Vaquero Dr","MAIL CITY":"Dallas","MAIL STATE":"TX","MAIL ZIPZIP4":"75217-7827","MARKET TOTAL VALUE":14540,"MARKET IMPROVEMENT VALUE":0,"date":"04/29/2020","id":15,"pricePerAcre":71492,"avgPPA":66831.66666666667,"avgPPA2":71490.33333333333,"avgPPA3":72613,"estValue":23792,"estValue2":25451,"estValue3":25850,"offer":12700,"offer1":11800,"offer2":12700,"offer3":12900,"offerPPA":0,"jasonOffer":0,"jasonEstValue":0,"statusColor":"green","marketValueFlag":false,"propertyLink":"https://www.google.com/maps/place/33.10717137+-96.1157679","soldArr":[{"ADDRESS":"Colorado St","CITY":"Greenville","STATE":"TX","ZIP":"75402","SOLD PRICE":15000,"LOT AREA":12589,"LOT ACREAGE":0.29,"PRICE PER ACRE":51902,"LATITUDE":"33.110729","LONGITUDE":"-96.117755","URL":"http://www.redfin.com/TX/Greenville/Colorado-St-75402/home/40134605","distance":0.27},{"ADDRESS":"4121 Stonewall St","CITY":"Greenville","STATE":"TX","ZIP":"75401","SOLD PRICE":23000,"LOT AREA":8451,"LOT ACREAGE":0.19,"PRICE PER ACRE":118552,"LATITUDE":"33.1273709","LONGITUDE":"-96.107148","URL":"http://www.redfin.com/TX/Greenville/4121-Stonewall-St-75401/home/33842837","distance":1.48},{"ADDRESS":"1813 Oneal St","CITY":"Greenville","STATE":"TX","ZIP":"75401","SOLD PRICE":14900,"LOT AREA":9932,"LOT ACREAGE":0.23,"PRICE PER ACRE":65349,"LATITUDE":"33.1316215","LONGITUDE":"-96.1015604","URL":"http://www.redfin.com/TX/Greenville/1813-Oneal-St-75401/home/33842536","distance":1.88},{"ADDRESS":"0 Marshall St","CITY":"Greenville","STATE":"TX","ZIP":"75401","SOLD PRICE":14990,"LOT AREA":21736,"LOT ACREAGE":0.5,"PRICE PER ACRE":30041,"LATITUDE":"33.134209","LONGITUDE":"-96.117604","URL":"http://www.redfin.com/TX/GREENVILLE/MARSHALL-ST-75401/home/33821174","distance":1.87},{"ADDRESS":"0 Stonewall St","CITY":"Greenville","STATE":"TX","ZIP":"75401","SOLD PRICE":35000,"LOT AREA":15682,"LOT ACREAGE":0.36,"PRICE PER ACRE":97220,"LATITUDE":"33.145683","LONGITUDE":"-96.107387","URL":"http://www.redfin.com/TX/GREENVILLE/STONEWALL-ST-75401/home/33845594","distance":2.7}],"estimatedValue":25451},{"SITUS STREET ADDRESS":"4359 County Road 3414","SITUS CITY":"Lone Oak","SITUS STATE":"TX","SITUS ZIP CODE":"75453","COUNTY":"Hunt","LOT AREA":65340,"LOT ACREAGE":1.5,"LEGAL DESCRIPTION":"A1128 Winston William D Tract 5-2 Acres 1.5","LEGAL LOT":"5|2","SUBDIVISION":"Winston William D","MUNICIPALITY/TOWNSHIP":"Unincorporated Area","LATITUDE":"32.92269866","LONGITUDE":"-95.96809772","APN - FORMATTED":"110997","IN FLOOD ZONE":"X","OWNER MAILING NAME":"Kila Smith","MAILING STREET ADDRESS":"10961 Lakeside Dr","MAIL CITY":"Quinlan","MAIL STATE":"TX","MAIL ZIPZIP4":"75474-5773","MARKET TOTAL VALUE":5770,"MARKET IMPROVEMENT VALUE":0,"date":"04/29/2020","id":16,"pricePerAcre":20793,"avgPPA":22576.333333333332,"avgPPA2":20793,"avgPPA3":21663,"estValue":33865,"estValue2":31190,"estValue3":32495,"offer":15500,"offer1":16900,"offer2":15500,"offer3":16200,"offerPPA":0,"jasonOffer":0,"jasonEstValue":0,"statusColor":"green","marketValueFlag":false,"propertyLink":"https://www.google.com/maps/place/32.92269866+-95.96809772","soldArr":[{"ADDRESS":"805 Redoak Dr","CITY":"West Tawakoni","STATE":"TX","ZIP":"75474","SOLD PRICE":22000,"LOT AREA":51488,"LOT ACREAGE":1.18,"PRICE PER ACRE":18612,"LATITUDE":"32.892988","LONGITUDE":"-96.012844","URL":"http://www.redfin.com/TX/West-Tawakoni/805-Redoak-Dr-75474/home/33790867","distance":3.31},{"ADDRESS":"1234 Raintree Rd","CITY":"West Tawakoni","STATE":"TX","ZIP":"75474","SOLD PRICE":45000,"LOT AREA":63685,"LOT ACREAGE":1.46,"PRICE PER ACRE":30780,"LATITUDE":"32.8879486","LONGITUDE":"-96.0310306","URL":"http://www.redfin.com/TX/West-Tawakoni/1234-Raintree-Rd-75474/home/33757740","distance":4.37},{"ADDRESS":"420 Rabbit Cove Rd","CITY":"West Tawakoni","STATE":"TX","ZIP":"75474","SOLD PRICE":30000,"LOT AREA":71264,"LOT ACREAGE":1.64,"PRICE PER ACRE":18337,"LATITUDE":"32.889679","LONGITUDE":"-96.031862","URL":"http://www.redfin.com/TX/West-Tawakoni/420-E-Rabbit-Cove-Rd-75474/home/33865172","distance":4.35},{"ADDRESS":"Quail Run Cir","CITY":"Quinlan","STATE":"TX","ZIP":"75474","SOLD PRICE":29750,"LOT AREA":85508,"LOT ACREAGE":1.96,"PRICE PER ACRE":15155,"LATITUDE":"32.900497","LONGITUDE":"-96.046821","URL":"http://www.redfin.com/TX/Unknown/Quail-Run-Cir-75474/home/33855452","distance":4.82},{"ADDRESS":"11 CR3228","CITY":"Lone Oak","STATE":"TX","ZIP":"75453","SOLD PRICE":39900,"LOT AREA":68346,"LOT ACREAGE":1.57,"PRICE PER ACRE":25430,"LATITUDE":"33.006742","LONGITUDE":"-95.9438","URL":"http://www.redfin.com/TX/Unknown/11-County-Road-3228-75453/home/170163555","distance":5.97}],"estimatedValue":31190},{"SITUS STREET ADDRESS":"10979 Lakeview Trl","SITUS CITY":"Quinlan","SITUS STATE":"TX","SITUS ZIP CODE":"75474","COUNTY":"Hunt","LOT AREA":34338,"LOT ACREAGE":0.788,"LEGAL DESCRIPTION":"S5313 Waco Bay Estates Phase 4 Lot 6A Acres 0.7883","LEGAL LOT":"6A","SUBDIVISION":"Waco Bay Estates Phase 4","MUNICIPALITY/TOWNSHIP":"","LATITUDE":"32.84549502","LONGITUDE":"-96.02616353","APN - FORMATTED":"85641","IN FLOOD ZONE":"X","OWNER MAILING NAME":"Culbreath & Billie Jean","MAILING STREET ADDRESS":"10979 Lakeview Dr","MAIL CITY":"Wills Point","MAIL STATE":"TX","MAIL ZIPZIP4":"75169-5020","MARKET TOTAL VALUE":12020,"MARKET IMPROVEMENT VALUE":0,"date":"04/29/2020","id":17,"pricePerAcre":37270,"avgPPA":32012.666666666668,"avgPPA2":37270,"avgPPA3":37970,"estValue":25226,"estValue2":29369,"estValue3":29920,"offer":14600,"offer1":12600,"offer2":14600,"offer3":14900,"offerPPA":0,"jasonOffer":0,"jasonEstValue":0,"statusColor":"green","marketValueFlag":false,"propertyLink":"https://www.google.com/maps/place/32.84549502+-96.02616353","soldArr":[{"ADDRESS":"2491 Lakewood Cir","CITY":"Wills Point","STATE":"TX","ZIP":"75169","SOLD PRICE":25000,"LOT AREA":15769,"LOT ACREAGE":0.36,"PRICE PER ACRE":69060,"LATITUDE":"32.8417847","LONGITUDE":"-96.0279508","URL":"http://www.redfin.com/TX/Wills-Point/2491-Lakewood-Cir-75169/home/143502481","distance":0.28},{"ADDRESS":"2439 Trout Dr","CITY":"Quinlan","STATE":"TX","ZIP":"75474","SOLD PRICE":22000,"LOT AREA":29185,"LOT ACREAGE":0.67,"PRICE PER ACRE":32836,"LATITUDE":"32.837912","LONGITUDE":"-96.028107","URL":"http://www.redfin.com/TX/Wills-Point/2439-Trout-St-75169/unit-DRD/home/33710202","distance":0.54},{"ADDRESS":"10488 W Gaillard Woods","CITY":"Wills Point","STATE":"TX","ZIP":"75169","SOLD PRICE":18000,"LOT AREA":43560,"LOT ACREAGE":1,"PRICE PER ACRE":18000,"LATITUDE":"32.8475769","LONGITUDE":"-96.0252638","URL":"http://www.redfin.com/TX/Wills-Point/10488-Gaillard-Woods-75169/home/33780056","distance":0.15},{"ADDRESS":"Lakewood Dr","CITY":"Quinlan","STATE":"TX","ZIP":"75474","SOLD PRICE":6500,"LOT AREA":31537,"LOT ACREAGE":0.72,"PRICE PER ACRE":8978,"LATITUDE":"32.841315","LONGITUDE":"-96.024629","URL":"http://www.redfin.com/TX/Quinlan/Lakewood-Dr-75474/home/33869331","distance":0.3},{"ADDRESS":"3197 Cedar Bnd","CITY":"Quinlan","STATE":"TX","ZIP":"75474","SOLD PRICE":17500,"LOT AREA":12502,"LOT ACREAGE":0.29,"PRICE PER ACRE":60974,"LATITUDE":"32.856056","LONGITUDE":"-96.045781","URL":"http://www.redfin.com/TX/Wills-Point/Cedar-St-75169/home/33793394","distance":1.35}],"estimatedValue":29369},{"SITUS STREET ADDRESS":"2649 Fm 36 N","SITUS CITY":"Farmersville","SITUS STATE":"TX","SITUS ZIP CODE":"75442","COUNTY":"Hunt","LOT AREA":34500,"LOT ACREAGE":0.792,"LEGAL DESCRIPTION":"S4400 Orig Town Of Merit Blk 9 Lot 11-20","LEGAL LOT":"11|20","SUBDIVISION":"Orig Town Of Merit","MUNICIPALITY/TOWNSHIP":"","LATITUDE":"33.21892119","LONGITUDE":"-96.28953009","APN - FORMATTED":"115375","IN FLOOD ZONE":"X","OWNER MAILING NAME":"Sergio Marin","MAILING STREET ADDRESS":"11 W Marilyn Ter","MAIL CITY":"Addison","MAIL STATE":"IL","MAIL ZIPZIP4":"60101-2606","MARKET TOTAL VALUE":13460,"MARKET IMPROVEMENT VALUE":0,"date":"04/29/2020","id":18,"pricePerAcre":55688,"avgPPA":55688,"avgPPA2":66032,"avgPPA3":55688,"estValue":44105,"estValue2":52297,"estValue3":44105,"offer":22000,"offer1":22000,"offer2":26100,"offer3":22000,"offerPPA":0,"jasonOffer":0,"jasonEstValue":0,"statusColor":"yellow","marketValueFlag":false,"propertyLink":"https://www.google.com/maps/place/33.21892119+-96.28953009","soldArr":[{"ADDRESS":"County Rd 1092","CITY":"Celeste","STATE":"TX","ZIP":"75423","SOLD PRICE":35000,"LOT AREA":43560,"LOT ACREAGE":1,"PRICE PER ACRE":35000,"LATITUDE":"33.289981","LONGITUDE":"-96.219744","URL":"http://www.redfin.com/TX/Unknown/County-Road-1092-75423/home/148564950","distance":6.35},{"ADDRESS":"Kingston St","CITY":"Celeste","STATE":"TX","ZIP":"75423","SOLD PRICE":40000,"LOT AREA":21867,"LOT ACREAGE":0.5,"PRICE PER ACRE":79682,"LATITUDE":"33.290189","LONGITUDE":"-96.191785","URL":"http://www.redfin.com/TX/Celeste/Kingston-75423/home/33853741","distance":7.49},{"ADDRESS":"207 S 4th St","CITY":"Celeste","STATE":"TX","ZIP":"75423","SOLD PRICE":22000,"LOT AREA":18295,"LOT ACREAGE":0.42,"PRICE PER ACRE":52382,"LATITUDE":"33.2921402","LONGITUDE":"-96.1972251","URL":"http://www.redfin.com/TX/Celeste/207-S-4th-St-75423/home/33839094","distance":7.35}],"estimatedValue":44105},{"SITUS STREET ADDRESS":"4411 Lee St","SITUS CITY":"Greenville","SITUS STATE":"TX","SITUS ZIP CODE":"75401","COUNTY":"Hunt","LOT AREA":15599,"LOT ACREAGE":0.358,"LEGAL DESCRIPTION":"S2535 College Hill Addition Blk 28 Lot 16","LEGAL LOT":"16","SUBDIVISION":"College Hill Addition (Greenville)","MUNICIPALITY/TOWNSHIP":"City Of Greenville","LATITUDE":"33.13977612","LONGITUDE":"-96.12664124","APN - FORMATTED":"42031","IN FLOOD ZONE":"X","OWNER MAILING NAME":"Bob Whatley","MAILING STREET ADDRESS":"1100 Pate Rd","MAIL CITY":"Calera","MAIL STATE":"OK","MAIL ZIPZIP4":"74730-4828","MARKET TOTAL VALUE":10450,"MARKET IMPROVEMENT VALUE":0,"date":"04/29/2020","id":19,"pricePerAcre":79905,"avgPPA":81817.33333333333,"avgPPA2":79904.66666666667,"avgPPA3":80201,"estValue":29291,"estValue2":28606,"estValue3":28712,"offer":14300,"offer1":14600,"offer2":14300,"offer3":14300,"offerPPA":0,"jasonOffer":0,"jasonEstValue":0,"statusColor":"green","marketValueFlag":false,"propertyLink":"https://www.google.com/maps/place/33.13977612+-96.12664124","soldArr":[{"ADDRESS":"4401 Washington St","CITY":"Greenville","STATE":"TX","ZIP":"75401","SOLD PRICE":35000,"LOT AREA":16030,"LOT ACREAGE":0.37,"PRICE PER ACRE":95109,"LATITUDE":"33.1389202","LONGITUDE":"-96.126528","URL":"http://www.redfin.com/TX/Greenville/4401-Washington-St-75401/home/33798022","distance":0.06},{"ADDRESS":"1206 Speedway St","CITY":"Greenville","STATE":"TX","ZIP":"75401","SOLD PRICE":18500,"LOT AREA":9017,"LOT ACREAGE":0.21,"PRICE PER ACRE":89371,"LATITUDE":"33.148953","LONGITUDE":"-96.121484","URL":"http://www.redfin.com/TX/Greenville/1206-Speedway-St-75401/home/33862394","distance":0.7},{"ADDRESS":"4227 Washington","CITY":"Greenville","STATE":"TX","ZIP":"75401","SOLD PRICE":18500,"LOT AREA":9670,"LOT ACREAGE":0.22,"PRICE PER ACRE":83336,"LATITUDE":"33.138753","LONGITUDE":"-96.124685","URL":"http://www.redfin.com/TX/Greenville/4227-Washington-St-75401/home/33872308","distance":0.13},{"ADDRESS":"1829 College St","CITY":"Greenville","STATE":"TX","ZIP":"75401","SOLD PRICE":13000,"LOT AREA":8451,"LOT ACREAGE":0.19,"PRICE PER ACRE":67007,"LATITUDE":"33.143658","LONGITUDE":"-96.124178","URL":"http://www.redfin.com/TX/Greenville/1829-College-St-75401/home/33830229","distance":0.3},{"ADDRESS":"3702 Mcdougal St","CITY":"Greenville","STATE":"TX","ZIP":"75401","SOLD PRICE":13700,"LOT AREA":9017,"LOT ACREAGE":0.21,"PRICE PER ACRE":66183,"LATITUDE":"33.146203","LONGITUDE":"-96.117407","URL":"http://www.redfin.com/TX/Greenville/3702-McDougal-St-75401/home/33790717","distance":0.69}],"estimatedValue":28606},{"SITUS STREET ADDRESS":"15081 County Road 335","SITUS CITY":"Quinlan","SITUS STATE":"TX","SITUS ZIP CODE":"75474","COUNTY":"Hunt","LOT AREA":77101,"LOT ACREAGE":1.77,"LEGAL DESCRIPTION":"S4911 Sawyer Tom Country Unrecorded Lot 18 Acres 1.77","LEGAL LOT":"18","SUBDIVISION":"Sawyer Tom Country Unrecorded","MUNICIPALITY/TOWNSHIP":"Unincorporated Area","LATITUDE":"32.83878447","LONGITUDE":"-96.08246477","APN - FORMATTED":"30319","IN FLOOD ZONE":"X","OWNER MAILING NAME":"Jesus Cavazoes","MAILING STREET ADDRESS":"11002 Private Road 3782","MAIL CITY":"Quinlan","MAIL STATE":"TX","MAIL ZIPZIP4":"75474-5716","MARKET TOTAL VALUE":17020,"MARKET IMPROVEMENT VALUE":0,"date":"04/29/2020","id":20,"pricePerAcre":19086,"avgPPA":20233.333333333332,"avgPPA2":19086,"avgPPA3":18278,"estValue":35813,"estValue2":33782,"estValue3":32352,"offer":16800,"offer1":17900,"offer2":16800,"offer3":16100,"offerPPA":0,"jasonOffer":0,"jasonEstValue":0,"statusColor":"green","marketValueFlag":false,"propertyLink":"https://www.google.com/maps/place/32.83878447+-96.08246477","soldArr":[{"ADDRESS":"Private Road 3782","CITY":"Quinlan","STATE":"TX","ZIP":"75474","SOLD PRICE":27000,"LOT AREA":56846,"LOT ACREAGE":1.31,"PRICE PER ACRE":20690,"LATITUDE":"32.839619","LONGITUDE":"-96.081159","URL":"http://www.redfin.com/TX/Unknown/Private-Road-3782-75474/home/169404755","distance":0.1},{"ADDRESS":"0 Ash","CITY":"Wills Point","STATE":"TX","ZIP":"75169","SOLD PRICE":46000,"LOT AREA":91040,"LOT ACREAGE":2.09,"PRICE PER ACRE":22010,"LATITUDE":"32.856119","LONGITUDE":"-96.041305","URL":"http://www.redfin.com/TX/Wills-Point/Ash-Ln-75169/home/33741895","distance":2.67},{"ADDRESS":"Shady Woods Dr","CITY":"Quinlan","STATE":"TX","ZIP":"75474","SOLD PRICE":27000,"LOT AREA":65340,"LOT ACREAGE":1.5,"PRICE PER ACRE":18000,"LATITUDE":"32.872679","LONGITUDE":"-96.097805","URL":"http://www.redfin.com/TX/Unknown/Shady-Woods-Dr-75474/home/33777045","distance":2.51},{"ADDRESS":"County Rd 3623","CITY":"Quinlan","STATE":"TX","ZIP":"75474","SOLD PRICE":16900,"LOT AREA":60723,"LOT ACREAGE":1.39,"PRICE PER ACRE":12123,"LATITUDE":"32.875726","LONGITUDE":"-96.097488","URL":"http://www.redfin.com/TX/Unknown/County-Road-3623-75474/home/169288979","distance":2.7},{"ADDRESS":"9387 Amy Dr","CITY":"Hawk Cove","STATE":"TX","ZIP":"75474","SOLD PRICE":24900,"LOT AREA":58414,"LOT ACREAGE":1.34,"PRICE PER ACRE":18568,"LATITUDE":"32.88507","LONGITUDE":"-96.079406","URL":"http://www.redfin.com/TX/Quinlan/9387-Amy-Dr-75474/home/33873328","distance":3.2}],"estimatedValue":33782},{"SITUS STREET ADDRESS":"3601 Pace St","SITUS CITY":"Greenville","SITUS STATE":"TX","SITUS ZIP CODE":"75401","COUNTY":"Hunt","LOT AREA":16501,"LOT ACREAGE":0.379,"LEGAL DESCRIPTION":"S2260 Becton Anna S Subdivision Blk 2 Lot 1 2A 5A","LEGAL LOT":"1|2A|","SUBDIVISION":"Becton Anna S Subdivision","MUNICIPALITY/TOWNSHIP":"City Of Greenville","LATITUDE":"33.14674579","LONGITUDE":"-96.11649388","APN - FORMATTED":"39916","IN FLOOD ZONE":"X","OWNER MAILING NAME":"Thomas & Dorothy Williams","MAILING STREET ADDRESS":"1101 Concord Ave","MAIL CITY":"Southlake","MAIL STATE":"TX","MAIL ZIPZIP4":"76092-9362","MARKET TOTAL VALUE":10230,"MARKET IMPROVEMENT VALUE":0,"date":"04/29/2020","id":21,"pricePerAcre":89272,"avgPPA":84532.66666666667,"avgPPA2":89272,"avgPPA3":86409,"estValue":32038,"estValue2":33834,"estValue3":32749,"offer":16900,"offer1":16000,"offer2":16900,"offer3":16300,"offerPPA":0,"jasonOffer":0,"jasonEstValue":0,"statusColor":"green","marketValueFlag":false,"propertyLink":"https://www.google.com/maps/place/33.14674579+-96.11649388","soldArr":[{"ADDRESS":"0 Stonewall St","CITY":"Greenville","STATE":"TX","ZIP":"75401","SOLD PRICE":35000,"LOT AREA":15682,"LOT ACREAGE":0.36,"PRICE PER ACRE":97220,"LATITUDE":"33.145683","LONGITUDE":"-96.107387","URL":"http://www.redfin.com/TX/GREENVILLE/STONEWALL-ST-75401/home/33845594","distance":0.53},{"ADDRESS":"4401 Washington St","CITY":"Greenville","STATE":"TX","ZIP":"75401","SOLD PRICE":35000,"LOT AREA":16030,"LOT ACREAGE":0.37,"PRICE PER ACRE":95109,"LATITUDE":"33.1389202","LONGITUDE":"-96.126528","URL":"http://www.redfin.com/TX/Greenville/4401-Washington-St-75401/home/33798022","distance":0.79},{"ADDRESS":"1206 Speedway St","CITY":"Greenville","STATE":"TX","ZIP":"75401","SOLD PRICE":18500,"LOT AREA":9017,"LOT ACREAGE":0.21,"PRICE PER ACRE":89371,"LATITUDE":"33.148953","LONGITUDE":"-96.121484","URL":"http://www.redfin.com/TX/Greenville/1206-Speedway-St-75401/home/33862394","distance":0.33},{"ADDRESS":"4227 Washington","CITY":"Greenville","STATE":"TX","ZIP":"75401","SOLD PRICE":18500,"LOT AREA":9670,"LOT ACREAGE":0.22,"PRICE PER ACRE":83336,"LATITUDE":"33.138753","LONGITUDE":"-96.124685","URL":"http://www.redfin.com/TX/Greenville/4227-Washington-St-75401/home/33872308","distance":0.73},{"ADDRESS":"1829 College St","CITY":"Greenville","STATE":"TX","ZIP":"75401","SOLD PRICE":13000,"LOT AREA":8451,"LOT ACREAGE":0.19,"PRICE PER ACRE":67007,"LATITUDE":"33.143658","LONGITUDE":"-96.124178","URL":"http://www.redfin.com/TX/Greenville/1829-College-St-75401/home/33830229","distance":0.49}],"estimatedValue":33834},{"SITUS STREET ADDRESS":"1104 Rees St","SITUS CITY":"Greenville","SITUS STATE":"TX","SITUS ZIP CODE":"75401","COUNTY":"Hunt","LOT AREA":16875,"LOT ACREAGE":0.387,"LEGAL DESCRIPTION":"S2570 Cordell Addition Blk 4 Lot 1-2 Acres .3874","LEGAL LOT":"1|2","SUBDIVISION":"Cordell Addition","MUNICIPALITY/TOWNSHIP":"City Of Greenville","LATITUDE":"33.16495771","LONGITUDE":"-96.12680568","APN - FORMATTED":"42297","IN FLOOD ZONE":"X","OWNER MAILING NAME":"Tammy Yeary","MAILING STREET ADDRESS":"1101 Rees St","MAIL CITY":"Greenville","MAIL STATE":"TX","MAIL ZIPZIP4":"75401-2047","MARKET TOTAL VALUE":10460,"MARKET IMPROVEMENT VALUE":0,"date":"04/29/2020","id":22,"pricePerAcre":89271,"avgPPA":84532.66666666667,"avgPPA2":89272,"avgPPA3":86409,"estValue":32714,"estValue2":34548,"estValue3":33440,"offer":17200,"offer1":16300,"offer2":17200,"offer3":16700,"offerPPA":0,"jasonOffer":0,"jasonEstValue":0,"statusColor":"green","marketValueFlag":false,"propertyLink":"https://www.google.com/maps/place/33.16495771+-96.12680568","soldArr":[{"ADDRESS":"0 Stonewall St","CITY":"Greenville","STATE":"TX","ZIP":"75401","SOLD PRICE":35000,"LOT AREA":15682,"LOT ACREAGE":0.36,"PRICE PER ACRE":97220,"LATITUDE":"33.145683","LONGITUDE":"-96.107387","URL":"http://www.redfin.com/TX/GREENVILLE/STONEWALL-ST-75401/home/33845594","distance":1.74},{"ADDRESS":"4401 Washington St","CITY":"Greenville","STATE":"TX","ZIP":"75401","SOLD PRICE":35000,"LOT AREA":16030,"LOT ACREAGE":0.37,"PRICE PER ACRE":95109,"LATITUDE":"33.1389202","LONGITUDE":"-96.126528","URL":"http://www.redfin.com/TX/Greenville/4401-Washington-St-75401/home/33798022","distance":1.8},{"ADDRESS":"1206 Speedway St","CITY":"Greenville","STATE":"TX","ZIP":"75401","SOLD PRICE":18500,"LOT AREA":9017,"LOT ACREAGE":0.21,"PRICE PER ACRE":89371,"LATITUDE":"33.148953","LONGITUDE":"-96.121484","URL":"http://www.redfin.com/TX/Greenville/1206-Speedway-St-75401/home/33862394","distance":1.15},{"ADDRESS":"4227 Washington","CITY":"Greenville","STATE":"TX","ZIP":"75401","SOLD PRICE":18500,"LOT AREA":9670,"LOT ACREAGE":0.22,"PRICE PER ACRE":83336,"LATITUDE":"33.138753","LONGITUDE":"-96.124685","URL":"http://www.redfin.com/TX/Greenville/4227-Washington-St-75401/home/33872308","distance":1.81},{"ADDRESS":"1829 College St","CITY":"Greenville","STATE":"TX","ZIP":"75401","SOLD PRICE":13000,"LOT AREA":8451,"LOT ACREAGE":0.19,"PRICE PER ACRE":67007,"LATITUDE":"33.143658","LONGITUDE":"-96.124178","URL":"http://www.redfin.com/TX/Greenville/1829-College-St-75401/home/33830229","distance":1.48}],"estimatedValue":34548},{"SITUS STREET ADDRESS":"1605 Walnut St","SITUS CITY":"Greenville","SITUS STATE":"TX","SITUS ZIP CODE":"75401","COUNTY":"Hunt","LOT AREA":150587,"LOT ACREAGE":3.457,"LEGAL DESCRIPTION":"S4915 Sayle Dr Addition Blk 17 Lot A Acres 3.457","LEGAL LOT":"A","SUBDIVISION":"Sayle Dr Addition","MUNICIPALITY/TOWNSHIP":"City Of Greenville","LATITUDE":"33.1465232","LONGITUDE":"-96.11883903","APN - FORMATTED":"78092","IN FLOOD ZONE":"X","OWNER MAILING NAME":"Iglesia Bautista & Vida Nueva","MAILING STREET ADDRESS":"1109 Wolfe City Dr","MAIL CITY":"Greenville","MAIL STATE":"TX","MAIL ZIPZIP4":"75401-2100","MARKET TOTAL VALUE":15560,"MARKET IMPROVEMENT VALUE":0,"date":"04/29/2020","id":23,"pricePerAcre":25723,"avgPPA":25515.333333333332,"avgPPA2":25723.333333333332,"avgPPA3":24979,"estValue":88207,"estValue2":88926,"estValue3":86352,"offer":44400,"offer1":44100,"offer2":44400,"offer3":43100,"offerPPA":0,"jasonOffer":0,"jasonEstValue":0,"statusColor":"green","marketValueFlag":false,"propertyLink":"https://www.google.com/maps/place/33.1465232+-96.11883903","soldArr":[{"ADDRESS":"0 FM 1569","CITY":"Greenville","STATE":"TX","ZIP":"75401","SOLD PRICE":67900,"LOT AREA":174240,"LOT ACREAGE":4,"PRICE PER ACRE":16975,"LATITUDE":"33.169709","LONGITUDE":"-96.151699","URL":"http://www.redfin.com/TX/Greenville/Farm-to-Market-Road-1569-Unknown/home/169650823","distance":2.49},{"ADDRESS":"1006 County Road 2154","CITY":"Caddo Mills","STATE":"TX","ZIP":"75135","SOLD PRICE":119000,"LOT AREA":168577,"LOT ACREAGE":3.87,"PRICE PER ACRE":30749,"LATITUDE":"33.115397","LONGITUDE":"-96.218769","URL":"http://www.redfin.com/TX/Caddo-Mills/1006-Co-Rd-2154-75135/home/35603208","distance":6.17},{"ADDRESS":"200 FM 1903","CITY":"Greenville","STATE":"TX","ZIP":"75402","SOLD PRICE":115000,"LOT AREA":173804,"LOT ACREAGE":3.99,"PRICE PER ACRE":28822,"LATITUDE":"33.0419049","LONGITUDE":"-96.1117225","URL":"http://www.redfin.com/TX/Greenville/200-FM1903-75402/home/33813218","distance":7.24},{"ADDRESS":"0 County Rd 2156","CITY":"Caddo Mills","STATE":"TX","ZIP":"75135","SOLD PRICE":78500,"LOT AREA":132161,"LOT ACREAGE":3.03,"PRICE PER ACRE":25873,"LATITUDE":"33.10176","LONGITUDE":"-96.233072","URL":"http://www.redfin.com/TX/Unknown/Unknown-75135/home/146816517","distance":7.3},{"ADDRESS":"4 FM 1903","CITY":"Caddo Mills","STATE":"TX","ZIP":"75135","SOLD PRICE":89900,"LOT AREA":174240,"LOT ACREAGE":4,"PRICE PER ACRE":22475,"LATITUDE":"33.042531","LONGITUDE":"-96.166423","URL":"http://www.redfin.com/TX/Caddo-Mills/4-Farm-to-Market-Road-1903-75135/home/168909436","distance":7.69}],"estimatedValue":88926},{"SITUS STREET ADDRESS":"2111 Marshall St","SITUS CITY":"Greenville","SITUS STATE":"TX","SITUS ZIP CODE":"75401","COUNTY":"Hunt","LOT AREA":1934,"LOT ACREAGE":0.44,"LEGAL DESCRIPTION":"S4385 Orig Town Of Greenville Blk 123 Lot 2A","LEGAL LOT":"2A","SUBDIVISION":"Orig Town Of Greenville","MUNICIPALITY/TOWNSHIP":"City Of Greenville","LATITUDE":"33.13370998","LONGITUDE":"-96.10351283","APN - FORMATTED":"71145","IN FLOOD ZONE":"X","OWNER MAILING NAME":"Jones & Lottie Lou","MAILING STREET ADDRESS":"1110 Lourock St Mr","MAIL CITY":"Garland","MAIL STATE":"TX","MAIL ZIPZIP4":"75040-9405","MARKET TOTAL VALUE":1550,"MARKET IMPROVEMENT VALUE":0,"date":"04/29/2020","id":24,"pricePerAcre":68059,"avgPPA":46370.333333333336,"avgPPA2":68059.66666666667,"avgPPA3":66288,"estValue":20403,"estValue2":29946,"estValue3":29167,"offer":14900,"offer1":10200,"offer2":14900,"offer3":14500,"offerPPA":0,"jasonOffer":0,"jasonEstValue":0,"statusColor":"green","marketValueFlag":false,"propertyLink":"https://www.google.com/maps/place/33.13370998+-96.10351283","soldArr":[{"ADDRESS":"0 Stonewall St","CITY":"Greenville","STATE":"TX","ZIP":"75401","SOLD PRICE":35000,"LOT AREA":15682,"LOT ACREAGE":0.36,"PRICE PER ACRE":97220,"LATITUDE":"33.145683","LONGITUDE":"-96.107387","URL":"http://www.redfin.com/TX/GREENVILLE/STONEWALL-ST-75401/home/33845594","distance":0.86},{"ADDRESS":"1813 Oneal St","CITY":"Greenville","STATE":"TX","ZIP":"75401","SOLD PRICE":14900,"LOT AREA":9932,"LOT ACREAGE":0.23,"PRICE PER ACRE":65349,"LATITUDE":"33.1316215","LONGITUDE":"-96.1015604","URL":"http://www.redfin.com/TX/Greenville/1813-Oneal-St-75401/home/33842536","distance":0.18},{"ADDRESS":"2305 Bourland St","CITY":"Greenville","STATE":"TX","ZIP":"75401","SOLD PRICE":8700,"LOT AREA":8668,"LOT ACREAGE":0.2,"PRICE PER ACRE":43721,"LATITUDE":"33.143143","LONGITUDE":"-96.1047314","URL":"http://www.redfin.com/TX/Greenville/2305-Bourland-St-75401/home/168785000","distance":0.66},{"ADDRESS":"0 Marshall St","CITY":"Greenville","STATE":"TX","ZIP":"75401","SOLD PRICE":14990,"LOT AREA":21736,"LOT ACREAGE":0.5,"PRICE PER ACRE":30041,"LATITUDE":"33.134209","LONGITUDE":"-96.117604","URL":"http://www.redfin.com/TX/GREENVILLE/MARSHALL-ST-75401/home/33821174","distance":0.82},{"ADDRESS":"4401 Washington St","CITY":"Greenville","STATE":"TX","ZIP":"75401","SOLD PRICE":35000,"LOT AREA":16030,"LOT ACREAGE":0.37,"PRICE PER ACRE":95109,"LATITUDE":"33.1389202","LONGITUDE":"-96.126528","URL":"http://www.redfin.com/TX/Greenville/4401-Washington-St-75401/home/33798022","distance":1.38}],"estimatedValue":29946},{"SITUS STREET ADDRESS":"10883 Lakeview Trl","SITUS CITY":"Quinlan","SITUS STATE":"TX","SITUS ZIP CODE":"75474","COUNTY":"Hunt","LOT AREA":60113,"LOT ACREAGE":1.38,"LEGAL DESCRIPTION":"S5505 Whiskers Retreat Phase 2-2 Lot 340 Acres 1.38","LEGAL LOT":"340","SUBDIVISION":"Whiskers Retreat Phase 2-2","MUNICIPALITY/TOWNSHIP":"","LATITUDE":"32.84321818","LONGITUDE":"-96.13777167","APN - FORMATTED":"89745","IN FLOOD ZONE":"X","OWNER MAILING NAME":"Marcelina & Eduardo Sandoval","MAILING STREET ADDRESS":"1113 Montclair Dr","MAIL CITY":"Garland","MAIL STATE":"TX","MAIL ZIPZIP4":"75040-8139","MARKET TOTAL VALUE":11450,"MARKET IMPROVEMENT VALUE":0,"date":"04/29/2020","id":25,"pricePerAcre":23667,"avgPPA":19627,"avgPPA2":23666.666666666668,"avgPPA3":24800,"estValue":27085,"estValue2":32660,"estValue3":34224,"offer":16300,"offer1":13500,"offer2":16300,"offer3":17100,"offerPPA":0,"jasonOffer":0,"jasonEstValue":0,"statusColor":"green","marketValueFlag":false,"propertyLink":"https://www.google.com/maps/place/32.84321818+-96.13777167","soldArr":[{"ADDRESS":"County Rd 3625","CITY":"Quinlan","STATE":"TX","ZIP":"75474","SOLD PRICE":19000,"LOT AREA":40990,"LOT ACREAGE":0.94,"PRICE PER ACRE":20191,"LATITUDE":"32.869014","LONGITUDE":"-96.100135","URL":"http://www.redfin.com/TX/Unknown/Unknown-75474/home/147400792","distance":2.82},{"ADDRESS":"Karen Sue Ct","CITY":"Quinlan","STATE":"TX","ZIP":"75474","SOLD PRICE":35000,"LOT AREA":43560,"LOT ACREAGE":1,"PRICE PER ACRE":35000,"LATITUDE":"32.848064","LONGITUDE":"-96.078449","URL":"http://www.redfin.com/TX/Unknown/Karen-Sue-Ct-75474/home/33710082","distance":3.46},{"ADDRESS":"9829 Kathy Lynn Pl","CITY":"Quinlan","STATE":"TX","ZIP":"75474","SOLD PRICE":29999,"LOT AREA":43386,"LOT ACREAGE":1,"PRICE PER ACRE":30119,"LATITUDE":"32.8485975","LONGITUDE":"-96.0748517","URL":"http://www.redfin.com/TX/Quinlan/9829-Kathy-Lynn-Pl-75474/home/33710030","distance":3.67},{"ADDRESS":"Private Road 3782","CITY":"Quinlan","STATE":"TX","ZIP":"75474","SOLD PRICE":27000,"LOT AREA":56846,"LOT ACREAGE":1.31,"PRICE PER ACRE":20690,"LATITUDE":"32.839619","LONGITUDE":"-96.081159","URL":"http://www.redfin.com/TX/Unknown/Private-Road-3782-75474/home/169404755","distance":3.3},{"ADDRESS":"Shady Woods Dr","CITY":"Quinlan","STATE":"TX","ZIP":"75474","SOLD PRICE":27000,"LOT AREA":65340,"LOT ACREAGE":1.5,"PRICE PER ACRE":18000,"LATITUDE":"32.872679","LONGITUDE":"-96.097805","URL":"http://www.redfin.com/TX/Unknown/Shady-Woods-Dr-75474/home/33777045","distance":3.09}],"estimatedValue":32660},{"SITUS STREET ADDRESS":"3010 Star St","SITUS CITY":"Greenville","SITUS STATE":"TX","SITUS ZIP CODE":"75402","COUNTY":"Hunt","LOT AREA":15499,"LOT ACREAGE":0.356,"LEGAL DESCRIPTION":"S4075 Mineral Heights Subdivision Blk 9 Lot 11-12","LEGAL LOT":"11|12","SUBDIVISION":"Mineral Heights Subdivision","MUNICIPALITY/TOWNSHIP":"City Of Greenville","LATITUDE":"33.10711343","LONGITUDE":"-96.11273706","APN - FORMATTED":"51422","IN FLOOD ZONE":"X","OWNER MAILING NAME":"Ashraf & Naseem Nayani","MAILING STREET ADDRESS":"1123 Seminole Ln","MAIL CITY":"Greenville","MAIL STATE":"TX","MAIL ZIPZIP4":"75402-7731","MARKET TOTAL VALUE":20770,"MARKET IMPROVEMENT VALUE":0,"date":"04/29/2020","id":26,"pricePerAcre":51430,"avgPPA":78601,"avgPPA2":51429.333333333336,"avgPPA3":61340,"estValue":27982,"estValue2":18309,"estValue3":21837,"offer":9100,"offer1":13900,"offer2":9100,"offer3":10900,"offerPPA":0,"jasonOffer":0,"jasonEstValue":0,"statusColor":"green","marketValueFlag":false,"propertyLink":"https://www.google.com/maps/place/33.10711343+-96.11273706","soldArr":[{"ADDRESS":"Colorado St","CITY":"Greenville","STATE":"TX","ZIP":"75402","SOLD PRICE":15000,"LOT AREA":12589,"LOT ACREAGE":0.29,"PRICE PER ACRE":51902,"LATITUDE":"33.110729","LONGITUDE":"-96.117755","URL":"http://www.redfin.com/TX/Greenville/Colorado-St-75402/home/40134605","distance":0.38},{"ADDRESS":"4121 Stonewall St","CITY":"Greenville","STATE":"TX","ZIP":"75401","SOLD PRICE":23000,"LOT AREA":8451,"LOT ACREAGE":0.19,"PRICE PER ACRE":118552,"LATITUDE":"33.1273709","LONGITUDE":"-96.107148","URL":"http://www.redfin.com/TX/Greenville/4121-Stonewall-St-75401/home/33842837","distance":1.44},{"ADDRESS":"1813 Oneal St","CITY":"Greenville","STATE":"TX","ZIP":"75401","SOLD PRICE":14900,"LOT AREA":9932,"LOT ACREAGE":0.23,"PRICE PER ACRE":65349,"LATITUDE":"33.1316215","LONGITUDE":"-96.1015604","URL":"http://www.redfin.com/TX/Greenville/1813-Oneal-St-75401/home/33842536","distance":1.81},{"ADDRESS":"Heritage Pl","CITY":"Greenville","STATE":"TX","ZIP":"75402","SOLD PRICE":15000,"LOT AREA":17642,"LOT ACREAGE":0.41,"PRICE PER ACRE":37037,"LATITUDE":"33.108547","LONGITUDE":"-96.080775","URL":"http://www.redfin.com/TX/Greenville/Heritage-Ln-75402/home/33815745","distance":1.85},{"ADDRESS":"Heritage Pl","CITY":"Greenville","STATE":"TX","ZIP":"75402","SOLD PRICE":15000,"LOT AREA":19297,"LOT ACREAGE":0.44,"PRICE PER ACRE":33860,"LATITUDE":"33.108743","LONGITUDE":"-96.080501","URL":"http://www.redfin.com/TX/Greenville/Heritage-Ln-75402/home/33815747","distance":1.87}],"estimatedValue":18309},{"SITUS STREET ADDRESS":"913 Redoak Dr","SITUS CITY":"Quinlan","SITUS STATE":"TX","SITUS ZIP CODE":"75474","COUNTY":"Hunt","LOT AREA":17498,"LOT ACREAGE":0.402,"LEGAL DESCRIPTION":"S2185 Banner Addition Sec 2 Blk 5 Lot 27 & 29","LEGAL LOT":"27|","SUBDIVISION":"Banner Addition Sec 2","MUNICIPALITY/TOWNSHIP":"City Of West Tawakoni","LATITUDE":"32.89151847","LONGITUDE":"-96.01290251","APN - FORMATTED":"39729","IN FLOOD ZONE":"X","OWNER MAILING NAME":"Meredith Epperson","MAILING STREET ADDRESS":"1132 Robin Ln","MAIL CITY":"Quinlan","MAIL STATE":"TX","MAIL ZIPZIP4":"75474-9412","MARKET TOTAL VALUE":7350,"MARKET IMPROVEMENT VALUE":0,"date":"04/29/2020","id":27,"pricePerAcre":44520,"avgPPA":41209.333333333336,"avgPPA2":44520.333333333336,"avgPPA3":41812,"estValue":16566,"estValue2":17897,"estValue3":16808,"offer":8900,"offer1":8200,"offer2":8900,"offer3":8400,"offerPPA":0,"jasonOffer":0,"jasonEstValue":0,"statusColor":"green","marketValueFlag":false,"propertyLink":"https://www.google.com/maps/place/32.89151847+-96.01290251","soldArr":[{"ADDRESS":"601 Rabbit Cove Rd","CITY":"West Tawakoni","STATE":"TX","ZIP":"75474","SOLD PRICE":26500,"LOT AREA":21780,"LOT ACREAGE":0.5,"PRICE PER ACRE":53000,"LATITUDE":"32.888717","LONGITUDE":"-96.028689","URL":"http://www.redfin.com/TX/West-Tawakoni/601-E-Rabbit-Cove-Rd-75474/home/33857085","distance":0.94},{"ADDRESS":"1209 Red Hawk Bay Dr","CITY":"West Tawakoni","STATE":"TX","ZIP":"75474","SOLD PRICE":20599,"LOT AREA":18644,"LOT ACREAGE":0.43,"PRICE PER ACRE":48128,"LATITUDE":"32.887642","LONGITUDE":"-96.028568","URL":"http://www.redfin.com/TX/West-Tawakoni/1209-Red-Hawk-Bay-Dr-75474/home/33857077","distance":0.95},{"ADDRESS":"1321 Red Hawk Bay Dr","CITY":"West Tawakoni","STATE":"TX","ZIP":"75474","SOLD PRICE":22500,"LOT AREA":26310,"LOT ACREAGE":0.6,"PRICE PER ACRE":37252,"LATITUDE":"32.885822","LONGITUDE":"-96.028135","URL":"http://www.redfin.com/TX/West-Tawakoni/1321-Red-Hawk-Bay-Dr-75474/home/33857095","distance":0.97},{"ADDRESS":"1004 Hemlock Dr","CITY":"West Tawakoni","STATE":"TX","ZIP":"75474","SOLD PRICE":9000,"LOT AREA":17424,"LOT ACREAGE":0.4,"PRICE PER ACRE":22500,"LATITUDE":"32.890689","LONGITUDE":"-96.013298","URL":"http://www.redfin.com/TX/West-Tawakoni/1004-Hemlock-Dr-75474/home/33790936","distance":0.06},{"ADDRESS":"225 Opal Dr","CITY":"West Tawakoni","STATE":"TX","ZIP":"75474","SOLD PRICE":15900,"LOT AREA":14375,"LOT ACREAGE":0.33,"PRICE PER ACRE":48181,"LATITUDE":"32.9065012","LONGITUDE":"-96.0348929","URL":"http://www.redfin.com/TX/West-Tawakoni/225-Opal-Dr-75474/home/33815862","distance":1.64}],"estimatedValue":17897},{"SITUS STREET ADDRESS":"1102 Blackburn St","SITUS CITY":"Commerce","SITUS STATE":"TX","SITUS ZIP CODE":"75428","COUNTY":"Hunt","LOT AREA":3999,"LOT ACREAGE":0.92,"LEGAL DESCRIPTION":"S3795 Knight John Addition Blk 2 Lot 5 Acres .0918","LEGAL LOT":"5","SUBDIVISION":"Knight John Addition","MUNICIPALITY/TOWNSHIP":"City Of Commerce","LATITUDE":"33.25222882","LONGITUDE":"-95.88670791","APN - FORMATTED":"3795-0020-0050-31","IN FLOOD ZONE":"X","OWNER MAILING NAME":"Robert & Claudia Record","MAILING STREET ADDRESS":"114 M L King Dr","MAIL CITY":"Commerce","MAIL STATE":"TX","MAIL ZIPZIP4":"75428-2759","MARKET TOTAL VALUE":1200,"MARKET IMPROVEMENT VALUE":0,"date":"04/29/2020","id":28,"pricePerAcre":27642,"avgPPA":27642.333333333332,"avgPPA2":30192,"avgPPA3":27642,"estValue":25431,"estValue2":27777,"estValue3":25431,"offer":12700,"offer1":12700,"offer2":13800,"offer3":12700,"offerPPA":0,"jasonOffer":0,"jasonEstValue":0,"statusColor":"yellow","marketValueFlag":false,"propertyLink":"https://www.google.com/maps/place/33.25222882+-95.88670791","soldArr":[{"ADDRESS":"0 Aldridge St","CITY":"Commerce","STATE":"TX","ZIP":"75428","SOLD PRICE":30000,"LOT AREA":48308,"LOT ACREAGE":1.11,"PRICE PER ACRE":27051,"LATITUDE":"33.240021","LONGITUDE":"-95.894635","URL":"http://www.redfin.com/TX/Commerce/Aldridge-St-75428/home/33766547","distance":0.96},{"ADDRESS":"0 Hickory St","CITY":"Commerce","STATE":"TX","ZIP":"75428","SOLD PRICE":25000,"LOT AREA":48308,"LOT ACREAGE":1.11,"PRICE PER ACRE":22543,"LATITUDE":"33.240158","LONGITUDE":"-95.895209","URL":"http://www.redfin.com/TX/Commerce/Hickory-St-75428/home/33766548","distance":0.97},{"ADDRESS":"7718 State Highway 50","CITY":"Commerce","STATE":"TX","ZIP":"75428","SOLD PRICE":25000,"LOT AREA":32670,"LOT ACREAGE":0.75,"PRICE PER ACRE":33333,"LATITUDE":"33.3011593","LONGITUDE":"-95.9067733","URL":"http://www.redfin.com/TX/Commerce/7718-TX-50-75428/home/33877825","distance":3.57}],"estimatedValue":25431},{"SITUS STREET ADDRESS":"205 N James","SITUS CITY":"Quinlan","SITUS STATE":"TX","SITUS ZIP CODE":"75474","COUNTY":"Hunt","LOT AREA":3751,"LOT ACREAGE":0.86,"LEGAL DESCRIPTION":"S4420 Orig Town Of Quinlan Blk 9 Lot 13","LEGAL LOT":"13","SUBDIVISION":"Orig Town Of Quinlan","MUNICIPALITY/TOWNSHIP":"City Of Quinlan","LATITUDE":"32.91179827","LONGITUDE":"-96.13895969","APN - FORMATTED":"74155","IN FLOOD ZONE":"X","OWNER MAILING NAME":"Valentin & Yasmin Vakencia","MAILING STREET ADDRESS":"1145 Private Road 2283","MAIL CITY":"Quinlan","MAIL STATE":"TX","MAIL ZIPZIP4":"75474-5602","MARKET TOTAL VALUE":1880,"MARKET IMPROVEMENT VALUE":0,"date":"04/29/2020","id":29,"pricePerAcre":29427,"avgPPA":28206.666666666668,"avgPPA2":29426.666666666668,"avgPPA3":33039,"estValue":24258,"estValue2":25307,"estValue3":28414,"offer":12600,"offer1":12100,"offer2":12600,"offer3":14200,"offerPPA":0,"jasonOffer":0,"jasonEstValue":0,"statusColor":"green","marketValueFlag":false,"propertyLink":"https://www.google.com/maps/place/32.91179827+-96.13895969","soldArr":[{"ADDRESS":"108 Sawyers Dr","CITY":"Quinlan","STATE":"TX","ZIP":"75474","SOLD PRICE":20000,"LOT AREA":33715,"LOT ACREAGE":0.77,"PRICE PER ACRE":25840,"LATITUDE":"32.901327","LONGITUDE":"-96.11005","URL":"http://www.redfin.com/TX/Quinlan/108-Sawyers-Dr-75474/home/33878249","distance":1.83},{"ADDRESS":"8292 County Road 2276","CITY":"Quinlan","STATE":"TX","ZIP":"75474","SOLD PRICE":25000,"LOT AREA":32670,"LOT ACREAGE":0.75,"PRICE PER ACRE":33333,"LATITUDE":"32.9405429","LONGITUDE":"-96.1444763","URL":"http://www.redfin.com/TX/Quinlan/8292-Co-Rd-2276-75474/home/33731210","distance":2.01},{"ADDRESS":"7328 County Road 2532","CITY":"Quinlan","STATE":"TX","ZIP":"75474","SOLD PRICE":29900,"LOT AREA":51183,"LOT ACREAGE":1.18,"PRICE PER ACRE":25447,"LATITUDE":"32.9382407","LONGITUDE":"-96.1743053","URL":"http://www.redfin.com/TX/Quinlan/7328-Co-Rd-2532-75474/home/33775329","distance":2.75},{"ADDRESS":"9493 Private Road 3826","CITY":"Quinlan","STATE":"TX","ZIP":"75474","SOLD PRICE":35000,"LOT AREA":29621,"LOT ACREAGE":0.68,"PRICE PER ACRE":51470,"LATITUDE":"32.880686","LONGITUDE":"-96.085282","URL":"http://www.redfin.com/TX/Quinlan/9493-Private-Rd-3826-75474/home/33715018","distance":3.78},{"ADDRESS":"Kay St","CITY":"Hawk Cove","STATE":"TX","ZIP":"75474","SOLD PRICE":14000,"LOT AREA":20952,"LOT ACREAGE":0.48,"PRICE PER ACRE":29107,"LATITUDE":"32.886127","LONGITUDE":"-96.083679","URL":"http://www.redfin.com/TX/Hawk-Cove/Kay-75474/home/33873757","distance":3.66}],"estimatedValue":25307},{"SITUS STREET ADDRESS":"9496 Morris Dr","SITUS CITY":"Quinlan","SITUS STATE":"TX","SITUS ZIP CODE":"75474","COUNTY":"Hunt","LOT AREA":30361,"LOT ACREAGE":0.697,"LEGAL DESCRIPTION":"S5465 Whiskers Retreat Installment #1 Blk 31 Lot 403-405 426-428","LEGAL LOT":"404/403/405","SUBDIVISION":"Whiskers Retreat Installment #1","MUNICIPALITY/TOWNSHIP":"City Of Hawk Cove","LATITUDE":"32.88041883","LONGITUDE":"-96.07999174","APN - FORMATTED":"87607","IN FLOOD ZONE":"X","OWNER MAILING NAME":"Elialveth Castillos","MAILING STREET ADDRESS":"11453 County Road Mr","MAIL CITY":"Princeton","MAIL STATE":"TX","MAIL ZIPZIP4":"75407","MARKET TOTAL VALUE":12140,"MARKET IMPROVEMENT VALUE":0,"date":"04/29/2020","id":30,"pricePerAcre":53290,"avgPPA":57544,"avgPPA2":53290,"avgPPA3":53357,"estValue":40108,"estValue2":37143,"estValue3":37190,"offer":18500,"offer1":20000,"offer2":18500,"offer3":18500,"offerPPA":0,"jasonOffer":0,"jasonEstValue":0,"statusColor":"green","marketValueFlag":false,"propertyLink":"https://www.google.com/maps/place/32.88041883+-96.07999174","soldArr":[{"ADDRESS":"9694 Mulberry Ln","CITY":"Quinlan","STATE":"TX","ZIP":"75474","SOLD PRICE":19900,"LOT AREA":13068,"LOT ACREAGE":0.3,"PRICE PER ACRE":66333,"LATITUDE":"32.87455","LONGITUDE":"-96.082212","URL":"http://www.redfin.com/TX/Quinlan/9694-Mulberry-Ln-75474/home/33815636","distance":0.43},{"ADDRESS":"Amy Dr","CITY":"Hawk Cove","STATE":"TX","ZIP":"75474","SOLD PRICE":15900,"LOT AREA":12632,"LOT ACREAGE":0.29,"PRICE PER ACRE":54829,"LATITUDE":"32.882348","LONGITUDE":"-96.079231","URL":"http://www.redfin.com/TX/Hawk-Cove/Amy-Dr-75474/home/33873687","distance":0.14},{"ADDRESS":"Kay St","CITY":"Hawk Cove","STATE":"TX","ZIP":"75474","SOLD PRICE":15000,"LOT AREA":12197,"LOT ACREAGE":0.28,"PRICE PER ACRE":53571,"LATITUDE":"32.886809","LONGITUDE":"-96.084464","URL":"http://www.redfin.com/TX/Hawk-Cove/Kay-75474/home/33874018","distance":0.51},{"ADDRESS":"9493 Private Road 3826","CITY":"Quinlan","STATE":"TX","ZIP":"75474","SOLD PRICE":35000,"LOT AREA":29621,"LOT ACREAGE":0.68,"PRICE PER ACRE":51470,"LATITUDE":"32.880686","LONGITUDE":"-96.085282","URL":"http://www.redfin.com/TX/Quinlan/9493-Private-Rd-3826-75474/home/33715018","distance":0.31},{"ADDRESS":"2575 Fox Point Cir","CITY":"Quinlan","STATE":"TX","ZIP":"75474","SOLD PRICE":32750,"LOT AREA":35153,"LOT ACREAGE":0.81,"PRICE PER ACRE":40582,"LATITUDE":"32.8781485","LONGITUDE":"-96.0639395","URL":"http://www.redfin.com/TX/Quinlan/2575-Fox-Point-Cir-75474/home/40227671","distance":0.94}],"estimatedValue":37143},{"SITUS STREET ADDRESS":"1165 Cedar Oaks Trl","SITUS CITY":"Greenville","SITUS STATE":"TX","SITUS ZIP CODE":"75402","COUNTY":"Hunt","LOT AREA":90605,"LOT ACREAGE":2.08,"LEGAL DESCRIPTION":"S2437 Cedar Oaks Phase Ii Lot 8 Acres 2.08","LEGAL LOT":"8","SUBDIVISION":"Cedar Oaks Phase 2","MUNICIPALITY/TOWNSHIP":"","LATITUDE":"33.01270001","LONGITUDE":"-96.00828976","APN - FORMATTED":"205038","IN FLOOD ZONE":"X","OWNER MAILING NAME":"Michael Waldrop","MAILING STREET ADDRESS":"1161 Cedar Oaks Trl","MAIL CITY":"Greenville","MAIL STATE":"TX","MAIL ZIPZIP4":"75402-2538","MARKET TOTAL VALUE":20800,"MARKET IMPROVEMENT VALUE":0,"date":"04/29/2020","id":31,"pricePerAcre":35177,"avgPPA":35800.333333333336,"avgPPA2":35177,"avgPPA3":34449,"estValue":74465,"estValue2":73168,"estValue3":71654,"offer":36500,"offer1":37200,"offer2":36500,"offer3":35800,"offerPPA":0,"jasonOffer":0,"jasonEstValue":0,"statusColor":"green","marketValueFlag":false,"propertyLink":"https://www.google.com/maps/place/33.01270001+-96.00828976","soldArr":[{"ADDRESS":"3179 County Road 3406","CITY":"Lone Oak","STATE":"TX","ZIP":"75453","SOLD PRICE":99900,"LOT AREA":88427,"LOT ACREAGE":2.03,"PRICE PER ACRE":49212,"LATITUDE":"32.9725301","LONGITUDE":"-96.0041021","URL":"http://www.redfin.com/TX/Lone-Oak/3179-County-Road-3406-75453/home/160520954","distance":2.79},{"ADDRESS":"4488 County Road 3132 Rd","CITY":"Lone Oak","STATE":"TX","ZIP":"75453","SOLD PRICE":85000,"LOT AREA":90997,"LOT ACREAGE":2.09,"PRICE PER ACRE":40689,"LATITUDE":"33.0225174","LONGITUDE":"-95.97564","URL":"http://www.redfin.com/TX/Lone-Oak/4488-County-Road-3132-75453/home/166825580","distance":2.01},{"ADDRESS":"CR 3403","CITY":"Lone Oak","STATE":"TX","ZIP":"75453","SOLD PRICE":35000,"LOT AREA":87120,"LOT ACREAGE":2,"PRICE PER ACRE":17500,"LATITUDE":"33.008433","LONGITUDE":"-95.97041","URL":"http://www.redfin.com/TX/Lone-Oak/Unknown-75453/home/144451107","distance":2.21},{"ADDRESS":"Hwy 69","CITY":"Lone Oak","STATE":"TX","ZIP":"75453","SOLD PRICE":42000,"LOT AREA":87120,"LOT ACREAGE":2,"PRICE PER ACRE":21000,"LATITUDE":"33.0014","LONGITUDE":"-95.942021","URL":"http://www.redfin.com/TX/Lone-Oak/Unknown-Unknown/home/170464451","distance":3.92},{"ADDRESS":"Open Water Pt","CITY":"Quinlan","STATE":"TX","ZIP":"75474","SOLD PRICE":89000,"LOT AREA":88427,"LOT ACREAGE":2.03,"PRICE PER ACRE":43842,"LATITUDE":"32.941922","LONGITUDE":"-96.015517","URL":"http://www.redfin.com/TX/Quinlan/Unknown-75474/home/143500781","distance":4.91}],"estimatedValue":73168},{"SITUS STREET ADDRESS":"3943 High Land Dr","SITUS CITY":"Lone Oak","SITUS STATE":"TX","SITUS ZIP CODE":"75453","COUNTY":"Hunt","LOT AREA":19693,"LOT ACREAGE":0.452,"LEGAL DESCRIPTION":"S4757 Rolling Hills Sect I Blk B Lot 33-35","LEGAL LOT":"33|35","SUBDIVISION":"Rolling Hills Sec 1","MUNICIPALITY/TOWNSHIP":"","LATITUDE":"32.94014661","LONGITUDE":"-95.97864613","APN - FORMATTED":"77125","IN FLOOD ZONE":"X","OWNER MAILING NAME":"Samuel Hobbs","MAILING STREET ADDRESS":"119 B St W","MAIL CITY":"Sula","MAIL STATE":"MT","MAIL ZIPZIP4":"59871-3018","MARKET TOTAL VALUE":7480,"MARKET IMPROVEMENT VALUE":0,"date":"04/29/2020","id":32,"pricePerAcre":31699,"avgPPA":44306,"avgPPA2":31700,"avgPPA3":38461,"estValue":20026,"estValue2":14328,"estValue3":17384,"offer":7100,"offer1":10000,"offer2":7100,"offer3":8600,"offerPPA":0,"jasonOffer":0,"jasonEstValue":0,"statusColor":"green","marketValueFlag":false,"propertyLink":"https://www.google.com/maps/place/32.94014661+-95.97864613","soldArr":[{"ADDRESS":"0 Clearview Dr","CITY":"Lone Oak","STATE":"TX","ZIP":"75453","SOLD PRICE":20000,"LOT AREA":12066,"LOT ACREAGE":0.28,"PRICE PER ACRE":72203,"LATITUDE":"32.938361","LONGITUDE":"-95.981427","URL":"http://www.redfin.com/TX/Unknown/Clearview-75453/home/33858926","distance":0.2},{"ADDRESS":"0 Hillside Dr","CITY":"Lone Oak","STATE":"TX","ZIP":"75453","SOLD PRICE":10000,"LOT AREA":12197,"LOT ACREAGE":0.28,"PRICE PER ACRE":35714,"LATITUDE":"32.944025","LONGITUDE":"-95.980439","URL":"http://www.redfin.com/TX/Unknown/Hillside-75453/home/33858644","distance":0.29},{"ADDRESS":"Scenic Dr","CITY":"Lone Oak","STATE":"TX","ZIP":"75453","SOLD PRICE":6000,"LOT AREA":9583,"LOT ACREAGE":0.22,"PRICE PER ACRE":27273,"LATITUDE":"32.91506","LONGITUDE":"-95.968768","URL":"http://www.redfin.com/TX/Unknown/Scenic-Dr-75453/home/33821376","distance":1.83},{"ADDRESS":"4275 Geronimo","CITY":"Lone Oak","STATE":"TX","ZIP":"75453","SOLD PRICE":5500,"LOT AREA":9583,"LOT ACREAGE":0.22,"PRICE PER ACRE":25001,"LATITUDE":"32.9255319","LONGITUDE":"-95.968872","URL":"http://www.redfin.com/TX/Lone-Oak/4275-Geronimo-75453/home/33825503","distance":1.16},{"ADDRESS":"109 Vista Cir","CITY":"West Tawakoni","STATE":"TX","ZIP":"75474","SOLD PRICE":7900,"LOT AREA":10716,"LOT ACREAGE":0.25,"PRICE PER ACRE":32113,"LATITUDE":"32.906461","LONGITUDE":"-96.031377","URL":"http://www.redfin.com/TX/West-Tawakoni/109-Vista-Cir-75474/home/33790463","distance":3.84}],"estimatedValue":14328},{"SITUS STREET ADDRESS":"2018 Stevens St","SITUS CITY":"Greenville","SITUS STATE":"TX","SITUS ZIP CODE":"75401","COUNTY":"Hunt","LOT AREA":38289,"LOT ACREAGE":0.879,"LEGAL DESCRIPTION":"S4385 Orig Town Of Greenville Blk 407 Lot 3 Acres .879","LEGAL LOT":"3","SUBDIVISION":"Orig Town Of Greenville","MUNICIPALITY/TOWNSHIP":"City Of Greenville","LATITUDE":"33.14431497","LONGITUDE":"-96.10348389","APN - FORMATTED":"72748","IN FLOOD ZONE":"X","OWNER MAILING NAME":"Dylan Pham","MAILING STREET ADDRESS":"1199 Chula Vista Ave","MAIL CITY":"Burlingame","MAIL STATE":"CA","MAIL ZIPZIP4":"94010-3501","MARKET TOTAL VALUE":16470,"MARKET IMPROVEMENT VALUE":0,"date":"04/29/2020","id":33,"pricePerAcre":34995,"avgPPA":40712,"avgPPA2":34996,"avgPPA3":38607,"estValue":35786,"estValue2":30761,"estValue3":33936,"offer":15300,"offer1":17800,"offer2":15300,"offer3":16900,"offerPPA":0,"jasonOffer":0,"jasonEstValue":0,"statusColor":"green","marketValueFlag":false,"propertyLink":"https://www.google.com/maps/place/33.14431497+-96.10348389","soldArr":[{"ADDRESS":"0 Marshall St","CITY":"Greenville","STATE":"TX","ZIP":"75401","SOLD PRICE":14990,"LOT AREA":21736,"LOT ACREAGE":0.5,"PRICE PER ACRE":30041,"LATITUDE":"33.134209","LONGITUDE":"-96.117604","URL":"http://www.redfin.com/TX/GREENVILLE/MARSHALL-ST-75401/home/33821174","distance":1.07},{"ADDRESS":"0 Mitchell St","CITY":"Greenville","STATE":"TX","ZIP":"75401","SOLD PRICE":50000,"LOT AREA":37549,"LOT ACREAGE":0.86,"PRICE PER ACRE":58004,"LATITUDE":"33.109605","LONGITUDE":"-96.117785","URL":"http://www.redfin.com/TX/GREENVILLE/MITCHELL-ST-75401/home/33832965","distance":2.54},{"ADDRESS":"Heritage Pl","CITY":"Greenville","STATE":"TX","ZIP":"75402","SOLD PRICE":15000,"LOT AREA":17642,"LOT ACREAGE":0.41,"PRICE PER ACRE":37037,"LATITUDE":"33.108547","LONGITUDE":"-96.080775","URL":"http://www.redfin.com/TX/Greenville/Heritage-Ln-75402/home/33815745","distance":2.8},{"ADDRESS":"639 Forrester St","CITY":"Greenville","STATE":"TX","ZIP":"75401","SOLD PRICE":36000,"LOT AREA":45999,"LOT ACREAGE":1.06,"PRICE PER ACRE":34091,"LATITUDE":"33.1390799","LONGITUDE":"-96.0666577","URL":"http://www.redfin.com/TX/Greenville/639-Forester-St-75401/home/33780414","distance":2.16},{"ADDRESS":"Heritage Pl","CITY":"Greenville","STATE":"TX","ZIP":"75402","SOLD PRICE":15000,"LOT AREA":19297,"LOT ACREAGE":0.44,"PRICE PER ACRE":33860,"LATITUDE":"33.108743","LONGITUDE":"-96.080501","URL":"http://www.redfin.com/TX/Greenville/Heritage-Ln-75402/home/33815747","distance":2.79}],"estimatedValue":30761},{"SITUS STREET ADDRESS":"2819 Edgar St","SITUS CITY":"Greenville","SITUS STATE":"TX","SITUS ZIP CODE":"75401","COUNTY":"Hunt","LOT AREA":2701,"LOT ACREAGE":0.62,"LEGAL DESCRIPTION":"S4385 Orig Town Of Greenville Blk 237A Lot 14A","LEGAL LOT":"14A","SUBDIVISION":"Orig Town Of Greenville","MUNICIPALITY/TOWNSHIP":"City Of Greenville","LATITUDE":"33.13740674","LONGITUDE":"-96.11471851","APN - FORMATTED":"71958","IN FLOOD ZONE":"X","OWNER MAILING NAME":"Alberta Washington","MAILING STREET ADDRESS":"120 E Marguerita Dr","MAIL CITY":"Garland","MAIL STATE":"TX","MAIL ZIPZIP4":"75040-7924","MARKET TOTAL VALUE":2160,"MARKET IMPROVEMENT VALUE":0,"date":"04/29/2020","id":34,"pricePerAcre":93900,"avgPPA":91888.33333333333,"avgPPA2":93900,"avgPPA3":96718,"estValue":56971,"estValue2":58218,"estValue3":59965,"offer":29100,"offer1":28400,"offer2":29100,"offer3":29900,"offerPPA":0,"jasonOffer":0,"jasonEstValue":0,"statusColor":"green","marketValueFlag":false,"propertyLink":"https://www.google.com/maps/place/33.13740674+-96.11471851","soldArr":[{"ADDRESS":"4121 Stonewall St","CITY":"Greenville","STATE":"TX","ZIP":"75401","SOLD PRICE":23000,"LOT AREA":8451,"LOT ACREAGE":0.19,"PRICE PER ACRE":118552,"LATITUDE":"33.1273709","LONGITUDE":"-96.107148","URL":"http://www.redfin.com/TX/Greenville/4121-Stonewall-St-75401/home/33842837","distance":0.82},{"ADDRESS":"0 Stonewall St","CITY":"Greenville","STATE":"TX","ZIP":"75401","SOLD PRICE":35000,"LOT AREA":15682,"LOT ACREAGE":0.36,"PRICE PER ACRE":97220,"LATITUDE":"33.145683","LONGITUDE":"-96.107387","URL":"http://www.redfin.com/TX/GREENVILLE/STONEWALL-ST-75401/home/33845594","distance":0.71},{"ADDRESS":"4401 Washington St","CITY":"Greenville","STATE":"TX","ZIP":"75401","SOLD PRICE":35000,"LOT AREA":16030,"LOT ACREAGE":0.37,"PRICE PER ACRE":95109,"LATITUDE":"33.1389202","LONGITUDE":"-96.126528","URL":"http://www.redfin.com/TX/Greenville/4401-Washington-St-75401/home/33798022","distance":0.69},{"ADDRESS":"1206 Speedway St","CITY":"Greenville","STATE":"TX","ZIP":"75401","SOLD PRICE":18500,"LOT AREA":9017,"LOT ACREAGE":0.21,"PRICE PER ACRE":89371,"LATITUDE":"33.148953","LONGITUDE":"-96.121484","URL":"http://www.redfin.com/TX/Greenville/1206-Speedway-St-75401/home/33862394","distance":0.89},{"ADDRESS":"4227 Washington","CITY":"Greenville","STATE":"TX","ZIP":"75401","SOLD PRICE":18500,"LOT AREA":9670,"LOT ACREAGE":0.22,"PRICE PER ACRE":83336,"LATITUDE":"33.138753","LONGITUDE":"-96.124685","URL":"http://www.redfin.com/TX/Greenville/4227-Washington-St-75401/home/33872308","distance":0.58}],"estimatedValue":58218},{"SITUS STREET ADDRESS":"2717 Wright St","SITUS CITY":"Greenville","SITUS STATE":"TX","SITUS ZIP CODE":"75401","COUNTY":"Hunt","LOT AREA":2252,"LOT ACREAGE":0.52,"LEGAL DESCRIPTION":"S4385 Orig Town Of Greenville Blk 204 Lot 7C","LEGAL LOT":"7C","SUBDIVISION":"Orig Town Of Greenville","MUNICIPALITY/TOWNSHIP":"City Of Greenville","LATITUDE":"33.13777872","LONGITUDE":"-96.11228191","APN - FORMATTED":"71747","IN FLOOD ZONE":"X","OWNER MAILING NAME":"Claude Lewis","MAILING STREET ADDRESS":"1204 Sabine St","MAIL CITY":"Greenville","MAIL STATE":"TX","MAIL ZIPZIP4":"75401-2751","MARKET TOTAL VALUE":1800,"MARKET IMPROVEMENT VALUE":0,"date":"04/29/2020","id":35,"pricePerAcre":93900,"avgPPA":99702.66666666667,"avgPPA2":93900,"avgPPA3":96718,"estValue":51845,"estValue2":48828,"estValue3":50293,"offer":24400,"offer1":25900,"offer2":24400,"offer3":25100,"offerPPA":0,"jasonOffer":0,"jasonEstValue":0,"statusColor":"green","marketValueFlag":false,"propertyLink":"https://www.google.com/maps/place/33.13777872+-96.11228191","soldArr":[{"ADDRESS":"4121 Stonewall St","CITY":"Greenville","STATE":"TX","ZIP":"75401","SOLD PRICE":23000,"LOT AREA":8451,"LOT ACREAGE":0.19,"PRICE PER ACRE":118552,"LATITUDE":"33.1273709","LONGITUDE":"-96.107148","URL":"http://www.redfin.com/TX/Greenville/4121-Stonewall-St-75401/home/33842837","distance":0.78},{"ADDRESS":"0 Stonewall St","CITY":"Greenville","STATE":"TX","ZIP":"75401","SOLD PRICE":35000,"LOT AREA":15682,"LOT ACREAGE":0.36,"PRICE PER ACRE":97220,"LATITUDE":"33.145683","LONGITUDE":"-96.107387","URL":"http://www.redfin.com/TX/GREENVILLE/STONEWALL-ST-75401/home/33845594","distance":0.62},{"ADDRESS":"4401 Washington St","CITY":"Greenville","STATE":"TX","ZIP":"75401","SOLD PRICE":35000,"LOT AREA":16030,"LOT ACREAGE":0.37,"PRICE PER ACRE":95109,"LATITUDE":"33.1389202","LONGITUDE":"-96.126528","URL":"http://www.redfin.com/TX/Greenville/4401-Washington-St-75401/home/33798022","distance":0.83},{"ADDRESS":"1206 Speedway St","CITY":"Greenville","STATE":"TX","ZIP":"75401","SOLD PRICE":18500,"LOT AREA":9017,"LOT ACREAGE":0.21,"PRICE PER ACRE":89371,"LATITUDE":"33.148953","LONGITUDE":"-96.121484","URL":"http://www.redfin.com/TX/Greenville/1206-Speedway-St-75401/home/33862394","distance":0.94},{"ADDRESS":"4227 Washington","CITY":"Greenville","STATE":"TX","ZIP":"75401","SOLD PRICE":18500,"LOT AREA":9670,"LOT ACREAGE":0.22,"PRICE PER ACRE":83336,"LATITUDE":"33.138753","LONGITUDE":"-96.124685","URL":"http://www.redfin.com/TX/Greenville/4227-Washington-St-75401/home/33872308","distance":0.72}],"estimatedValue":48828},{"SITUS STREET ADDRESS":"2012 Henry St","SITUS CITY":"Greenville","SITUS STATE":"TX","SITUS ZIP CODE":"75401","COUNTY":"Hunt","LOT AREA":4121,"LOT ACREAGE":0.95,"LEGAL DESCRIPTION":"S4385 Orig Town Of Greenville Blk 404 Lot 18","LEGAL LOT":"18","SUBDIVISION":"Orig Town Of Greenville","MUNICIPALITY/TOWNSHIP":"City Of Greenville","LATITUDE":"33.14187631","LONGITUDE":"-96.10272272","APN - FORMATTED":"72713","IN FLOOD ZONE":"X","OWNER MAILING NAME":"Frances Williams","MAILING STREET ADDRESS":"12044 Galva Dr Mr","MAIL CITY":"Dallas","MAIL STATE":"TX","MAIL ZIPZIP4":"75243-3702","MARKET TOTAL VALUE":3300,"MARKET IMPROVEMENT VALUE":0,"date":"04/29/2020","id":36,"pricePerAcre":31181,"avgPPA":40712,"avgPPA2":31181.333333333332,"avgPPA3":35310,"estValue":38676,"estValue2":29622,"estValue3":33545,"offer":14800,"offer1":19300,"offer2":14800,"offer3":16700,"offerPPA":0,"jasonOffer":0,"jasonEstValue":0,"statusColor":"green","marketValueFlag":false,"propertyLink":"https://www.google.com/maps/place/33.14187631+-96.10272272","soldArr":[{"ADDRESS":"0 Marshall St","CITY":"Greenville","STATE":"TX","ZIP":"75401","SOLD PRICE":14990,"LOT AREA":21736,"LOT ACREAGE":0.5,"PRICE PER ACRE":30041,"LATITUDE":"33.134209","LONGITUDE":"-96.117604","URL":"http://www.redfin.com/TX/GREENVILLE/MARSHALL-ST-75401/home/33821174","distance":1.01},{"ADDRESS":"0 Mitchell St","CITY":"Greenville","STATE":"TX","ZIP":"75401","SOLD PRICE":50000,"LOT AREA":37549,"LOT ACREAGE":0.86,"PRICE PER ACRE":58004,"LATITUDE":"33.109605","LONGITUDE":"-96.117785","URL":"http://www.redfin.com/TX/GREENVILLE/MITCHELL-ST-75401/home/33832965","distance":2.39},{"ADDRESS":"639 Forrester St","CITY":"Greenville","STATE":"TX","ZIP":"75401","SOLD PRICE":36000,"LOT AREA":45999,"LOT ACREAGE":1.06,"PRICE PER ACRE":34091,"LATITUDE":"33.1390799","LONGITUDE":"-96.0666577","URL":"http://www.redfin.com/TX/Greenville/639-Forester-St-75401/home/33780414","distance":2.1},{"ADDRESS":"1 County Rd 3324","CITY":"Greenville","STATE":"TX","ZIP":"75401","SOLD PRICE":35000,"LOT AREA":51836,"LOT ACREAGE":1.19,"PRICE PER ACRE":29412,"LATITUDE":"33.0299","LONGITUDE":"-96.106821","URL":"http://www.redfin.com/TX/Greenville/1-County-Rd-3324-75401/home/147521144","distance":7.74},{"ADDRESS":"Hwy 69 N","CITY":"Greenville","STATE":"TX","ZIP":"75401","SOLD PRICE":25000,"LOT AREA":43560,"LOT ACREAGE":1,"PRICE PER ACRE":25000,"LATITUDE":"33.0421455","LONGITUDE":"-96.0138141","URL":"http://www.redfin.com/TX/Greenville/4747-Hwy-69-S-75402/home/143499511","distance":8.6}],"estimatedValue":29622},{"SITUS STREET ADDRESS":"1714 Sayle St","SITUS CITY":"Greenville","SITUS STATE":"TX","SITUS ZIP CODE":"75401","COUNTY":"Hunt","LOT AREA":20608,"LOT ACREAGE":0.473,"LEGAL DESCRIPTION":"S4915 Sayle Dr Addition Blk 14 Lot 2-3 & Pt Of 5 Bsd","LEGAL LOT":"2|3","SUBDIVISION":"Sayle Dr Addition","MUNICIPALITY/TOWNSHIP":"City Of Greenville","LATITUDE":"33.14531554","LONGITUDE":"-96.11590537","APN - FORMATTED":"78089","IN FLOOD ZONE":"X","OWNER MAILING NAME":"Henry Nash","MAILING STREET ADDRESS":"1216 Interstate Highway 30 #250","MAIL CITY":"Greenville","MAIL STATE":"TX","MAIL ZIPZIP4":"75402-4310","MARKET TOTAL VALUE":12370,"MARKET IMPROVEMENT VALUE":0,"date":"04/29/2020","id":37,"pricePerAcre":72533,"avgPPA":83157.33333333333,"avgPPA2":72533.66666666667,"avgPPA3":68972,"estValue":39333,"estValue2":34308,"estValue3":32624,"offer":17100,"offer1":19600,"offer2":17100,"offer3":16300,"offerPPA":0,"jasonOffer":0,"jasonEstValue":0,"statusColor":"green","marketValueFlag":false,"propertyLink":"https://www.google.com/maps/place/33.14531554+-96.11590537","soldArr":[{"ADDRESS":"0 Stonewall St","CITY":"Greenville","STATE":"TX","ZIP":"75401","SOLD PRICE":35000,"LOT AREA":15682,"LOT ACREAGE":0.36,"PRICE PER ACRE":97220,"LATITUDE":"33.145683","LONGITUDE":"-96.107387","URL":"http://www.redfin.com/TX/GREENVILLE/STONEWALL-ST-75401/home/33845594","distance":0.49},{"ADDRESS":"4401 Washington St","CITY":"Greenville","STATE":"TX","ZIP":"75401","SOLD PRICE":35000,"LOT AREA":16030,"LOT ACREAGE":0.37,"PRICE PER ACRE":95109,"LATITUDE":"33.1389202","LONGITUDE":"-96.126528","URL":"http://www.redfin.com/TX/Greenville/4401-Washington-St-75401/home/33798022","distance":0.76},{"ADDRESS":"1205 Sayle St","CITY":"Greenville","STATE":"TX","ZIP":"75401","SOLD PRICE":20000,"LOT AREA":15246,"LOT ACREAGE":0.35,"PRICE PER ACRE":57143,"LATITUDE":"33.14944","LONGITUDE":"-96.115058","URL":"http://www.redfin.com/TX/Greenville/1205-Sayle-St-75401/home/33849239","distance":0.29},{"ADDRESS":"0 Marshall St","CITY":"Greenville","STATE":"TX","ZIP":"75401","SOLD PRICE":14990,"LOT AREA":21736,"LOT ACREAGE":0.5,"PRICE PER ACRE":30041,"LATITUDE":"33.134209","LONGITUDE":"-96.117604","URL":"http://www.redfin.com/TX/GREENVILLE/MARSHALL-ST-75401/home/33821174","distance":0.77},{"ADDRESS":"1813 Oneal St","CITY":"Greenville","STATE":"TX","ZIP":"75401","SOLD PRICE":14900,"LOT AREA":9932,"LOT ACREAGE":0.23,"PRICE PER ACRE":65349,"LATITUDE":"33.1316215","LONGITUDE":"-96.1015604","URL":"http://www.redfin.com/TX/Greenville/1813-Oneal-St-75401/home/33842536","distance":1.26}],"estimatedValue":34308},{"SITUS STREET ADDRESS":"1410 Morse St","SITUS CITY":"Greenville","SITUS STATE":"TX","SITUS ZIP CODE":"75401","COUNTY":"Hunt","LOT AREA":20299,"LOT ACREAGE":0.466,"LEGAL DESCRIPTION":"S4385 Orig Town Of Greenville Blk 174 Lot 4","LEGAL LOT":"4","SUBDIVISION":"Orig Town Of Greenville","MUNICIPALITY/TOWNSHIP":"City Of Greenville","LATITUDE":"33.13489978","LONGITUDE":"-96.09692243","APN - FORMATTED":"71496","IN FLOOD ZONE":"X","OWNER MAILING NAME":"Joseph Lawson","MAILING STREET ADDRESS":"1217 Hemphill St","MAIL CITY":"Greenville","MAIL STATE":"TX","MAIL ZIPZIP4":"75401-4804","MARKET TOTAL VALUE":12380,"MARKET IMPROVEMENT VALUE":0,"date":"04/29/2020","id":38,"pricePerAcre":81264,"avgPPA":73237.33333333333,"avgPPA2":81264.66666666667,"avgPPA3":79631,"estValue":34129,"estValue2":37869,"estValue3":37108,"offer":18900,"offer1":17000,"offer2":18900,"offer3":18500,"offerPPA":0,"jasonOffer":0,"jasonEstValue":0,"statusColor":"green","marketValueFlag":false,"propertyLink":"https://www.google.com/maps/place/33.13489978+-96.09692243","soldArr":[{"ADDRESS":"0 Stonewall St","CITY":"Greenville","STATE":"TX","ZIP":"75401","SOLD PRICE":35000,"LOT AREA":15682,"LOT ACREAGE":0.36,"PRICE PER ACRE":97220,"LATITUDE":"33.145683","LONGITUDE":"-96.107387","URL":"http://www.redfin.com/TX/GREENVILLE/STONEWALL-ST-75401/home/33845594","distance":0.96},{"ADDRESS":"1813 Oneal St","CITY":"Greenville","STATE":"TX","ZIP":"75401","SOLD PRICE":14900,"LOT AREA":9932,"LOT ACREAGE":0.23,"PRICE PER ACRE":65349,"LATITUDE":"33.1316215","LONGITUDE":"-96.1015604","URL":"http://www.redfin.com/TX/Greenville/1813-Oneal-St-75401/home/33842536","distance":0.35},{"ADDRESS":"4401 Washington St","CITY":"Greenville","STATE":"TX","ZIP":"75401","SOLD PRICE":35000,"LOT AREA":16030,"LOT ACREAGE":0.37,"PRICE PER ACRE":95109,"LATITUDE":"33.1389202","LONGITUDE":"-96.126528","URL":"http://www.redfin.com/TX/Greenville/4401-Washington-St-75401/home/33798022","distance":1.74},{"ADDRESS":"4227 Washington","CITY":"Greenville","STATE":"TX","ZIP":"75401","SOLD PRICE":18500,"LOT AREA":9670,"LOT ACREAGE":0.22,"PRICE PER ACRE":83336,"LATITUDE":"33.138753","LONGITUDE":"-96.124685","URL":"http://www.redfin.com/TX/Greenville/4227-Washington-St-75401/home/33872308","distance":1.63},{"ADDRESS":"1205 Sayle St","CITY":"Greenville","STATE":"TX","ZIP":"75401","SOLD PRICE":20000,"LOT AREA":15246,"LOT ACREAGE":0.35,"PRICE PER ACRE":57143,"LATITUDE":"33.14944","LONGITUDE":"-96.115058","URL":"http://www.redfin.com/TX/Greenville/1205-Sayle-St-75401/home/33849239","distance":1.45}],"estimatedValue":37869},{"SITUS STREET ADDRESS":"141 Fm 2649","SITUS CITY":"Campbell","SITUS STATE":"TX","SITUS ZIP CODE":"75422","COUNTY":"Hunt","LOT AREA":87033,"LOT ACREAGE":1.998,"LEGAL DESCRIPTION":"A1246 Brown W A J Heirs Tract 4 Acres 1.998","LEGAL LOT":"4","SUBDIVISION":"Brown W A J Heirs","MUNICIPALITY/TOWNSHIP":"Unincorporated Area","LATITUDE":"33.12819145","LONGITUDE":"-95.88792716","APN - FORMATTED":"38549","IN FLOOD ZONE":"X","OWNER MAILING NAME":"Hendrexkelly & Lynn Hendrexkelly","MAILING STREET ADDRESS":"1220 Business 78","MAIL CITY":"Farmersville","MAIL STATE":"TX","MAIL ZIPZIP4":"75442-5506","MARKET TOTAL VALUE":17490,"MARKET IMPROVEMENT VALUE":0,"date":"04/29/2020","id":39,"pricePerAcre":25123,"avgPPA":19984.333333333332,"avgPPA2":25123,"avgPPA3":25817,"estValue":39929,"estValue2":50196,"estValue3":51582,"offer":25000,"offer1":19900,"offer2":25000,"offer3":25700,"offerPPA":0,"jasonOffer":0,"jasonEstValue":0,"statusColor":"green","marketValueFlag":false,"propertyLink":"https://www.google.com/maps/place/33.12819145+-95.88792716","soldArr":[{"ADDRESS":"2 County Rd 3111","CITY":"Campbell","STATE":"TX","ZIP":"75422","SOLD PRICE":28500,"LOT AREA":95309,"LOT ACREAGE":2.19,"PRICE PER ACRE":13026,"LATITUDE":"33.094295","LONGITUDE":"-95.966826","URL":"http://www.redfin.com/TX/Unknown/2-County-Road-3111-75422/home/148690505","distance":5.13},{"ADDRESS":"0 Hickory St","CITY":"Commerce","STATE":"TX","ZIP":"75428","SOLD PRICE":60000,"LOT AREA":96616,"LOT ACREAGE":2.22,"PRICE PER ACRE":27051,"LATITUDE":"33.240845","LONGITUDE":"-95.894906","URL":"http://www.redfin.com/TX/Commerce/Hickory-St-75428/home/33766549","distance":7.79},{"ADDRESS":"2795 Private Road 4127","CITY":"Greenville","STATE":"TX","ZIP":"75401","SOLD PRICE":32000,"LOT AREA":70132,"LOT ACREAGE":1.61,"PRICE PER ACRE":19876,"LATITUDE":"33.133667","LONGITUDE":"-96.016171","URL":"http://www.redfin.com/TX/Greenville/Unknown-Unknown/home/33829851","distance":7.43},{"ADDRESS":"4488 County Road 3132 Rd","CITY":"Lone Oak","STATE":"TX","ZIP":"75453","SOLD PRICE":85000,"LOT AREA":90997,"LOT ACREAGE":2.09,"PRICE PER ACRE":40689,"LATITUDE":"33.0225174","LONGITUDE":"-95.97564","URL":"http://www.redfin.com/TX/Lone-Oak/4488-County-Road-3132-75453/home/166825580","distance":8.89},{"ADDRESS":"0 Washington St","CITY":"Commerce","STATE":"TX","ZIP":"75428","SOLD PRICE":50000,"LOT AREA":76578,"LOT ACREAGE":1.76,"PRICE PER ACRE":28442,"LATITUDE":"33.2504477","LONGITUDE":"-95.9007977","URL":"http://www.redfin.com/TX/Commerce/1217-Washington-St-75428/home/146679455","distance":8.48}],"estimatedValue":50196},{"SITUS STREET ADDRESS":"1220 Cleveland St","SITUS CITY":"Greenville","SITUS STATE":"TX","SITUS ZIP CODE":"75401","COUNTY":"Hunt","LOT AREA":15899,"LOT ACREAGE":0.365,"LEGAL DESCRIPTION":"S4555 Pollard Addition Blk 9 Lot 6-7 Acres .365","LEGAL LOT":"6|7","SUBDIVISION":"Pollard Addition","MUNICIPALITY/TOWNSHIP":"City Of Greenville","LATITUDE":"33.12709502","LONGITUDE":"-96.09515116","APN - FORMATTED":"75799","IN FLOOD ZONE":"X","OWNER MAILING NAME":"Jeffrey & Angela Pettis","MAILING STREET ADDRESS":"1222 Cleveland St","MAIL CITY":"Greenville","MAIL STATE":"TX","MAIL ZIPZIP4":"75401-5830","MARKET TOTAL VALUE":8430,"MARKET IMPROVEMENT VALUE":0,"date":"04/29/2020","id":40,"pricePerAcre":91888,"avgPPA":93707,"avgPPA2":91888.33333333333,"avgPPA3":91913,"estValue":34203,"estValue2":33539,"estValue3":33548,"offer":16700,"offer1":17100,"offer2":16700,"offer3":16700,"offerPPA":0,"jasonOffer":0,"jasonEstValue":0,"statusColor":"green","marketValueFlag":false,"propertyLink":"https://www.google.com/maps/place/33.12709502+-96.09515116","soldArr":[{"ADDRESS":"4121 Stonewall St","CITY":"Greenville","STATE":"TX","ZIP":"75401","SOLD PRICE":23000,"LOT AREA":8451,"LOT ACREAGE":0.19,"PRICE PER ACRE":118552,"LATITUDE":"33.1273709","LONGITUDE":"-96.107148","URL":"http://www.redfin.com/TX/Greenville/4121-Stonewall-St-75401/home/33842837","distance":0.69},{"ADDRESS":"1813 Oneal St","CITY":"Greenville","STATE":"TX","ZIP":"75401","SOLD PRICE":14900,"LOT AREA":9932,"LOT ACREAGE":0.23,"PRICE PER ACRE":65349,"LATITUDE":"33.1316215","LONGITUDE":"-96.1015604","URL":"http://www.redfin.com/TX/Greenville/1813-Oneal-St-75401/home/33842536","distance":0.49},{"ADDRESS":"0 Stonewall St","CITY":"Greenville","STATE":"TX","ZIP":"75401","SOLD PRICE":35000,"LOT AREA":15682,"LOT ACREAGE":0.36,"PRICE PER ACRE":97220,"LATITUDE":"33.145683","LONGITUDE":"-96.107387","URL":"http://www.redfin.com/TX/GREENVILLE/STONEWALL-ST-75401/home/33845594","distance":1.47},{"ADDRESS":"4401 Washington St","CITY":"Greenville","STATE":"TX","ZIP":"75401","SOLD PRICE":35000,"LOT AREA":16030,"LOT ACREAGE":0.37,"PRICE PER ACRE":95109,"LATITUDE":"33.1389202","LONGITUDE":"-96.126528","URL":"http://www.redfin.com/TX/Greenville/4401-Washington-St-75401/home/33798022","distance":1.99},{"ADDRESS":"4227 Washington","CITY":"Greenville","STATE":"TX","ZIP":"75401","SOLD PRICE":18500,"LOT AREA":9670,"LOT ACREAGE":0.22,"PRICE PER ACRE":83336,"LATITUDE":"33.138753","LONGITUDE":"-96.124685","URL":"http://www.redfin.com/TX/Greenville/4227-Washington-St-75401/home/33872308","distance":1.89}],"estimatedValue":33539},