[{"SITUS FULL ADDRESS":"426 CR  RISING STAR, TX 76471","SITUS CITY":"RISING STAR","ALTERNATE APN":"A0241002501","COUNTY":"BROWN","LOT AREA":1024270,"LOT ACREAGE":23.51,"LATITUDE":"32.02482476","LONGITUDE":"-99.01901938","APN - UNFORMATTED":"18002","IN FLOOD ZONE":false,"OWNER MAILING NAME":"SYNTHA MURDOCH","MAILING STREET ADDRESS":"2200 FM 583 W","MAIL CITY":"RISING STAR","MAIL STATE":"TX","MAIL ZIPZIP4":"76471-8004","MARKET TOTAL VALUE":47030,"id":1,"avgPPA":6630,"avgPPA2":null,"avgPPA3":6630,"estValue":155871,"estValue2":null,"estValue3":155871,"offer":77900,"offer1":77900,"offer2":null,"offer3":77900,"offerPPA":0,"jasonOffer":0,"jasonEstValue":0,"statusColor":"red","marketValueFlag":false,"propertyLink":"https://www.google.com/search?q=426+CR+RISING+STAR,+TX+76471","soldArr":[{"ADDRESS":"21900 State Highway 279","CITY":"Cross Plains","STATE":"TX","ZIP":"76443","SOLD PRICE":"134000","LOT AREA":880348,"LOT ACREAGE":20.21,"PRICE PER ACRE":6630,"LATITUDE":"32.022816","LONGITUDE":"-99.128397","URL":"http://www.redfin.com/TX/Cross-Plains/21900-TX-279-76443/home/55041906","distance":6.41}],"estimatedValue":155871},{"SITUS FULL ADDRESS":"190 CR  BANGS, TX 76823","SITUS CITY":"BANGS","ALTERNATE APN":"A0177002700","COUNTY":"BROWN","LOT AREA":943945,"LOT ACREAGE":21.67,"LATITUDE":"31.65558263","LONGITUDE":"-99.08876837","APN - UNFORMATTED":"15719","IN FLOOD ZONE":false,"OWNER MAILING NAME":"PREASLEY COOPER","MAILING STREET ADDRESS":"PO BOX 62","MAIL CITY":"ROCHELLE","MAIL STATE":"TX","MAIL ZIPZIP4":"76872","MARKET TOTAL VALUE":49500,"id":2,"avgPPA":4765.333333333333,"avgPPA2":5648,"avgPPA3":4765,"estValue":103265,"estValue2":122392,"estValue3":103258,"offer":51600,"offer1":51600,"offer2":61100,"offer3":51600,"offerPPA":0,"jasonOffer":0,"jasonEstValue":0,"statusColor":"yellow","marketValueFlag":false,"propertyLink":"https://www.google.com/search?q=190+CR+BANGS,+TX+76823","soldArr":[{"ADDRESS":"County Road 163","CITY":"Bangs","STATE":"TX","ZIP":"76823","SOLD PRICE":"60000","LOT AREA":871200,"LOT ACREAGE":20,"PRICE PER ACRE":3000,"LATITUDE":"31.702619","LONGITUDE":"-99.168241","URL":"http://www.redfin.com/TX/Unknown/Unknown-76823/home/113728678","distance":5.69},{"ADDRESS":"20 County Road 178","CITY":"Bangs","STATE":"TX","ZIP":"76823","SOLD PRICE":"78000","LOT AREA":871200,"LOT ACREAGE":20,"PRICE PER ACRE":3900,"LATITUDE":"31.715006","LONGITUDE":"-99.163222","URL":"http://www.redfin.com/TX/Unknown/20-76823/home/143010044","distance":6},{"ADDRESS":"9999 17th & Avenue M","CITY":"Brownwood","STATE":"TX","ZIP":"76801","SOLD PRICE":"142000","LOT AREA":836352,"LOT ACREAGE":19.2,"PRICE PER ACRE":7396,"LATITUDE":"31.692111","LONGITUDE":"-98.988446","URL":"http://www.redfin.com/TX/Brownwood/9999-76801/home/128021935","distance":6.42}],"estimatedValue":103258},{"SITUS FULL ADDRESS":"8320 COUNTY ROAD 225  BROWNWOOD, TX 76801","SITUS CITY":"BROWNWOOD","ALTERNATE APN":"A0575001000","COUNTY":"BROWN","LOT AREA":928264,"LOT ACREAGE":21.31,"LATITUDE":"31.62100934","LONGITUDE":"-99.008357","APN - UNFORMATTED":"20001173","IN FLOOD ZONE":false,"OWNER MAILING NAME":"KENNETH & BARBARA GRAVLEY","MAILING STREET ADDRESS":"8320 COUNTY ROAD 225","MAIL CITY":"BROWNWOOD","MAIL STATE":"TX","MAIL ZIPZIP4":"76801","MARKET TOTAL VALUE":24230,"id":3,"avgPPA":7396,"avgPPA2":null,"avgPPA3":7396,"estValue":157609,"estValue2":null,"estValue3":157609,"offer":78800,"offer1":78800,"offer2":null,"offer3":78800,"offerPPA":0,"jasonOffer":0,"jasonEstValue":0,"statusColor":"red","marketValueFlag":false,"propertyLink":"https://www.google.com/search?q=8320+COUNTY+ROAD+225+BROWNWOOD,+TX+76801","soldArr":[{"ADDRESS":"9999 17th & Avenue M","CITY":"Brownwood","STATE":"TX","ZIP":"76801","SOLD PRICE":"142000","LOT AREA":836352,"LOT ACREAGE":19.2,"PRICE PER ACRE":7396,"LATITUDE":"31.692111","LONGITUDE":"-98.988446","URL":"http://www.redfin.com/TX/Brownwood/9999-76801/home/128021935","distance":5.05}],"estimatedValue":157609},{"SITUS FULL ADDRESS":"9092 COUNTY ROAD 189  BANGS, TX 76823","SITUS CITY":"BANGS","ALTERNATE APN":"A0263000100","COUNTY":"BROWN","LOT AREA":914760,"LOT ACREAGE":21,"LATITUDE":"31.61862868","LONGITUDE":"-99.14735274","APN - UNFORMATTED":"18486","IN FLOOD ZONE":false,"OWNER MAILING NAME":"DARRELL HAYNES","MAILING STREET ADDRESS":"309 N FISK AVE","MAIL CITY":"BROWNWOOD","MAIL STATE":"TX","MAIL ZIPZIP4":"76801-8211","MARKET TOTAL VALUE":42000,"id":4,"avgPPA":3366.6666666666665,"avgPPA2":3550,"avgPPA3":3367,"estValue":70700,"estValue2":74550,"estValue3":70707,"offer":35300,"offer1":35300,"offer2":37200,"offer3":35300,"offerPPA":0,"jasonOffer":0,"jasonEstValue":0,"statusColor":"yellow","marketValueFlag":false,"propertyLink":"https://www.google.com/search?q=9092+COUNTY+ROAD+189+BANGS,+TX+76823","soldArr":[{"ADDRESS":"County Road 163","CITY":"Bangs","STATE":"TX","ZIP":"76823","SOLD PRICE":"60000","LOT AREA":871200,"LOT ACREAGE":20,"PRICE PER ACRE":3000,"LATITUDE":"31.702619","LONGITUDE":"-99.168241","URL":"http://www.redfin.com/TX/Unknown/Unknown-76823/home/113728678","distance":5.93},{"ADDRESS":"20 County Road 178","CITY":"Bangs","STATE":"TX","ZIP":"76823","SOLD PRICE":"78000","LOT AREA":871200,"LOT ACREAGE":20,"PRICE PER ACRE":3900,"LATITUDE":"31.715006","LONGITUDE":"-99.163222","URL":"http://www.redfin.com/TX/Unknown/20-76823/home/143010044","distance":6.72},{"ADDRESS":"15805 County Road 211","CITY":"Brookesmith","STATE":"TX","ZIP":"76827","SOLD PRICE":"57952","LOT AREA":788872,"LOT ACREAGE":18.11,"PRICE PER ACRE":3200,"LATITUDE":"31.5123947","LONGITUDE":"-99.1304493","URL":"http://www.redfin.com/TX/Brookesmith/15805-County-Road-211-76827/home/146849254","distance":7.41}],"estimatedValue":70707},{"SITUS FULL ADDRESS":"168 CR  BANGS, TX 76823","SITUS CITY":"BANGS","ALTERNATE APN":"A1511000200","COUNTY":"BROWN","LOT AREA":897336,"LOT ACREAGE":20.6,"LATITUDE":"31.61632505","LONGITUDE":"-99.19225057","APN - UNFORMATTED":"36174","IN FLOOD ZONE":false,"OWNER MAILING NAME":"MICHAEL MCCLATCHY","MAILING STREET ADDRESS":"600 MORELOCK LN","MAIL CITY":"BROWNWOOD","MAIL STATE":"TX","MAIL ZIPZIP4":"76801","MARKET TOTAL VALUE":20600,"id":5,"avgPPA":3366.6666666666665,"avgPPA2":3550,"avgPPA3":3367,"estValue":69353,"estValue2":73130,"estValue3":69360,"offer":34600,"offer1":34600,"offer2":36500,"offer3":34600,"offerPPA":0,"jasonOffer":0,"jasonEstValue":0,"statusColor":"yellow","marketValueFlag":false,"propertyLink":"https://www.google.com/search?q=168+CR+BANGS,+TX+76823","soldArr":[{"ADDRESS":"County Road 163","CITY":"Bangs","STATE":"TX","ZIP":"76823","SOLD PRICE":"60000","LOT AREA":871200,"LOT ACREAGE":20,"PRICE PER ACRE":3000,"LATITUDE":"31.702619","LONGITUDE":"-99.168241","URL":"http://www.redfin.com/TX/Unknown/Unknown-76823/home/113728678","distance":6.13},{"ADDRESS":"20 County Road 178","CITY":"Bangs","STATE":"TX","ZIP":"76823","SOLD PRICE":"78000","LOT AREA":871200,"LOT ACREAGE":20,"PRICE PER ACRE":3900,"LATITUDE":"31.715006","LONGITUDE":"-99.163222","URL":"http://www.redfin.com/TX/Unknown/20-76823/home/143010044","distance":7.03},{"ADDRESS":"15805 County Road 211","CITY":"Brookesmith","STATE":"TX","ZIP":"76827","SOLD PRICE":"57952","LOT AREA":788872,"LOT ACREAGE":18.11,"PRICE PER ACRE":3200,"LATITUDE":"31.5123947","LONGITUDE":"-99.1304493","URL":"http://www.redfin.com/TX/Brookesmith/15805-County-Road-211-76827/home/146849254","distance":8.05}],"estimatedValue":69360},{"SITUS FULL ADDRESS":"168 CR  BANGS, TX 76823","SITUS CITY":"BANGS","ALTERNATE APN":"A1511000200","COUNTY":"BROWN","LOT AREA":897336,"LOT ACREAGE":20.6,"LATITUDE":"31.717068","LONGITUDE":"-99.184016","APN - UNFORMATTED":"20041851","IN FLOOD ZONE":false,"OWNER MAILING NAME":"JOHN MCCLATCHY","MAILING STREET ADDRESS":"2473 COUNTY ROAD 210","MAIL CITY":"SANTA ANNA","MAIL STATE":"TX","MAIL ZIPZIP4":"76878-6208","MARKET TOTAL VALUE":20600,"id":6,"avgPPA":4109.666666666667,"avgPPA2":5509.333333333333,"avgPPA3":4882,"estValue":84659,"estValue2":113492,"estValue3":100569,"offer":56700,"offer1":42300,"offer2":56700,"offer3":50200,"offerPPA":0,"jasonOffer":0,"jasonEstValue":0,"statusColor":"green","marketValueFlag":false,"propertyLink":"https://www.google.com/search?q=168+CR+BANGS,+TX+76823","soldArr":[{"ADDRESS":"20 County Road 178","CITY":"Bangs","STATE":"TX","ZIP":"76823","SOLD PRICE":"78000","LOT AREA":871200,"LOT ACREAGE":20,"PRICE PER ACRE":3900,"LATITUDE":"31.715006","LONGITUDE":"-99.163222","URL":"http://www.redfin.com/TX/Unknown/20-76823/home/143010044","distance":1.23},{"ADDRESS":"County Road 163","CITY":"Bangs","STATE":"TX","ZIP":"76823","SOLD PRICE":"60000","LOT AREA":871200,"LOT ACREAGE":20,"PRICE PER ACRE":3000,"LATITUDE":"31.702619","LONGITUDE":"-99.168241","URL":"http://www.redfin.com/TX/Unknown/Unknown-76823/home/113728678","distance":1.36},{"ADDRESS":"2425 Thomas Dr","CITY":"Brownwood","STATE":"TX","ZIP":"76801","SOLD PRICE":"100000","LOT AREA":605048,"LOT ACREAGE":13.89,"PRICE PER ACRE":7199,"LATITUDE":"31.687828","LONGITUDE":"-99.0604037","URL":"http://www.redfin.com/TX/Brownwood/2425-Thomas-Dr-76801/home/110279210","distance":7.54},{"ADDRESS":"201 Green River Dr","CITY":"Brownwood","STATE":"TX","ZIP":"76801","SOLD PRICE":"145000","LOT AREA":1163357,"LOT ACREAGE":26.71,"PRICE PER ACRE":5429,"LATITUDE":"31.812982","LONGITUDE":"-99.125164","URL":"http://www.redfin.com/TX/Brownwood/201-Green-River-Dr-76801/home/145926563","distance":7.47}],"estimatedValue":113492},{"SITUS FULL ADDRESS":"417 CR  MAY, TX 76857","SITUS CITY":"MAY","ALTERNATE APN":"A0244-0027-01","COUNTY":"BROWN","LOT AREA":895158,"LOT ACREAGE":20.55,"LATITUDE":"31.94501","LONGITUDE":"-98.9591","APN - UNFORMATTED":"20050805","IN FLOOD ZONE":false,"OWNER MAILING NAME":"TODD HAMILTON","MAILING STREET ADDRESS":"11301 COUNTY ROAD 417","MAIL CITY":"MAY","MAIL STATE":"TX","MAIL ZIPZIP4":"76857-3242","MARKET TOTAL VALUE":41100,"id":7,"avgPPA":null,"avgPPA2":null,"avgPPA3":0,"estValue":null,"estValue2":null,"estValue3":0,"offer":0,"offer1":null,"offer2":null,"offer3":0,"offerPPA":0,"jasonOffer":0,"jasonEstValue":0,"statusColor":"red","marketValueFlag":false,"propertyLink":"https://www.google.com/search?q=417+CR+MAY,+TX+76857","soldArr":[],"estimatedValue":0},{"SITUS FULL ADDRESS":"533 CR  BROOKESMITH, TX 76827","SITUS CITY":"BROOKESMITH","ALTERNATE APN":"A1745000201","COUNTY":"BROWN","LOT AREA":882700,"LOT ACREAGE":20.26,"LATITUDE":"31.49147807","LONGITUDE":"-99.12346397","APN - UNFORMATTED":"20019294","IN FLOOD ZONE":false,"OWNER MAILING NAME":"CAROL MCWILLIAMS & KEVIN JENNINGS","MAILING STREET ADDRESS":"901 EAGLES NEST DR","MAIL CITY":"BYRAM","MAIL STATE":"MS","MAIL ZIPZIP4":"39272-5543","MARKET TOTAL VALUE":47290,"id":8,"avgPPA":3200,"avgPPA2":null,"avgPPA3":3200,"estValue":64832,"estValue2":null,"estValue3":64832,"offer":32400,"offer1":32400,"offer2":null,"offer3":32400,"offerPPA":0,"jasonOffer":0,"jasonEstValue":0,"statusColor":"red","marketValueFlag":false,"propertyLink":"https://www.google.com/search?q=533+CR+BROOKESMITH,+TX+76827","soldArr":[{"ADDRESS":"15805 County Road 211","CITY":"Brookesmith","STATE":"TX","ZIP":"76827","SOLD PRICE":"57952","LOT AREA":788872,"LOT ACREAGE":18.11,"PRICE PER ACRE":3200,"LATITUDE":"31.5123947","LONGITUDE":"-99.1304493","URL":"http://www.redfin.com/TX/Brookesmith/15805-County-Road-211-76827/home/146849254","distance":1.5}],"estimatedValue":64832},{"SITUS FULL ADDRESS":"165 CR  BANGS, TX 76823","SITUS CITY":"BANGS","ALTERNATE APN":"A1486000102","COUNTY":"BROWN","LOT AREA":881219,"LOT ACREAGE":20.23,"LATITUDE":"31.65531529","LONGITUDE":"-99.20232739","APN - UNFORMATTED":"59327","IN FLOOD ZONE":false,"OWNER MAILING NAME":"NOVELLA GEER","MAILING STREET ADDRESS":"PO BOX 195","MAIL CITY":"BENJAMIN","MAIL STATE":"TX","MAIL ZIPZIP4":"79505","MARKET TOTAL VALUE":47320,"id":9,"avgPPA":4699.666666666667,"avgPPA2":5549.5,"avgPPA3":4700,"estValue":95074,"estValue2":112266,"estValue3":95081,"offer":47500,"offer1":47500,"offer2":56100,"offer3":47500,"offerPPA":0,"jasonOffer":0,"jasonEstValue":0,"statusColor":"yellow","marketValueFlag":false,"propertyLink":"https://www.google.com/search?q=165+CR+BANGS,+TX+76823","soldArr":[{"ADDRESS":"County Road 163","CITY":"Bangs","STATE":"TX","ZIP":"76823","SOLD PRICE":"60000","LOT AREA":871200,"LOT ACREAGE":20,"PRICE PER ACRE":3000,"LATITUDE":"31.702619","LONGITUDE":"-99.168241","URL":"http://www.redfin.com/TX/Unknown/Unknown-76823/home/113728678","distance":3.83},{"ADDRESS":"20 County Road 178","CITY":"Bangs","STATE":"TX","ZIP":"76823","SOLD PRICE":"78000","LOT AREA":871200,"LOT ACREAGE":20,"PRICE PER ACRE":3900,"LATITUDE":"31.715006","LONGITUDE":"-99.163222","URL":"http://www.redfin.com/TX/Unknown/20-76823/home/143010044","distance":4.72},{"ADDRESS":"2425 Thomas Dr","CITY":"Brownwood","STATE":"TX","ZIP":"76801","SOLD PRICE":"100000","LOT AREA":605048,"LOT ACREAGE":13.89,"PRICE PER ACRE":7199,"LATITUDE":"31.687828","LONGITUDE":"-99.0604037","URL":"http://www.redfin.com/TX/Brownwood/2425-Thomas-Dr-76801/home/110279210","distance":8.64}],"estimatedValue":95081},{"SITUS FULL ADDRESS":"192 CR  BANGS, TX 76823","SITUS CITY":"BANGS","ALTERNATE APN":"A0177000100","COUNTY":"BROWN","LOT AREA":871200,"LOT ACREAGE":20,"LATITUDE":"31.66656069","LONGITUDE":"-99.10928209","APN - UNFORMATTED":"15594","IN FLOOD ZONE":false,"OWNER MAILING NAME":"JAMES & JANIS CONNALLY","MAILING STREET ADDRESS":"5005 COUNTY ROAD 192","MAIL CITY":"BANGS","MAIL STATE":"TX","MAIL ZIPZIP4":"76823-4612","MARKET TOTAL VALUE":44130,"id":10,"avgPPA":4699.666666666667,"avgPPA2":6165,"avgPPA3":5374,"estValue":93993,"estValue2":123300,"estValue3":107480,"offer":61600,"offer1":46900,"offer2":61600,"offer3":53700,"offerPPA":0,"jasonOffer":0,"jasonEstValue":0,"statusColor":"green","marketValueFlag":false,"propertyLink":"https://www.google.com/search?q=192+CR+BANGS,+TX+76823","soldArr":[{"ADDRESS":"2425 Thomas Dr","CITY":"Brownwood","STATE":"TX","ZIP":"76801","SOLD PRICE":"100000","LOT AREA":605048,"LOT ACREAGE":13.89,"PRICE PER ACRE":7199,"LATITUDE":"31.687828","LONGITUDE":"-99.0604037","URL":"http://www.redfin.com/TX/Brownwood/2425-Thomas-Dr-76801/home/110279210","distance":3.23},{"ADDRESS":"20 County Road 178","CITY":"Bangs","STATE":"TX","ZIP":"76823","SOLD PRICE":"78000","LOT AREA":871200,"LOT ACREAGE":20,"PRICE PER ACRE":3900,"LATITUDE":"31.715006","LONGITUDE":"-99.163222","URL":"http://www.redfin.com/TX/Unknown/20-76823/home/143010044","distance":4.61},{"ADDRESS":"County Road 163","CITY":"Bangs","STATE":"TX","ZIP":"76823","SOLD PRICE":"60000","LOT AREA":871200,"LOT ACREAGE":20,"PRICE PER ACRE":3000,"LATITUDE":"31.702619","LONGITUDE":"-99.168241","URL":"http://www.redfin.com/TX/Unknown/Unknown-76823/home/113728678","distance":4.27},{"ADDRESS":"9999 17th & Avenue M","CITY":"Brownwood","STATE":"TX","ZIP":"76801","SOLD PRICE":"142000","LOT AREA":836352,"LOT ACREAGE":19.2,"PRICE PER ACRE":7396,"LATITUDE":"31.692111","LONGITUDE":"-98.988446","URL":"http://www.redfin.com/TX/Brownwood/9999-76801/home/128021935","distance":7.32}],"estimatedValue":123300},{"SITUS FULL ADDRESS":"5371 COUNTY ROAD 136  BROWNWOOD, TX 76801","SITUS CITY":"BROWNWOOD","ALTERNATE APN":"A0280001200","COUNTY":"BROWN","LOT AREA":871200,"LOT ACREAGE":20,"LATITUDE":"31.72961084","LONGITUDE":"-99.08316884","APN - UNFORMATTED":"18697","IN FLOOD ZONE":false,"OWNER MAILING NAME":"ZELDA CLARK","MAILING STREET ADDRESS":"PO BOX 1961","MAIL CITY":"BROWNWOOD","MAIL STATE":"TX","MAIL ZIPZIP4":"76804-1961","MARKET TOTAL VALUE":29335,"id":11,"avgPPA":4699.666666666667,"avgPPA2":5509.333333333333,"avgPPA3":5385,"estValue":93993,"estValue2":110187,"estValue3":107700,"offer":55000,"offer1":46900,"offer2":55000,"offer3":53800,"offerPPA":0,"jasonOffer":0,"jasonEstValue":0,"statusColor":"green","marketValueFlag":false,"propertyLink":"https://www.google.com/search?q=5371+COUNTY+ROAD+136+BROWNWOOD,+TX+76801","soldArr":[{"ADDRESS":"2425 Thomas Dr","CITY":"Brownwood","STATE":"TX","ZIP":"76801","SOLD PRICE":"100000","LOT AREA":605048,"LOT ACREAGE":13.89,"PRICE PER ACRE":7199,"LATITUDE":"31.687828","LONGITUDE":"-99.0604037","URL":"http://www.redfin.com/TX/Brownwood/2425-Thomas-Dr-76801/home/110279210","distance":3.18},{"ADDRESS":"20 County Road 178","CITY":"Bangs","STATE":"TX","ZIP":"76823","SOLD PRICE":"78000","LOT AREA":871200,"LOT ACREAGE":20,"PRICE PER ACRE":3900,"LATITUDE":"31.715006","LONGITUDE":"-99.163222","URL":"http://www.redfin.com/TX/Unknown/20-76823/home/143010044","distance":4.81},{"ADDRESS":"County Road 163","CITY":"Bangs","STATE":"TX","ZIP":"76823","SOLD PRICE":"60000","LOT AREA":871200,"LOT ACREAGE":20,"PRICE PER ACRE":3000,"LATITUDE":"31.702619","LONGITUDE":"-99.168241","URL":"http://www.redfin.com/TX/Unknown/Unknown-76823/home/113728678","distance":5.34},{"ADDRESS":"201 Green River Dr","CITY":"Brownwood","STATE":"TX","ZIP":"76801","SOLD PRICE":"145000","LOT AREA":1163357,"LOT ACREAGE":26.71,"PRICE PER ACRE":5429,"LATITUDE":"31.812982","LONGITUDE":"-99.125164","URL":"http://www.redfin.com/TX/Brownwood/201-Green-River-Dr-76801/home/145926563","distance":6.27},{"ADDRESS":"9999 17th & Avenue M","CITY":"Brownwood","STATE":"TX","ZIP":"76801","SOLD PRICE":"142000","LOT AREA":836352,"LOT ACREAGE":19.2,"PRICE PER ACRE":7396,"LATITUDE":"31.692111","LONGITUDE":"-98.988446","URL":"http://www.redfin.com/TX/Brownwood/9999-76801/home/128021935","distance":6.14}],"estimatedValue":110187},{"SITUS FULL ADDRESS":"12456 FM 586 S  BROOKESMITH, TX 76827","SITUS CITY":"BROOKESMITH","ALTERNATE APN":"A0373000300","COUNTY":"BROWN","LOT AREA":871200,"LOT ACREAGE":20,"LATITUDE":"31.54520159","LONGITUDE":"-99.1529774","APN - UNFORMATTED":"20821","IN FLOOD ZONE":false,"OWNER MAILING NAME":"CLYDE HINTON","MAILING STREET ADDRESS":"PO BOX 14187","MAIL CITY":"ODESSA","MAIL STATE":"TX","MAIL ZIPZIP4":"79768-4187","MARKET TOTAL VALUE":40000,"id":12,"avgPPA":3200,"avgPPA2":null,"avgPPA3":3200,"estValue":64000,"estValue2":null,"estValue3":64000,"offer":32000,"offer1":32000,"offer2":null,"offer3":32000,"offerPPA":0,"jasonOffer":0,"jasonEstValue":0,"statusColor":"red","marketValueFlag":false,"propertyLink":"https://www.google.com/search?q=12456+FM+586+S+BROOKESMITH,+TX+76827","soldArr":[{"ADDRESS":"15805 County Road 211","CITY":"Brookesmith","STATE":"TX","ZIP":"76827","SOLD PRICE":"57952","LOT AREA":788872,"LOT ACREAGE":18.11,"PRICE PER ACRE":3200,"LATITUDE":"31.5123947","LONGITUDE":"-99.1304493","URL":"http://www.redfin.com/TX/Brookesmith/15805-County-Road-211-76827/home/146849254","distance":2.63}],"estimatedValue":64000},{"SITUS FULL ADDRESS":"FM 1467 E  MAY, TX 76857","SITUS CITY":"MAY","ALTERNATE APN":"A1382000300","COUNTY":"BROWN","LOT AREA":871200,"LOT ACREAGE":20,"LATITUDE":"31.86676992","LONGITUDE":"-98.8393439","APN - UNFORMATTED":"35346","IN FLOOD ZONE":false,"OWNER MAILING NAME":"ERNESTINE KUBICEK","MAILING STREET ADDRESS":"11710 BARCHETTA DR","MAIL CITY":"AUSTIN","MAIL STATE":"TX","MAIL ZIPZIP4":"78758-3733","MARKET TOTAL VALUE":44400,"id":13,"avgPPA":2065,"avgPPA2":null,"avgPPA3":2065,"estValue":41300,"estValue2":null,"estValue3":41300,"offer":20600,"offer1":20600,"offer2":null,"offer3":20600,"offerPPA":0,"jasonOffer":0,"jasonEstValue":0,"statusColor":"red","marketValueFlag":false,"propertyLink":"https://www.google.com/search?q=FM+1467+E+MAY,+TX+76857","soldArr":[{"ADDRESS":"County Road 339","CITY":"Early","STATE":"TX","ZIP":"76802","SOLD PRICE":"47500","LOT AREA":1001880,"LOT ACREAGE":23,"PRICE PER ACRE":2065,"LATITUDE":"31.784383","LONGITUDE":"-98.924763","URL":"http://www.redfin.com/TX/Unknown/Unknown-76802/home/128970264","distance":7.59}],"estimatedValue":41300},{"SITUS FULL ADDRESS":"11501 COUNTY ROAD 186  BROOKESMITH, TX 76827","SITUS CITY":"BROOKESMITH","ALTERNATE APN":"A1510000700","COUNTY":"BROWN","LOT AREA":871200,"LOT ACREAGE":20,"LATITUDE":"31.57728116","LONGITUDE":"-99.20202409","APN - UNFORMATTED":"36170","IN FLOOD ZONE":false,"OWNER MAILING NAME":"MILDRED LAUGHLIN","MAILING STREET ADDRESS":"PO BOX 843","MAIL CITY":"BROWNWOOD","MAIL STATE":"TX","MAIL ZIPZIP4":"76804","MARKET TOTAL VALUE":40000,"id":14,"avgPPA":3100,"avgPPA2":3200,"avgPPA3":3100,"estValue":62000,"estValue2":64000,"estValue3":62000,"offer":31000,"offer1":31000,"offer2":32000,"offer3":31000,"offerPPA":0,"jasonOffer":0,"jasonEstValue":0,"statusColor":"yellow","marketValueFlag":false,"propertyLink":"https://www.google.com/search?q=11501+COUNTY+ROAD+186+BROOKESMITH,+TX+76827","soldArr":[{"ADDRESS":"15805 County Road 211","CITY":"Brookesmith","STATE":"TX","ZIP":"76827","SOLD PRICE":"57952","LOT AREA":788872,"LOT ACREAGE":18.11,"PRICE PER ACRE":3200,"LATITUDE":"31.5123947","LONGITUDE":"-99.1304493","URL":"http://www.redfin.com/TX/Brookesmith/15805-County-Road-211-76827/home/146849254","distance":6.15},{"ADDRESS":"County Road 163","CITY":"Bangs","STATE":"TX","ZIP":"76823","SOLD PRICE":"60000","LOT AREA":871200,"LOT ACREAGE":20,"PRICE PER ACRE":3000,"LATITUDE":"31.702619","LONGITUDE":"-99.168241","URL":"http://www.redfin.com/TX/Unknown/Unknown-76823/home/113728678","distance":8.88}],"estimatedValue":62000},{"SITUS FULL ADDRESS":"1901 N COUNTY ROAD 310  EARLY, TX 76802","SITUS CITY":"EARLY","ALTERNATE APN":"A1008007300","COUNTY":"BROWN","LOT AREA":871200,"LOT ACREAGE":20,"LATITUDE":"31.74029337","LONGITUDE":"-98.89448916","APN - UNFORMATTED":"32928","IN FLOOD ZONE":false,"OWNER MAILING NAME":"JIMMY & SUZANNE COFFMAN","MAILING STREET ADDRESS":"1901 N COUNTY ROAD 310","MAIL CITY":"EARLY","MAIL STATE":"TX","MAIL ZIPZIP4":"76802-3723","MARKET TOTAL VALUE":34480,"id":15,"avgPPA":4730.5,"avgPPA2":7396,"avgPPA3":4731,"estValue":94610,"estValue2":147920,"estValue3":94620,"offer":47300,"offer1":47300,"offer2":73900,"offer3":47300,"offerPPA":0,"jasonOffer":0,"jasonEstValue":0,"statusColor":"yellow","marketValueFlag":false,"propertyLink":"https://www.google.com/search?q=1901+N+COUNTY+ROAD+310+EARLY,+TX+76802","soldArr":[{"ADDRESS":"County Road 339","CITY":"Early","STATE":"TX","ZIP":"76802","SOLD PRICE":"47500","LOT AREA":1001880,"LOT ACREAGE":23,"PRICE PER ACRE":2065,"LATITUDE":"31.784383","LONGITUDE":"-98.924763","URL":"http://www.redfin.com/TX/Unknown/Unknown-76802/home/128970264","distance":3.53},{"ADDRESS":"9999 17th & Avenue M","CITY":"Brownwood","STATE":"TX","ZIP":"76801","SOLD PRICE":"142000","LOT AREA":836352,"LOT ACREAGE":19.2,"PRICE PER ACRE":7396,"LATITUDE":"31.692111","LONGITUDE":"-98.988446","URL":"http://www.redfin.com/TX/Brownwood/9999-76801/home/128021935","distance":6.45}],"estimatedValue":94620},{"SITUS FULL ADDRESS":"129 CR  BROWNWOOD, TX 76801","SITUS CITY":"BROWNWOOD","ALTERNATE APN":"A1888000300","COUNTY":"BROWN","LOT AREA":871200,"LOT ACREAGE":20,"LATITUDE":"31.92121833","LONGITUDE":"-99.1527871","APN - UNFORMATTED":"37355","IN FLOOD ZONE":false,"OWNER MAILING NAME":"HOSEA & STANLEY FISHER","MAILING STREET ADDRESS":"8950 COUNTY ROAD 215","MAIL CITY":"BROWNWOOD","MAIL STATE":"TX","MAIL ZIPZIP4":"76801","MARKET TOTAL VALUE":47000,"id":16,"avgPPA":7470.666666666667,"avgPPA2":8491.5,"avgPPA3":7471,"estValue":149413,"estValue2":169830,"estValue3":149420,"offer":74700,"offer1":74700,"offer2":84900,"offer3":74700,"offerPPA":0,"jasonOffer":0,"jasonEstValue":0,"statusColor":"yellow","marketValueFlag":false,"propertyLink":"https://www.google.com/search?q=129+CR+BROWNWOOD,+TX+76801","soldArr":[{"ADDRESS":"102 Reynolds Ln","CITY":"Brownwood","STATE":"TX","ZIP":"76801","SOLD PRICE":"149900","LOT AREA":630705,"LOT ACREAGE":14.48,"PRICE PER ACRE":10353,"LATITUDE":"31.876779","LONGITUDE":"-99.118275","URL":"http://www.redfin.com/TX/BROWNWOOD/102-REYNOLDS-LN-76801/home/74976095","distance":3.68},{"ADDRESS":"21900 State Highway 279","CITY":"Cross Plains","STATE":"TX","ZIP":"76443","SOLD PRICE":"134000","LOT AREA":880348,"LOT ACREAGE":20.21,"PRICE PER ACRE":6630,"LATITUDE":"32.022816","LONGITUDE":"-99.128397","URL":"http://www.redfin.com/TX/Cross-Plains/21900-TX-279-76443/home/55041906","distance":7.16},{"ADDRESS":"201 Green River Dr","CITY":"Brownwood","STATE":"TX","ZIP":"76801","SOLD PRICE":"145000","LOT AREA":1163357,"LOT ACREAGE":26.71,"PRICE PER ACRE":5429,"LATITUDE":"31.812982","LONGITUDE":"-99.125164","URL":"http://www.redfin.com/TX/Brownwood/201-Green-River-Dr-76801/home/145926563","distance":7.65}],"estimatedValue":149420},{"SITUS FULL ADDRESS":"120 CR  BROWNWOOD, TX 76801","SITUS CITY":"BROWNWOOD","ALTERNATE APN":"A1597000100","COUNTY":"BROWN","LOT AREA":871200,"LOT ACREAGE":20,"LATITUDE":"31.99965653","LONGITUDE":"-99.07178301","APN - UNFORMATTED":"36604","IN FLOOD ZONE":false,"OWNER MAILING NAME":"ROY HICKMAN","MAILING STREET ADDRESS":"215 STONE RIDGE DR","MAIL CITY":"KERRVILLE","MAIL STATE":"TX","MAIL ZIPZIP4":"78028-7379","MARKET TOTAL VALUE":10148,"id":17,"avgPPA":8491.5,"avgPPA2":10353,"avgPPA3":8492,"estValue":169830,"estValue2":207060,"estValue3":169840,"offer":84900,"offer1":84900,"offer2":103500,"offer3":84900,"offerPPA":0,"jasonOffer":0,"jasonEstValue":0,"statusColor":"yellow","marketValueFlag":false,"propertyLink":"https://www.google.com/search?q=120+CR+BROWNWOOD,+TX+76801","soldArr":[{"ADDRESS":"21900 State Highway 279","CITY":"Cross Plains","STATE":"TX","ZIP":"76443","SOLD PRICE":"134000","LOT AREA":880348,"LOT ACREAGE":20.21,"PRICE PER ACRE":6630,"LATITUDE":"32.022816","LONGITUDE":"-99.128397","URL":"http://www.redfin.com/TX/Cross-Plains/21900-TX-279-76443/home/55041906","distance":3.68},{"ADDRESS":"102 Reynolds Ln","CITY":"Brownwood","STATE":"TX","ZIP":"76801","SOLD PRICE":"149900","LOT AREA":630705,"LOT ACREAGE":14.48,"PRICE PER ACRE":10353,"LATITUDE":"31.876779","LONGITUDE":"-99.118275","URL":"http://www.redfin.com/TX/BROWNWOOD/102-REYNOLDS-LN-76801/home/74976095","distance":8.92}],"estimatedValue":169840},{"SITUS FULL ADDRESS":"234 CR  BROWNWOOD, TX 76801","SITUS CITY":"BROWNWOOD","ALTERNATE APN":"A0572000400","COUNTY":"BROWN","LOT AREA":871200,"LOT ACREAGE":20,"LATITUDE":"31.64231439","LONGITUDE":"-99.03264495","APN - UNFORMATTED":"39718","IN FLOOD ZONE":false,"OWNER MAILING NAME":"DAVID HARDING & DEBORAH PENNER","MAILING STREET ADDRESS":"PO BOX 65166","MAIL CITY":"LUBBOCK","MAIL STATE":"TX","MAIL ZIPZIP4":"79464-5166","MARKET TOTAL VALUE":40000,"id":18,"avgPPA":5865,"avgPPA2":7297.5,"avgPPA3":5865,"estValue":117300,"estValue2":145950,"estValue3":117300,"offer":58600,"offer1":58600,"offer2":72900,"offer3":58600,"offerPPA":0,"jasonOffer":0,"jasonEstValue":0,"statusColor":"yellow","marketValueFlag":false,"propertyLink":"https://www.google.com/search?q=234+CR+BROWNWOOD,+TX+76801","soldArr":[{"ADDRESS":"2425 Thomas Dr","CITY":"Brownwood","STATE":"TX","ZIP":"76801","SOLD PRICE":"100000","LOT AREA":605048,"LOT ACREAGE":13.89,"PRICE PER ACRE":7199,"LATITUDE":"31.687828","LONGITUDE":"-99.0604037","URL":"http://www.redfin.com/TX/Brownwood/2425-Thomas-Dr-76801/home/110279210","distance":3.54},{"ADDRESS":"9999 17th & Avenue M","CITY":"Brownwood","STATE":"TX","ZIP":"76801","SOLD PRICE":"142000","LOT AREA":836352,"LOT ACREAGE":19.2,"PRICE PER ACRE":7396,"LATITUDE":"31.692111","LONGITUDE":"-98.988446","URL":"http://www.redfin.com/TX/Brownwood/9999-76801/home/128021935","distance":4.31},{"ADDRESS":"County Road 163","CITY":"Bangs","STATE":"TX","ZIP":"76823","SOLD PRICE":"60000","LOT AREA":871200,"LOT ACREAGE":20,"PRICE PER ACRE":3000,"LATITUDE":"31.702619","LONGITUDE":"-99.168241","URL":"http://www.redfin.com/TX/Unknown/Unknown-76823/home/113728678","distance":9}],"estimatedValue":117300},{"SITUS FULL ADDRESS":"120 CR  BROWNWOOD, TX 76801","SITUS CITY":"BROWNWOOD","ALTERNATE APN":"A1597000100","COUNTY":"BROWN","LOT AREA":871200,"LOT ACREAGE":20,"LATITUDE":"31.7640195","LONGITUDE":"-98.945482","APN - UNFORMATTED":"20004179","IN FLOOD ZONE":false,"OWNER MAILING NAME":"R HORTON","MAILING STREET ADDRESS":"13406 PERTHSHIRE RD","MAIL CITY":"HOUSTON","MAIL STATE":"TX","MAIL ZIPZIP4":"77079-6028","MARKET TOTAL VALUE":6411,"id":19,"avgPPA":5553.333333333333,"avgPPA2":7297.5,"avgPPA3":5553,"estValue":111067,"estValue2":145950,"estValue3":111060,"offer":55500,"offer1":55500,"offer2":72900,"offer3":55500,"offerPPA":0,"jasonOffer":0,"jasonEstValue":0,"statusColor":"yellow","marketValueFlag":false,"propertyLink":"https://www.google.com/search?q=120+CR+BROWNWOOD,+TX+76801","soldArr":[{"ADDRESS":"County Road 339","CITY":"Early","STATE":"TX","ZIP":"76802","SOLD PRICE":"47500","LOT AREA":1001880,"LOT ACREAGE":23,"PRICE PER ACRE":2065,"LATITUDE":"31.784383","LONGITUDE":"-98.924763","URL":"http://www.redfin.com/TX/Unknown/Unknown-76802/home/128970264","distance":1.86},{"ADDRESS":"9999 17th & Avenue M","CITY":"Brownwood","STATE":"TX","ZIP":"76801","SOLD PRICE":"142000","LOT AREA":836352,"LOT ACREAGE":19.2,"PRICE PER ACRE":7396,"LATITUDE":"31.692111","LONGITUDE":"-98.988446","URL":"http://www.redfin.com/TX/Brownwood/9999-76801/home/128021935","distance":5.57},{"ADDRESS":"2425 Thomas Dr","CITY":"Brownwood","STATE":"TX","ZIP":"76801","SOLD PRICE":"100000","LOT AREA":605048,"LOT ACREAGE":13.89,"PRICE PER ACRE":7199,"LATITUDE":"31.687828","LONGITUDE":"-99.0604037","URL":"http://www.redfin.com/TX/Brownwood/2425-Thomas-Dr-76801/home/110279210","distance":8.56}],"estimatedValue":111060},{"SITUS FULL ADDRESS":"120 CR  BROWNWOOD, TX 76801","SITUS CITY":"BROWNWOOD","ALTERNATE APN":"A1597000100","COUNTY":"BROWN","LOT AREA":871200,"LOT ACREAGE":20,"LATITUDE":"31.7640195","LONGITUDE":"-98.945482","APN - UNFORMATTED":"20004178","IN FLOOD ZONE":false,"OWNER MAILING NAME":"LOWREY HORTON","MAILING STREET ADDRESS":"3762 CHINA GROVE MEWS","MAIL CITY":"DUMFRIES","MAIL STATE":"VA","MAIL ZIPZIP4":"22025-1834","MARKET TOTAL VALUE":10148,"id":20,"avgPPA":5553.333333333333,"avgPPA2":7297.5,"avgPPA3":5553,"estValue":111067,"estValue2":145950,"estValue3":111060,"offer":55500,"offer1":55500,"offer2":72900,"offer3":55500,"offerPPA":0,"jasonOffer":0,"jasonEstValue":0,"statusColor":"yellow","marketValueFlag":false,"propertyLink":"https://www.google.com/search?q=120+CR+BROWNWOOD,+TX+76801","soldArr":[{"ADDRESS":"County Road 339","CITY":"Early","STATE":"TX","ZIP":"76802","SOLD PRICE":"47500","LOT AREA":1001880,"LOT ACREAGE":23,"PRICE PER ACRE":2065,"LATITUDE":"31.784383","LONGITUDE":"-98.924763","URL":"http://www.redfin.com/TX/Unknown/Unknown-76802/home/128970264","distance":1.86},{"ADDRESS":"9999 17th & Avenue M","CITY":"Brownwood","STATE":"TX","ZIP":"76801","SOLD PRICE":"142000","LOT AREA":836352,"LOT ACREAGE":19.2,"PRICE PER ACRE":7396,"LATITUDE":"31.692111","LONGITUDE":"-98.988446","URL":"http://www.redfin.com/TX/Brownwood/9999-76801/home/128021935","distance":5.57},{"ADDRESS":"2425 Thomas Dr","CITY":"Brownwood","STATE":"TX","ZIP":"76801","SOLD PRICE":"100000","LOT AREA":605048,"LOT ACREAGE":13.89,"PRICE PER ACRE":7199,"LATITUDE":"31.687828","LONGITUDE":"-99.0604037","URL":"http://www.redfin.com/TX/Brownwood/2425-Thomas-Dr-76801/home/110279210","distance":8.56}],"estimatedValue":111060},{"SITUS FULL ADDRESS":"120 CR  BROWNWOOD, TX 76801","SITUS CITY":"BROWNWOOD","ALTERNATE APN":"A1597000100","COUNTY":"BROWN","LOT AREA":871200,"LOT ACREAGE":20,"LATITUDE":"31.7640195","LONGITUDE":"-98.945482","APN - UNFORMATTED":"20004177","IN FLOOD ZONE":false,"OWNER MAILING NAME":"MICHAEL WINTER","MAILING STREET ADDRESS":"3112 GEORGETOWN ST","MAIL CITY":"HOUSTON","MAIL STATE":"TX","MAIL ZIPZIP4":"77005-3032","MARKET TOTAL VALUE":10148,"id":21,"avgPPA":5553.333333333333,"avgPPA2":7297.5,"avgPPA3":5553,"estValue":111067,"estValue2":145950,"estValue3":111060,"offer":55500,"offer1":55500,"offer2":72900,"offer3":55500,"offerPPA":0,"jasonOffer":0,"jasonEstValue":0,"statusColor":"yellow","marketValueFlag":false,"propertyLink":"https://www.google.com/search?q=120+CR+BROWNWOOD,+TX+76801","soldArr":[{"ADDRESS":"County Road 339","CITY":"Early","STATE":"TX","ZIP":"76802","SOLD PRICE":"47500","LOT AREA":1001880,"LOT ACREAGE":23,"PRICE PER ACRE":2065,"LATITUDE":"31.784383","LONGITUDE":"-98.924763","URL":"http://www.redfin.com/TX/Unknown/Unknown-76802/home/128970264","distance":1.86},{"ADDRESS":"9999 17th & Avenue M","CITY":"Brownwood","STATE":"TX","ZIP":"76801","SOLD PRICE":"142000","LOT AREA":836352,"LOT ACREAGE":19.2,"PRICE PER ACRE":7396,"LATITUDE":"31.692111","LONGITUDE":"-98.988446","URL":"http://www.redfin.com/TX/Brownwood/9999-76801/home/128021935","distance":5.57},{"ADDRESS":"2425 Thomas Dr","CITY":"Brownwood","STATE":"TX","ZIP":"76801","SOLD PRICE":"100000","LOT AREA":605048,"LOT ACREAGE":13.89,"PRICE PER ACRE":7199,"LATITUDE":"31.687828","LONGITUDE":"-99.0604037","URL":"http://www.redfin.com/TX/Brownwood/2425-Thomas-Dr-76801/home/110279210","distance":8.56}],"estimatedValue":111060},{"SITUS FULL ADDRESS":"5205 GOBBLER HOLW  BROWNWOOD, TX 76801","SITUS CITY":"BROWNWOOD","ALTERNATE APN":"A2052001400","COUNTY":"BROWN","LOT AREA":869022,"LOT ACREAGE":19.95,"LATITUDE":"31.78334592","LONGITUDE":"-99.14291436","APN - UNFORMATTED":"38393","IN FLOOD ZONE":false,"OWNER MAILING NAME":"CORA STAVINOHA","MAILING STREET ADDRESS":"PO BOX 861","MAIL CITY":"BANGS","MAIL STATE":"TX","MAIL ZIPZIP4":"76823","MARKET TOTAL VALUE":40850,"id":22,"avgPPA":4109.666666666667,"avgPPA2":5509.333333333333,"avgPPA3":5976,"estValue":81988,"estValue2":109911,"estValue3":119221,"offer":54900,"offer1":40900,"offer2":54900,"offer3":59600,"offerPPA":0,"jasonOffer":0,"jasonEstValue":0,"statusColor":"green","marketValueFlag":false,"propertyLink":"https://www.google.com/search?q=5205+GOBBLER+HOLW+BROWNWOOD,+TX+76801","soldArr":[{"ADDRESS":"201 Green River Dr","CITY":"Brownwood","STATE":"TX","ZIP":"76801","SOLD PRICE":"145000","LOT AREA":1163357,"LOT ACREAGE":26.71,"PRICE PER ACRE":5429,"LATITUDE":"31.812982","LONGITUDE":"-99.125164","URL":"http://www.redfin.com/TX/Brownwood/201-Green-River-Dr-76801/home/145926563","distance":2.3},{"ADDRESS":"20 County Road 178","CITY":"Bangs","STATE":"TX","ZIP":"76823","SOLD PRICE":"78000","LOT AREA":871200,"LOT ACREAGE":20,"PRICE PER ACRE":3900,"LATITUDE":"31.715006","LONGITUDE":"-99.163222","URL":"http://www.redfin.com/TX/Unknown/20-76823/home/143010044","distance":4.87},{"ADDRESS":"County Road 163","CITY":"Bangs","STATE":"TX","ZIP":"76823","SOLD PRICE":"60000","LOT AREA":871200,"LOT ACREAGE":20,"PRICE PER ACRE":3000,"LATITUDE":"31.702619","LONGITUDE":"-99.168241","URL":"http://www.redfin.com/TX/Unknown/Unknown-76823/home/113728678","distance":5.77},{"ADDRESS":"102 Reynolds Ln","CITY":"Brownwood","STATE":"TX","ZIP":"76801","SOLD PRICE":"149900","LOT AREA":630705,"LOT ACREAGE":14.48,"PRICE PER ACRE":10353,"LATITUDE":"31.876779","LONGITUDE":"-99.118275","URL":"http://www.redfin.com/TX/BROWNWOOD/102-REYNOLDS-LN-76801/home/74976095","distance":6.62},{"ADDRESS":"2425 Thomas Dr","CITY":"Brownwood","STATE":"TX","ZIP":"76801","SOLD PRICE":"100000","LOT AREA":605048,"LOT ACREAGE":13.89,"PRICE PER ACRE":7199,"LATITUDE":"31.687828","LONGITUDE":"-99.0604037","URL":"http://www.redfin.com/TX/Brownwood/2425-Thomas-Dr-76801/home/110279210","distance":8.19}],"estimatedValue":109911},{"SITUS FULL ADDRESS":"8775 COUNTY ROAD 136  BANGS, TX 76823","SITUS CITY":"BANGS","ALTERNATE APN":"A0490000306","COUNTY":"BROWN","LOT AREA":864927,"LOT ACREAGE":19.86,"LATITUDE":"31.73556727","LONGITUDE":"-99.1464404","APN - UNFORMATTED":"75227","IN FLOOD ZONE":false,"OWNER MAILING NAME":"MOREY & JUDY MAST","MAILING STREET ADDRESS":"8775 COUNTY ROAD 136","MAIL CITY":"BANGS","MAIL STATE":"TX","MAIL ZIPZIP4":"76823-4050","MARKET TOTAL VALUE":47880,"id":23,"avgPPA":4109.666666666667,"avgPPA2":5509.333333333333,"avgPPA3":4882,"estValue":81618,"estValue2":109415,"estValue3":96957,"offer":54700,"offer1":40800,"offer2":54700,"offer3":48400,"offerPPA":0,"jasonOffer":0,"jasonEstValue":0,"statusColor":"green","marketValueFlag":false,"propertyLink":"https://www.google.com/search?q=8775+COUNTY+ROAD+136+BANGS,+TX+76823","soldArr":[{"ADDRESS":"20 County Road 178","CITY":"Bangs","STATE":"TX","ZIP":"76823","SOLD PRICE":"78000","LOT AREA":871200,"LOT ACREAGE":20,"PRICE PER ACRE":3900,"LATITUDE":"31.715006","LONGITUDE":"-99.163222","URL":"http://www.redfin.com/TX/Unknown/20-76823/home/143010044","distance":1.73},{"ADDRESS":"County Road 163","CITY":"Bangs","STATE":"TX","ZIP":"76823","SOLD PRICE":"60000","LOT AREA":871200,"LOT ACREAGE":20,"PRICE PER ACRE":3000,"LATITUDE":"31.702619","LONGITUDE":"-99.168241","URL":"http://www.redfin.com/TX/Unknown/Unknown-76823/home/113728678","distance":2.61},{"ADDRESS":"201 Green River Dr","CITY":"Brownwood","STATE":"TX","ZIP":"76801","SOLD PRICE":"145000","LOT AREA":1163357,"LOT ACREAGE":26.71,"PRICE PER ACRE":5429,"LATITUDE":"31.812982","LONGITUDE":"-99.125164","URL":"http://www.redfin.com/TX/Brownwood/201-Green-River-Dr-76801/home/145926563","distance":5.49},{"ADDRESS":"2425 Thomas Dr","CITY":"Brownwood","STATE":"TX","ZIP":"76801","SOLD PRICE":"100000","LOT AREA":605048,"LOT ACREAGE":13.89,"PRICE PER ACRE":7199,"LATITUDE":"31.687828","LONGITUDE":"-99.0604037","URL":"http://www.redfin.com/TX/Brownwood/2425-Thomas-Dr-76801/home/110279210","distance":6.04}],"estimatedValue":109415},{"SITUS FULL ADDRESS":"10351 COUNTY ROAD 146  BROWNWOOD, TX 76801","SITUS CITY":"BROWNWOOD","ALTERNATE APN":"A2129000100","COUNTY":"BROWN","LOT AREA":853776,"LOT ACREAGE":19.6,"LATITUDE":"31.82043618","LONGITUDE":"-99.16705398","APN - UNFORMATTED":"38739","IN FLOOD ZONE":false,"OWNER MAILING NAME":"JAMES MCCOURY","MAILING STREET ADDRESS":"11851B COUNTY ROAD 146","MAIL CITY":"BROWNWOOD","MAIL STATE":"TX","MAIL ZIPZIP4":"76801","MARKET TOTAL VALUE":39200,"id":24,"avgPPA":5751,"avgPPA2":7126.5,"avgPPA3":5751,"estValue":112720,"estValue2":139679,"estValue3":112720,"offer":56300,"offer1":56300,"offer2":69800,"offer3":56300,"offerPPA":0,"jasonOffer":0,"jasonEstValue":0,"statusColor":"yellow","marketValueFlag":false,"propertyLink":"https://www.google.com/search?q=10351+COUNTY+ROAD+146+BROWNWOOD,+TX+76801","soldArr":[{"ADDRESS":"102 Reynolds Ln","CITY":"Brownwood","STATE":"TX","ZIP":"76801","SOLD PRICE":"149900","LOT AREA":630705,"LOT ACREAGE":14.48,"PRICE PER ACRE":10353,"LATITUDE":"31.876779","LONGITUDE":"-99.118275","URL":"http://www.redfin.com/TX/BROWNWOOD/102-REYNOLDS-LN-76801/home/74976095","distance":4.83},{"ADDRESS":"20 County Road 178","CITY":"Bangs","STATE":"TX","ZIP":"76823","SOLD PRICE":"78000","LOT AREA":871200,"LOT ACREAGE":20,"PRICE PER ACRE":3900,"LATITUDE":"31.715006","LONGITUDE":"-99.163222","URL":"http://www.redfin.com/TX/Unknown/20-76823/home/143010044","distance":7.29},{"ADDRESS":"County Road 163","CITY":"Bangs","STATE":"TX","ZIP":"76823","SOLD PRICE":"60000","LOT AREA":871200,"LOT ACREAGE":20,"PRICE PER ACRE":3000,"LATITUDE":"31.702619","LONGITUDE":"-99.168241","URL":"http://www.redfin.com/TX/Unknown/Unknown-76823/home/113728678","distance":8.14}],"estimatedValue":112720},{"SITUS FULL ADDRESS":"9350 COUNTY ROAD 225  BROWNWOOD, TX 76801","SITUS CITY":"BROWNWOOD","ALTERNATE APN":"A0966000604","COUNTY":"BROWN","LOT AREA":849856,"LOT ACREAGE":19.51,"LATITUDE":"31.60288088","LONGITUDE":"-99.0073893","APN - UNFORMATTED":"20002069","IN FLOOD ZONE":false,"OWNER MAILING NAME":"OSCAR & BARBARA MCANALLY","MAILING STREET ADDRESS":"9350 COUNTY ROAD 225","MAIL CITY":"BROWNWOOD","MAIL STATE":"TX","MAIL ZIPZIP4":"76801","MARKET TOTAL VALUE":42710,"id":25,"avgPPA":7297.5,"avgPPA2":7396,"avgPPA3":7298,"estValue":142374,"estValue2":144296,"estValue3":142384,"offer":71100,"offer1":71100,"offer2":72100,"offer3":71100,"offerPPA":0,"jasonOffer":0,"jasonEstValue":0,"statusColor":"yellow","marketValueFlag":false,"propertyLink":"https://www.google.com/search?q=9350+COUNTY+ROAD+225+BROWNWOOD,+TX+76801","soldArr":[{"ADDRESS":"2425 Thomas Dr","CITY":"Brownwood","STATE":"TX","ZIP":"76801","SOLD PRICE":"100000","LOT AREA":605048,"LOT ACREAGE":13.89,"PRICE PER ACRE":7199,"LATITUDE":"31.687828","LONGITUDE":"-99.0604037","URL":"http://www.redfin.com/TX/Brownwood/2425-Thomas-Dr-76801/home/110279210","distance":6.65},{"ADDRESS":"9999 17th & Avenue M","CITY":"Brownwood","STATE":"TX","ZIP":"76801","SOLD PRICE":"142000","LOT AREA":836352,"LOT ACREAGE":19.2,"PRICE PER ACRE":7396,"LATITUDE":"31.692111","LONGITUDE":"-98.988446","URL":"http://www.redfin.com/TX/Brownwood/9999-76801/home/128021935","distance":6.26}],"estimatedValue":142384},{"SITUS FULL ADDRESS":"160 CR  BANGS, TX 76823","SITUS CITY":"BANGS","ALTERNATE APN":"A0421000900","COUNTY":"BROWN","LOT AREA":844411,"LOT ACREAGE":19.38,"LATITUDE":"31.6790728","LONGITUDE":"-99.1395825","APN - UNFORMATTED":"22650","IN FLOOD ZONE":false,"OWNER MAILING NAME":"LARRY TRAWEEK & RE'GENNA GAMBLIN","MAILING STREET ADDRESS":"PO BOX 771","MAIL CITY":"BANGS","MAIL STATE":"TX","MAIL ZIPZIP4":"76823","MARKET TOTAL VALUE":41510,"id":26,"avgPPA":4699.666666666667,"avgPPA2":6165,"avgPPA3":5374,"estValue":91080,"estValue2":119478,"estValue3":104148,"offer":59700,"offer1":45500,"offer2":59700,"offer3":52000,"offerPPA":0,"jasonOffer":0,"jasonEstValue":0,"statusColor":"green","marketValueFlag":false,"propertyLink":"https://www.google.com/search?q=160+CR+BANGS,+TX+76823","soldArr":[{"ADDRESS":"20 County Road 178","CITY":"Bangs","STATE":"TX","ZIP":"76823","SOLD PRICE":"78000","LOT AREA":871200,"LOT ACREAGE":20,"PRICE PER ACRE":3900,"LATITUDE":"31.715006","LONGITUDE":"-99.163222","URL":"http://www.redfin.com/TX/Unknown/20-76823/home/143010044","distance":2.85},{"ADDRESS":"County Road 163","CITY":"Bangs","STATE":"TX","ZIP":"76823","SOLD PRICE":"60000","LOT AREA":871200,"LOT ACREAGE":20,"PRICE PER ACRE":3000,"LATITUDE":"31.702619","LONGITUDE":"-99.168241","URL":"http://www.redfin.com/TX/Unknown/Unknown-76823/home/113728678","distance":2.34},{"ADDRESS":"2425 Thomas Dr","CITY":"Brownwood","STATE":"TX","ZIP":"76801","SOLD PRICE":"100000","LOT AREA":605048,"LOT ACREAGE":13.89,"PRICE PER ACRE":7199,"LATITUDE":"31.687828","LONGITUDE":"-99.0604037","URL":"http://www.redfin.com/TX/Brownwood/2425-Thomas-Dr-76801/home/110279210","distance":4.69},{"ADDRESS":"9999 17th & Avenue M","CITY":"Brownwood","STATE":"TX","ZIP":"76801","SOLD PRICE":"142000","LOT AREA":836352,"LOT ACREAGE":19.2,"PRICE PER ACRE":7396,"LATITUDE":"31.692111","LONGITUDE":"-98.988446","URL":"http://www.redfin.com/TX/Brownwood/9999-76801/home/128021935","distance":8.93}],"estimatedValue":119478},{"SITUS FULL ADDRESS":"225 CR  BROWNWOOD, TX 76801","SITUS CITY":"BROWNWOOD","ALTERNATE APN":"A0575001400","COUNTY":"BROWN","LOT AREA":843322,"LOT ACREAGE":19.36,"LATITUDE":"31.61880377","LONGITUDE":"-99.0055483","APN - UNFORMATTED":"39579","IN FLOOD ZONE":false,"OWNER MAILING NAME":"DAN HOLLEMAN","MAILING STREET ADDRESS":"500 UNIVERSITY AVE","MAIL CITY":"FAIRBANKS","MAIL STATE":"AK","MAIL ZIPZIP4":"99709-3641","MARKET TOTAL VALUE":41760,"id":27,"avgPPA":7297.5,"avgPPA2":7396,"avgPPA3":7298,"estValue":141280,"estValue2":143187,"estValue3":141289,"offer":70600,"offer1":70600,"offer2":71500,"offer3":70600,"offerPPA":0,"jasonOffer":0,"jasonEstValue":0,"statusColor":"yellow","marketValueFlag":false,"propertyLink":"https://www.google.com/search?q=225+CR+BROWNWOOD,+TX+76801","soldArr":[{"ADDRESS":"2425 Thomas Dr","CITY":"Brownwood","STATE":"TX","ZIP":"76801","SOLD PRICE":"100000","LOT AREA":605048,"LOT ACREAGE":13.89,"PRICE PER ACRE":7199,"LATITUDE":"31.687828","LONGITUDE":"-99.0604037","URL":"http://www.redfin.com/TX/Brownwood/2425-Thomas-Dr-76801/home/110279210","distance":5.76},{"ADDRESS":"9999 17th & Avenue M","CITY":"Brownwood","STATE":"TX","ZIP":"76801","SOLD PRICE":"142000","LOT AREA":836352,"LOT ACREAGE":19.2,"PRICE PER ACRE":7396,"LATITUDE":"31.692111","LONGITUDE":"-98.988446","URL":"http://www.redfin.com/TX/Brownwood/9999-76801/home/128021935","distance":5.16}],"estimatedValue":141289},{"SITUS FULL ADDRESS":"19846 N HIGHWAY 183  MAY, TX 76857","SITUS CITY":"MAY","ALTERNATE APN":"A0879000500","COUNTY":"BROWN","LOT AREA":827640,"LOT ACREAGE":19,"LATITUDE":"31.98590601","LONGITUDE":"-98.91825237","APN - UNFORMATTED":"30702","IN FLOOD ZONE":false,"OWNER MAILING NAME":"KATHLEEN GORKA","MAILING STREET ADDRESS":"19846 N HIGHWAY 183","MAIL CITY":"MAY","MAIL STATE":"TX","MAIL ZIPZIP4":"76857-2534","MARKET TOTAL VALUE":44280,"id":28,"avgPPA":null,"avgPPA2":null,"avgPPA3":0,"estValue":null,"estValue2":null,"estValue3":0,"offer":0,"offer1":null,"offer2":null,"offer3":0,"offerPPA":0,"jasonOffer":0,"jasonEstValue":0,"statusColor":"red","marketValueFlag":false,"propertyLink":"https://www.google.com/search?q=19846+N+HIGHWAY+183+MAY,+TX+76857","soldArr":[],"estimatedValue":0},{"SITUS FULL ADDRESS":"4581 COUNTY ROAD 136  BROWNWOOD, TX 76801","SITUS CITY":"BROWNWOOD","ALTERNATE APN":"A0280000101","COUNTY":"BROWN","LOT AREA":827640,"LOT ACREAGE":19,"LATITUDE":"31.72944224","LONGITUDE":"-99.07692719","APN - UNFORMATTED":"18656","IN FLOOD ZONE":false,"OWNER MAILING NAME":"DOLORES GRAY","MAILING STREET ADDRESS":"4585 COUNTY ROAD 136","MAIL CITY":"BROWNWOOD","MAIL STATE":"TX","MAIL ZIPZIP4":"76801","MARKET TOTAL VALUE":47590,"id":29,"avgPPA":4866.333333333333,"avgPPA2":4866.333333333333,"avgPPA3":4999,"estValue":92460,"estValue2":92460,"estValue3":94981,"offer":46200,"offer1":46200,"offer2":46200,"offer3":47400,"offerPPA":0,"jasonOffer":0,"jasonEstValue":0,"statusColor":"green","marketValueFlag":false,"propertyLink":"https://www.google.com/search?q=4581+COUNTY+ROAD+136+BROWNWOOD,+TX+76801","soldArr":[{"ADDRESS":"2425 Thomas Dr","CITY":"Brownwood","STATE":"TX","ZIP":"76801","SOLD PRICE":"100000","LOT AREA":605048,"LOT ACREAGE":13.89,"PRICE PER ACRE":7199,"LATITUDE":"31.687828","LONGITUDE":"-99.0604037","URL":"http://www.redfin.com/TX/Brownwood/2425-Thomas-Dr-76801/home/110279210","distance":3.03},{"ADDRESS":"12 acres Fm 586 S","CITY":"Bangs","STATE":"TX","ZIP":"76823","SOLD PRICE":"42374","LOT AREA":527381,"LOT ACREAGE":12.11,"PRICE PER ACRE":3500,"LATITUDE":"31.697977","LONGITUDE":"-99.148961","URL":"http://www.redfin.com/TX/Bangs/12-acres-Fm-586-S-76823/home/141094262","distance":4.76},{"ADDRESS":"20 County Road 178","CITY":"Bangs","STATE":"TX","ZIP":"76823","SOLD PRICE":"78000","LOT AREA":871200,"LOT ACREAGE":20,"PRICE PER ACRE":3900,"LATITUDE":"31.715006","LONGITUDE":"-99.163222","URL":"http://www.redfin.com/TX/Unknown/20-76823/home/143010044","distance":5.17},{"ADDRESS":"County Road 163","CITY":"Bangs","STATE":"TX","ZIP":"76823","SOLD PRICE":"60000","LOT AREA":871200,"LOT ACREAGE":20,"PRICE PER ACRE":3000,"LATITUDE":"31.702619","LONGITUDE":"-99.168241","URL":"http://www.redfin.com/TX/Unknown/Unknown-76823/home/113728678","distance":5.68},{"ADDRESS":"9999 17th & Avenue M","CITY":"Brownwood","STATE":"TX","ZIP":"76801","SOLD PRICE":"142000","LOT AREA":836352,"LOT ACREAGE":19.2,"PRICE PER ACRE":7396,"LATITUDE":"31.692111","LONGITUDE":"-98.988446","URL":"http://www.redfin.com/TX/Brownwood/9999-76801/home/128021935","distance":5.8}],"estimatedValue":92460},{"SITUS FULL ADDRESS":"190 CR  BROWNWOOD, TX 76801","SITUS CITY":"BROWNWOOD","ALTERNATE APN":"A0894000400","COUNTY":"BROWN","LOT AREA":818449,"LOT ACREAGE":18.79,"LATITUDE":"31.64489855","LONGITUDE":"-99.08118524","APN - UNFORMATTED":"30765","IN FLOOD ZONE":false,"OWNER MAILING NAME":"EDWIN BOENICKE","MAILING STREET ADDRESS":"5951 COUNTY ROAD 189","MAIL CITY":"BROWNWOOD","MAIL STATE":"TX","MAIL ZIPZIP4":"76801-8979","MARKET TOTAL VALUE":42450,"id":30,"avgPPA":6031.666666666667,"avgPPA2":4866.333333333333,"avgPPA3":4999,"estValue":113335,"estValue2":91438,"estValue3":93931,"offer":45700,"offer1":56600,"offer2":45700,"offer3":46900,"offerPPA":0,"jasonOffer":0,"jasonEstValue":0,"statusColor":"green","marketValueFlag":false,"propertyLink":"https://www.google.com/search?q=190+CR+BROWNWOOD,+TX+76801","soldArr":[{"ADDRESS":"2425 Thomas Dr","CITY":"Brownwood","STATE":"TX","ZIP":"76801","SOLD PRICE":"100000","LOT AREA":605048,"LOT ACREAGE":13.89,"PRICE PER ACRE":7199,"LATITUDE":"31.687828","LONGITUDE":"-99.0604037","URL":"http://www.redfin.com/TX/Brownwood/2425-Thomas-Dr-76801/home/110279210","distance":3.21},{"ADDRESS":"12 acres Fm 586 S","CITY":"Bangs","STATE":"TX","ZIP":"76823","SOLD PRICE":"42374","LOT AREA":527381,"LOT ACREAGE":12.11,"PRICE PER ACRE":3500,"LATITUDE":"31.697977","LONGITUDE":"-99.148961","URL":"http://www.redfin.com/TX/Bangs/12-acres-Fm-586-S-76823/home/141094262","distance":5.42},{"ADDRESS":"20 County Road 178","CITY":"Bangs","STATE":"TX","ZIP":"76823","SOLD PRICE":"78000","LOT AREA":871200,"LOT ACREAGE":20,"PRICE PER ACRE":3900,"LATITUDE":"31.715006","LONGITUDE":"-99.163222","URL":"http://www.redfin.com/TX/Unknown/20-76823/home/143010044","distance":6.84},{"ADDRESS":"County Road 163","CITY":"Bangs","STATE":"TX","ZIP":"76823","SOLD PRICE":"60000","LOT AREA":871200,"LOT ACREAGE":20,"PRICE PER ACRE":3000,"LATITUDE":"31.702619","LONGITUDE":"-99.168241","URL":"http://www.redfin.com/TX/Unknown/Unknown-76823/home/113728678","distance":6.49},{"ADDRESS":"9999 17th & Avenue M","CITY":"Brownwood","STATE":"TX","ZIP":"76801","SOLD PRICE":"142000","LOT AREA":836352,"LOT ACREAGE":19.2,"PRICE PER ACRE":7396,"LATITUDE":"31.692111","LONGITUDE":"-98.988446","URL":"http://www.redfin.com/TX/Brownwood/9999-76801/home/128021935","distance":6.35}],"estimatedValue":91438},{"SITUS FULL ADDRESS":"211 CR  BROOKESMITH, TX 76827","SITUS CITY":"BROOKESMITH","ALTERNATE APN":"R2024000500","COUNTY":"BROWN","LOT AREA":817621,"LOT ACREAGE":18.77,"LATITUDE":"31.5397087","LONGITUDE":"-99.11990093","APN - UNFORMATTED":"20019033","IN FLOOD ZONE":false,"OWNER MAILING NAME":"JEFFREY & THERESA LEDSOME","MAILING STREET ADDRESS":"4310 9TH ST","MAIL CITY":"BROWNWOOD","MAIL STATE":"TX","MAIL ZIPZIP4":"76801-7317","MARKET TOTAL VALUE":47480,"id":31,"avgPPA":3200,"avgPPA2":null,"avgPPA3":3200,"estValue":60064,"estValue2":null,"estValue3":60064,"offer":30000,"offer1":30000,"offer2":null,"offer3":30000,"offerPPA":0,"jasonOffer":0,"jasonEstValue":0,"statusColor":"red","marketValueFlag":false,"propertyLink":"https://www.google.com/search?q=211+CR+BROOKESMITH,+TX+76827","soldArr":[{"ADDRESS":"15805 County Road 211","CITY":"Brookesmith","STATE":"TX","ZIP":"76827","SOLD PRICE":"57952","LOT AREA":788872,"LOT ACREAGE":18.11,"PRICE PER ACRE":3200,"LATITUDE":"31.5123947","LONGITUDE":"-99.1304493","URL":"http://www.redfin.com/TX/Brookesmith/15805-County-Road-211-76827/home/146849254","distance":1.99}],"estimatedValue":60064},{"SITUS FULL ADDRESS":"134 CR  BROWNWOOD, TX 76801","SITUS CITY":"BROWNWOOD","ALTERNATE APN":"A0529000102","COUNTY":"BROWN","LOT AREA":805424,"LOT ACREAGE":18.49,"LATITUDE":"31.73192475","LONGITUDE":"-99.03270761","APN - UNFORMATTED":"20021103","IN FLOOD ZONE":false,"OWNER MAILING NAME":"BENJAMIN & TIANA BANES","MAILING STREET ADDRESS":"745 W PARK CT","MAIL CITY":"KELLER","MAIL STATE":"TX","MAIL ZIPZIP4":"76248-2512","MARKET TOTAL VALUE":43840,"id":32,"avgPPA":6698.333333333333,"avgPPA2":5533,"avgPPA3":5212,"estValue":123852,"estValue2":102305,"estValue3":96370,"offer":51100,"offer1":61900,"offer2":51100,"offer3":48100,"offerPPA":0,"jasonOffer":0,"jasonEstValue":0,"statusColor":"green","marketValueFlag":false,"propertyLink":"https://www.google.com/search?q=134+CR+BROWNWOOD,+TX+76801","soldArr":[{"ADDRESS":"2425 Thomas Dr","CITY":"Brownwood","STATE":"TX","ZIP":"76801","SOLD PRICE":"100000","LOT AREA":605048,"LOT ACREAGE":13.89,"PRICE PER ACRE":7199,"LATITUDE":"31.687828","LONGITUDE":"-99.0604037","URL":"http://www.redfin.com/TX/Brownwood/2425-Thomas-Dr-76801/home/110279210","distance":3.45},{"ADDRESS":"9999 17th & Avenue M","CITY":"Brownwood","STATE":"TX","ZIP":"76801","SOLD PRICE":"142000","LOT AREA":836352,"LOT ACREAGE":19.2,"PRICE PER ACRE":7396,"LATITUDE":"31.692111","LONGITUDE":"-98.988446","URL":"http://www.redfin.com/TX/Brownwood/9999-76801/home/128021935","distance":3.79},{"ADDRESS":"1207 N West St","CITY":"Bangs","STATE":"TX","ZIP":"76823","SOLD PRICE":"63525","LOT AREA":503118,"LOT ACREAGE":11.55,"PRICE PER ACRE":5500,"LATITUDE":"31.724709","LONGITUDE":"-99.136528","URL":"http://www.redfin.com/TX/Bangs/1207-N-West-St-76823/home/55067683","distance":6.12},{"ADDRESS":"20 County Road 178","CITY":"Bangs","STATE":"TX","ZIP":"76823","SOLD PRICE":"78000","LOT AREA":871200,"LOT ACREAGE":20,"PRICE PER ACRE":3900,"LATITUDE":"31.715006","LONGITUDE":"-99.163222","URL":"http://www.redfin.com/TX/Unknown/20-76823/home/143010044","distance":7.76},{"ADDRESS":"County Road 339","CITY":"Early","STATE":"TX","ZIP":"76802","SOLD PRICE":"47500","LOT AREA":1001880,"LOT ACREAGE":23,"PRICE PER ACRE":2065,"LATITUDE":"31.784383","LONGITUDE":"-98.924763","URL":"http://www.redfin.com/TX/Unknown/Unknown-76802/home/128970264","distance":7.3}],"estimatedValue":102305},{"SITUS FULL ADDRESS":"15605 COUNTY ROAD 211  BROOKESMITH, TX 76827","SITUS CITY":"BROOKESMITH","ALTERNATE APN":"A0960000715","COUNTY":"BROWN","LOT AREA":788872,"LOT ACREAGE":18.11,"LATITUDE":"31.51511801","LONGITUDE":"-99.12914955","APN - UNFORMATTED":"79390","IN FLOOD ZONE":false,"OWNER MAILING NAME":"TANYA & DOROTHY COOPER","MAILING STREET ADDRESS":"4027 CRESCENT DR","MAIL CITY":"GRANBURY","MAIL STATE":"TX","MAIL ZIPZIP4":"76049-5315","MARKET TOTAL VALUE":32000,"id":33,"avgPPA":3200,"avgPPA2":null,"avgPPA3":3200,"estValue":57952,"estValue2":null,"estValue3":57952,"offer":28900,"offer1":28900,"offer2":null,"offer3":28900,"offerPPA":0,"jasonOffer":0,"jasonEstValue":0,"statusColor":"red","marketValueFlag":false,"propertyLink":"https://www.google.com/search?q=15605+COUNTY+ROAD+211+BROOKESMITH,+TX+76827","soldArr":[{"ADDRESS":"15805 County Road 211","CITY":"Brookesmith","STATE":"TX","ZIP":"76827","SOLD PRICE":"57952","LOT AREA":788872,"LOT ACREAGE":18.11,"PRICE PER ACRE":3200,"LATITUDE":"31.5123947","LONGITUDE":"-99.1304493","URL":"http://www.redfin.com/TX/Brookesmith/15805-County-Road-211-76827/home/146849254","distance":0.2}],"estimatedValue":57952},{"SITUS FULL ADDRESS":"15600 HIGHWAY 377 S  BROOKESMITH, TX 76827","SITUS CITY":"BROOKESMITH","ALTERNATE APN":"A0960000709","COUNTY":"BROWN","LOT AREA":788872,"LOT ACREAGE":18.11,"LATITUDE":"31.51171918","LONGITUDE":"-99.12522163","APN - UNFORMATTED":"77316","IN FLOOD ZONE":false,"OWNER MAILING NAME":"MATTHEW & MITSY PAZ","MAILING STREET ADDRESS":"PO BOX 745","MAIL CITY":"BROOKESMITH","MAIL STATE":"TX","MAIL ZIPZIP4":"76827","MARKET TOTAL VALUE":43120,"id":34,"avgPPA":3200,"avgPPA2":null,"avgPPA3":3200,"estValue":57952,"estValue2":null,"estValue3":57952,"offer":28900,"offer1":28900,"offer2":null,"offer3":28900,"offerPPA":0,"jasonOffer":0,"jasonEstValue":0,"statusColor":"red","marketValueFlag":false,"propertyLink":"https://www.google.com/search?q=15600+HIGHWAY+377+S+BROOKESMITH,+TX+76827","soldArr":[{"ADDRESS":"15805 County Road 211","CITY":"Brookesmith","STATE":"TX","ZIP":"76827","SOLD PRICE":"57952","LOT AREA":788872,"LOT ACREAGE":18.11,"PRICE PER ACRE":3200,"LATITUDE":"31.5123947","LONGITUDE":"-99.1304493","URL":"http://www.redfin.com/TX/Brookesmith/15805-County-Road-211-76827/home/146849254","distance":0.31}],"estimatedValue":57952},{"SITUS FULL ADDRESS":"HIGHWAY 183 N  RISING STAR, TX 76471","SITUS CITY":"RISING STAR","ALTERNATE APN":"A1651000300","COUNTY":"BROWN","LOT AREA":784080,"LOT ACREAGE":18,"LATITUDE":"32.07882461","LONGITUDE":"-98.94438041","APN - UNFORMATTED":"20007588","IN FLOOD ZONE":false,"OWNER MAILING NAME":"JAY & STELLA WARE","MAILING STREET ADDRESS":"PO BOX 747","MAIL CITY":"RISING STAR","MAIL STATE":"TX","MAIL ZIPZIP4":"76471","MARKET TOTAL VALUE":41460,"id":35,"avgPPA":null,"avgPPA2":null,"avgPPA3":0,"estValue":null,"estValue2":null,"estValue3":0,"offer":0,"offer1":null,"offer2":null,"offer3":0,"offerPPA":0,"jasonOffer":0,"jasonEstValue":0,"statusColor":"red","marketValueFlag":false,"propertyLink":"https://www.google.com/search?q=HIGHWAY+183+N+RISING+STAR,+TX+76471","soldArr":[],"estimatedValue":0},{"SITUS FULL ADDRESS":"268 SLAYDEN ST  BROWNWOOD, TX 76801","SITUS CITY":"BROWNWOOD","ALTERNATE APN":"R9400000400","COUNTY":"BROWN","LOT AREA":782773,"LOT ACREAGE":17.97,"LATITUDE":"31.70443529","LONGITUDE":"-98.96030235","APN - UNFORMATTED":"45578","IN FLOOD ZONE":true,"OWNER MAILING NAME":"LARRY PERKINS","MAILING STREET ADDRESS":"100 ROBERTS LN","MAIL CITY":"EARLY","MAIL STATE":"TX","MAIL ZIPZIP4":"76802-3665","MARKET TOTAL VALUE":18020,"id":36,"avgPPA":4356.5,"avgPPA2":5640,"avgPPA3":4617,"estValue":78286,"estValue2":101351,"estValue3":82967,"offer":50600,"offer1":39100,"offer2":50600,"offer3":41400,"offerPPA":0,"jasonOffer":0,"jasonEstValue":0,"statusColor":"green","marketValueFlag":false,"propertyLink":"https://www.google.com/search?q=268+SLAYDEN+ST+BROWNWOOD,+TX+76801","soldArr":[{"ADDRESS":"9999 17th & Avenue M","CITY":"Brownwood","STATE":"TX","ZIP":"76801","SOLD PRICE":"142000","LOT AREA":836352,"LOT ACREAGE":19.2,"PRICE PER ACRE":7396,"LATITUDE":"31.692111","LONGITUDE":"-98.988446","URL":"http://www.redfin.com/TX/Brownwood/9999-76801/home/128021935","distance":1.86},{"ADDRESS":"0 Wagon Wheel, Sierra","CITY":"Brownwood","STATE":"TX","ZIP":"76801","SOLD PRICE":"90000","LOT AREA":492228,"LOT ACREAGE":11.3,"PRICE PER ACRE":7965,"LATITUDE":"31.670062","LONGITUDE":"-98.970912","URL":"http://www.redfin.com/TX/Brownwood/0-Wagon-Wheel-Sierra-76801/home/113658131","distance":2.46},{"ADDRESS":"County Road 339","CITY":"Early","STATE":"TX","ZIP":"76802","SOLD PRICE":"47500","LOT AREA":1001880,"LOT ACREAGE":23,"PRICE PER ACRE":2065,"LATITUDE":"31.784383","LONGITUDE":"-98.924763","URL":"http://www.redfin.com/TX/Unknown/Unknown-76802/home/128970264","distance":5.91},{"ADDRESS":"2425 Thomas Dr","CITY":"Brownwood","STATE":"TX","ZIP":"76801","SOLD PRICE":"100000","LOT AREA":605048,"LOT ACREAGE":13.89,"PRICE PER ACRE":7199,"LATITUDE":"31.687828","LONGITUDE":"-99.0604037","URL":"http://www.redfin.com/TX/Brownwood/2425-Thomas-Dr-76801/home/110279210","distance":6}],"estimatedValue":101351},{"SITUS FULL ADDRESS":"201 CR  BROWNWOOD, TX 76801","SITUS CITY":"BROWNWOOD","ALTERNATE APN":"A1431000202","COUNTY":"BROWN","LOT AREA":764478,"LOT ACREAGE":17.55,"LATITUDE":"31.59738633","LONGITUDE":"-99.05726852","APN - UNFORMATTED":"74340","IN FLOOD ZONE":false,"OWNER MAILING NAME":"RANDY FRAZIER","MAILING STREET ADDRESS":"9553 COUNTY ROAD 678","MAIL CITY":"ROYSE CITY","MAIL STATE":"TX","MAIL ZIPZIP4":"75189-3833","MARKET TOTAL VALUE":41030,"id":37,"avgPPA":7895.333333333333,"avgPPA2":7520,"avgPPA3":6856,"estValue":138563,"estValue2":131976,"estValue3":120323,"offer":65900,"offer1":69200,"offer2":65900,"offer3":60100,"offerPPA":0,"jasonOffer":0,"jasonEstValue":0,"statusColor":"green","marketValueFlag":false,"propertyLink":"https://www.google.com/search?q=201+CR+BROWNWOOD,+TX+76801","soldArr":[{"ADDRESS":"5727 County Road 153","CITY":"Bangs","STATE":"TX","ZIP":"76823","SOLD PRICE":"90000","LOT AREA":460037,"LOT ACREAGE":10.56,"PRICE PER ACRE":8522,"LATITUDE":"31.660565","LONGITUDE":"-99.105917","URL":"http://www.redfin.com/TX/Bangs/5727-Co-Rd-153-76823/home/55068229","distance":5.22},{"ADDRESS":"2425 Thomas Dr","CITY":"Brownwood","STATE":"TX","ZIP":"76801","SOLD PRICE":"100000","LOT AREA":605048,"LOT ACREAGE":13.89,"PRICE PER ACRE":7199,"LATITUDE":"31.687828","LONGITUDE":"-99.0604037","URL":"http://www.redfin.com/TX/Brownwood/2425-Thomas-Dr-76801/home/110279210","distance":6.25},{"ADDRESS":"15805 County Road 211","CITY":"Brookesmith","STATE":"TX","ZIP":"76827","SOLD PRICE":"57952","LOT AREA":788872,"LOT ACREAGE":18.11,"PRICE PER ACRE":3200,"LATITUDE":"31.5123947","LONGITUDE":"-99.1304493","URL":"http://www.redfin.com/TX/Brookesmith/15805-County-Road-211-76827/home/146849254","distance":7.28},{"ADDRESS":"0 Wagon Wheel, Sierra","CITY":"Brownwood","STATE":"TX","ZIP":"76801","SOLD PRICE":"90000","LOT AREA":492228,"LOT ACREAGE":11.3,"PRICE PER ACRE":7965,"LATITUDE":"31.670062","LONGITUDE":"-98.970912","URL":"http://www.redfin.com/TX/Brownwood/0-Wagon-Wheel-Sierra-76801/home/113658131","distance":7.14},{"ADDRESS":"9999 17th & Avenue M","CITY":"Brownwood","STATE":"TX","ZIP":"76801","SOLD PRICE":"142000","LOT AREA":836352,"LOT ACREAGE":19.2,"PRICE PER ACRE":7396,"LATITUDE":"31.692111","LONGITUDE":"-98.988446","URL":"http://www.redfin.com/TX/Brownwood/9999-76801/home/128021935","distance":7.7}],"estimatedValue":131976},{"SITUS FULL ADDRESS":"186 CR  BROOKESMITH, TX 76827","SITUS CITY":"BROOKESMITH","ALTERNATE APN":"A1510000600","COUNTY":"BROWN","LOT AREA":762300,"LOT ACREAGE":17.5,"LATITUDE":"31.58692448","LONGITUDE":"-99.2021993","APN - UNFORMATTED":"36168","IN FLOOD ZONE":false,"OWNER MAILING NAME":"ANN SWANSON","MAILING STREET ADDRESS":"1502 FLAMINGO CIR","MAIL CITY":"SOUTHLAKE","MAIL STATE":"TX","MAIL ZIPZIP4":"76092-2906","MARKET TOTAL VALUE":43120,"id":38,"avgPPA":4907.333333333333,"avgPPA2":5074,"avgPPA3":4556,"estValue":85878,"estValue2":88795,"estValue3":79730,"offer":44300,"offer1":42900,"offer2":44300,"offer3":39800,"offerPPA":0,"jasonOffer":0,"jasonEstValue":0,"statusColor":"green","marketValueFlag":false,"propertyLink":"https://www.google.com/search?q=186+CR+BROOKESMITH,+TX+76827","soldArr":[{"ADDRESS":"15805 County Road 211","CITY":"Brookesmith","STATE":"TX","ZIP":"76827","SOLD PRICE":"57952","LOT AREA":788872,"LOT ACREAGE":18.11,"PRICE PER ACRE":3200,"LATITUDE":"31.5123947","LONGITUDE":"-99.1304493","URL":"http://www.redfin.com/TX/Brookesmith/15805-County-Road-211-76827/home/146849254","distance":6.66},{"ADDRESS":"5727 County Road 153","CITY":"Bangs","STATE":"TX","ZIP":"76823","SOLD PRICE":"90000","LOT AREA":460037,"LOT ACREAGE":10.56,"PRICE PER ACRE":8522,"LATITUDE":"31.660565","LONGITUDE":"-99.105917","URL":"http://www.redfin.com/TX/Bangs/5727-Co-Rd-153-76823/home/55068229","distance":7.61},{"ADDRESS":"12 acres Fm 586 S","CITY":"Bangs","STATE":"TX","ZIP":"76823","SOLD PRICE":"42374","LOT AREA":527381,"LOT ACREAGE":12.11,"PRICE PER ACRE":3500,"LATITUDE":"31.697977","LONGITUDE":"-99.148961","URL":"http://www.redfin.com/TX/Bangs/12-acres-Fm-586-S-76823/home/141094262","distance":8.29},{"ADDRESS":"County Road 163","CITY":"Bangs","STATE":"TX","ZIP":"76823","SOLD PRICE":"60000","LOT AREA":871200,"LOT ACREAGE":20,"PRICE PER ACRE":3000,"LATITUDE":"31.702619","LONGITUDE":"-99.168241","URL":"http://www.redfin.com/TX/Unknown/Unknown-76823/home/113728678","distance":8.24}],"estimatedValue":88795},{"SITUS FULL ADDRESS":"461 CR  BROWNWOOD, TX 76801","SITUS CITY":"BROWNWOOD","ALTERNATE APN":"A0931-0010-11","COUNTY":"BROWN","LOT AREA":759686,"LOT ACREAGE":17.44,"LATITUDE":"31.83484431","LONGITUDE":"-99.05600727","APN - UNFORMATTED":"20048911","IN FLOOD ZONE":false,"OWNER MAILING NAME":"BILLY WEEDON","MAILING STREET ADDRESS":"8676 COUNTY ROAD 461","MAIL CITY":"BROWNWOOD","MAIL STATE":"TX","MAIL ZIPZIP4":"76801","MARKET TOTAL VALUE":34880,"id":39,"avgPPA":5972.666666666667,"avgPPA2":7926.5,"avgPPA3":5973,"estValue":104163,"estValue2":138238,"estValue3":104169,"offer":52000,"offer1":52000,"offer2":69100,"offer3":52000,"offerPPA":0,"jasonOffer":0,"jasonEstValue":0,"statusColor":"yellow","marketValueFlag":false,"propertyLink":"https://www.google.com/search?q=461+CR+BROWNWOOD,+TX+76801","soldArr":[{"ADDRESS":"102 Reynolds Ln","CITY":"Brownwood","STATE":"TX","ZIP":"76801","SOLD PRICE":"149900","LOT AREA":630705,"LOT ACREAGE":14.48,"PRICE PER ACRE":10353,"LATITUDE":"31.876779","LONGITUDE":"-99.118275","URL":"http://www.redfin.com/TX/BROWNWOOD/102-REYNOLDS-LN-76801/home/74976095","distance":4.66},{"ADDRESS":"County Road 339","CITY":"Early","STATE":"TX","ZIP":"76802","SOLD PRICE":"47500","LOT AREA":1001880,"LOT ACREAGE":23,"PRICE PER ACRE":2065,"LATITUDE":"31.784383","LONGITUDE":"-98.924763","URL":"http://www.redfin.com/TX/Unknown/Unknown-76802/home/128970264","distance":8.46},{"ADDRESS":"1207 N West St","CITY":"Bangs","STATE":"TX","ZIP":"76823","SOLD PRICE":"63525","LOT AREA":503118,"LOT ACREAGE":11.55,"PRICE PER ACRE":5500,"LATITUDE":"31.724709","LONGITUDE":"-99.136528","URL":"http://www.redfin.com/TX/Bangs/1207-N-West-St-76823/home/55067683","distance":8.96}],"estimatedValue":104169},{"SITUS FULL ADDRESS":"146 CR  BROWNWOOD, TX 76801","SITUS CITY":"BROWNWOOD","ALTERNATE APN":"A0188000300","COUNTY":"BROWN","LOT AREA":754024,"LOT ACREAGE":17.31,"LATITUDE":"31.82870658","LONGITUDE":"-99.20003785","APN - UNFORMATTED":"15865","IN FLOOD ZONE":true,"OWNER MAILING NAME":"BRENT BROOKE","MAILING STREET ADDRESS":"PO BOX 277","MAIL CITY":"BANGS","MAIL STATE":"TX","MAIL ZIPZIP4":"76823","MARKET TOTAL VALUE":40530,"id":40,"avgPPA":4938.25,"avgPPA2":4938.25,"avgPPA3":4266,"estValue":85481,"estValue2":85481,"estValue3":73844,"offer":42700,"offer1":42700,"offer2":42700,"offer3":36900,"offerPPA":0,"jasonOffer":0,"jasonEstValue":0,"statusColor":"green","marketValueFlag":false,"propertyLink":"https://www.google.com/search?q=146+CR+BROWNWOOD,+TX+76801","soldArr":[{"ADDRESS":"102 Reynolds Ln","CITY":"Brownwood","STATE":"TX","ZIP":"76801","SOLD PRICE":"149900","LOT AREA":630705,"LOT ACREAGE":14.48,"PRICE PER ACRE":10353,"LATITUDE":"31.876779","LONGITUDE":"-99.118275","URL":"http://www.redfin.com/TX/BROWNWOOD/102-REYNOLDS-LN-76801/home/74976095","distance":5.84},{"ADDRESS":"20 County Road 178","CITY":"Bangs","STATE":"TX","ZIP":"76823","SOLD PRICE":"78000","LOT AREA":871200,"LOT ACREAGE":20,"PRICE PER ACRE":3900,"LATITUDE":"31.715006","LONGITUDE":"-99.163222","URL":"http://www.redfin.com/TX/Unknown/20-76823/home/143010044","distance":8.15},{"ADDRESS":"County Road 163","CITY":"Bangs","STATE":"TX","ZIP":"76823","SOLD PRICE":"60000","LOT AREA":871200,"LOT ACREAGE":20,"PRICE PER ACRE":3000,"LATITUDE":"31.702619","LONGITUDE":"-99.168241","URL":"http://www.redfin.com/TX/Unknown/Unknown-76823/home/113728678","distance":8.91},{"ADDRESS":"1207 N West St","CITY":"Bangs","STATE":"TX","ZIP":"76823","SOLD PRICE":"63525","LOT AREA":503118,"LOT ACREAGE":11.55,"PRICE PER ACRE":5500,"LATITUDE":"31.724709","LONGITUDE":"-99.136528","URL":"http://www.redfin.com/TX/Bangs/1207-N-West-St-76823/home/55067683","distance":8.1}],"estimatedValue":85481},{"SITUS FULL ADDRESS":"25500 STATE HIGHWAY 279  CROSS PLAINS, TX 76443","SITUS CITY":"CROSS PLAINS","ALTERNATE APN":"A0904000106","COUNTY":"BROWN","LOT AREA":752586,"LOT ACREAGE":17.28,"LATITUDE":"32.07593581","LONGITUDE":"-99.15107048","APN - UNFORMATTED":"20004373","IN FLOOD ZONE":false,"OWNER MAILING NAME":"TOMMY & PENNY WILLIAMS","MAILING STREET ADDRESS":"1109 MERIWOOD DR","MAIL CITY":"LEWISVILLE","MAIL STATE":"TX","MAIL ZIPZIP4":"75067-5049","MARKET TOTAL VALUE":48310,"id":41,"avgPPA":6630,"avgPPA2":null,"avgPPA3":6630,"estValue":114566,"estValue2":null,"estValue3":114566,"offer":57200,"offer1":57200,"offer2":null,"offer3":57200,"offerPPA":0,"jasonOffer":0,"jasonEstValue":0,"statusColor":"red","marketValueFlag":false,"propertyLink":"https://www.google.com/search?q=25500+STATE+HIGHWAY+279+CROSS+PLAINS,+TX+76443","soldArr":[{"ADDRESS":"21900 State Highway 279","CITY":"Cross Plains","STATE":"TX","ZIP":"76443","SOLD PRICE":"134000","LOT AREA":880348,"LOT ACREAGE":20.21,"PRICE PER ACRE":6630,"LATITUDE":"32.022816","LONGITUDE":"-99.128397","URL":"http://www.redfin.com/TX/Cross-Plains/21900-TX-279-76443/home/55041906","distance":3.9}],"estimatedValue":114566},{"SITUS FULL ADDRESS":"HIGHWAY 67-377  BLANKET, TX 76432","SITUS CITY":"BLANKET","ALTERNATE APN":"A1951001400","COUNTY":"BROWN","LOT AREA":746618,"LOT ACREAGE":17.14,"LATITUDE":"31.83209153","LONGITUDE":"-98.77987477","APN - UNFORMATTED":"37689","IN FLOOD ZONE":true,"OWNER MAILING NAME":"MELVIN MORGAN","MAILING STREET ADDRESS":"1813 11TH ST","MAIL CITY":"BROWNWOOD","MAIL STATE":"TX","MAIL ZIPZIP4":"76801-5352","MARKET TOTAL VALUE":46190,"id":42,"avgPPA":null,"avgPPA2":null,"avgPPA3":0,"estValue":null,"estValue2":null,"estValue3":0,"offer":0,"offer1":null,"offer2":null,"offer3":0,"offerPPA":0,"jasonOffer":0,"jasonEstValue":0,"statusColor":"red","marketValueFlag":false,"propertyLink":"https://www.google.com/search?q=HIGHWAY+67-377+BLANKET,+TX+76432","soldArr":[],"estimatedValue":0},{"SITUS FULL ADDRESS":"FM 586 E  BROWNWOOD, TX 76801","SITUS CITY":"BROWNWOOD","ALTERNATE APN":"A0723000301","COUNTY":"BROWN","LOT AREA":741348,"LOT ACREAGE":17.02,"LATITUDE":"31.50118587","LONGITUDE":"-98.96560453","APN - UNFORMATTED":"71876","IN FLOOD ZONE":false,"OWNER MAILING NAME":"JAMES & ANN BAILIFF","MAILING STREET ADDRESS":"PO BOX 2225","MAIL CITY":"BROWNWOOD","MAIL STATE":"TX","MAIL ZIPZIP4":"76804-2225","MARKET TOTAL VALUE":44020,"id":43,"avgPPA":null,"avgPPA2":null,"avgPPA3":0,"estValue":null,"estValue2":null,"estValue3":0,"offer":0,"offer1":null,"offer2":null,"offer3":0,"offerPPA":0,"jasonOffer":0,"jasonEstValue":0,"statusColor":"red","marketValueFlag":false,"propertyLink":"https://www.google.com/search?q=FM+586+E+BROWNWOOD,+TX+76801","soldArr":[],"estimatedValue":0},{"SITUS FULL ADDRESS":"9559 COUNTY ROAD 133  BROWNWOOD, TX 76801","SITUS CITY":"BROWNWOOD","ALTERNATE APN":"A2106000101","COUNTY":"BROWN","LOT AREA":740520,"LOT ACREAGE":17,"LATITUDE":"31.85543439","LONGITUDE":"-99.15009283","APN - UNFORMATTED":"71858","IN FLOOD ZONE":false,"OWNER MAILING NAME":"DENNIS BAXTER","MAILING STREET ADDRESS":"1007 9TH ST","MAIL CITY":"BROWNWOOD","MAIL STATE":"TX","MAIL ZIPZIP4":"76801-4320","MARKET TOTAL VALUE":46180,"id":44,"avgPPA":10353,"avgPPA2":null,"avgPPA3":10353,"estValue":176001,"estValue2":null,"estValue3":176001,"offer":88000,"offer1":88000,"offer2":null,"offer3":88000,"offerPPA":0,"jasonOffer":0,"jasonEstValue":0,"statusColor":"red","marketValueFlag":false,"propertyLink":"https://www.google.com/search?q=9559+COUNTY+ROAD+133+BROWNWOOD,+TX+76801","soldArr":[{"ADDRESS":"102 Reynolds Ln","CITY":"Brownwood","STATE":"TX","ZIP":"76801","SOLD PRICE":"149900","LOT AREA":630705,"LOT ACREAGE":14.48,"PRICE PER ACRE":10353,"LATITUDE":"31.876779","LONGITUDE":"-99.118275","URL":"http://www.redfin.com/TX/BROWNWOOD/102-REYNOLDS-LN-76801/home/74976095","distance":2.38}],"estimatedValue":176001},{"SITUS FULL ADDRESS":"151 CR  BROWNWOOD, TX 76801","SITUS CITY":"BROWNWOOD","ALTERNATE APN":"A0565000103","COUNTY":"BROWN","LOT AREA":739213,"LOT ACREAGE":16.97,"LATITUDE":"31.74602423","LONGITUDE":"-99.08729757","APN - UNFORMATTED":"73591","IN FLOOD ZONE":false,"OWNER MAILING NAME":"JOHNNY & CHRISTINE TRUITT","MAILING STREET ADDRESS":"5601 COUNTY ROAD 151","MAIL CITY":"BROWNWOOD","MAIL STATE":"TX","MAIL ZIPZIP4":"76801-8607","MARKET TOTAL VALUE":43790,"id":45,"avgPPA":5399.666666666667,"avgPPA2":4300,"avgPPA3":4620,"estValue":91632,"estValue2":72971,"estValue3":78401,"offer":36400,"offer1":45800,"offer2":36400,"offer3":39200,"offerPPA":0,"jasonOffer":0,"jasonEstValue":0,"statusColor":"green","marketValueFlag":false,"propertyLink":"https://www.google.com/search?q=151+CR+BROWNWOOD,+TX+76801","soldArr":[{"ADDRESS":"1207 N West St","CITY":"Bangs","STATE":"TX","ZIP":"76823","SOLD PRICE":"63525","LOT AREA":503118,"LOT ACREAGE":11.55,"PRICE PER ACRE":5500,"LATITUDE":"31.724709","LONGITUDE":"-99.136528","URL":"http://www.redfin.com/TX/Bangs/1207-N-West-St-76823/home/55067683","distance":3.25},{"ADDRESS":"20 County Road 178","CITY":"Bangs","STATE":"TX","ZIP":"76823","SOLD PRICE":"78000","LOT AREA":871200,"LOT ACREAGE":20,"PRICE PER ACRE":3900,"LATITUDE":"31.715006","LONGITUDE":"-99.163222","URL":"http://www.redfin.com/TX/Unknown/20-76823/home/143010044","distance":4.95},{"ADDRESS":"12 acres Fm 586 S","CITY":"Bangs","STATE":"TX","ZIP":"76823","SOLD PRICE":"42374","LOT AREA":527381,"LOT ACREAGE":12.11,"PRICE PER ACRE":3500,"LATITUDE":"31.697977","LONGITUDE":"-99.148961","URL":"http://www.redfin.com/TX/Bangs/12-acres-Fm-586-S-76823/home/141094262","distance":4.91},{"ADDRESS":"2425 Thomas Dr","CITY":"Brownwood","STATE":"TX","ZIP":"76801","SOLD PRICE":"100000","LOT AREA":605048,"LOT ACREAGE":13.89,"PRICE PER ACRE":7199,"LATITUDE":"31.687828","LONGITUDE":"-99.0604037","URL":"http://www.redfin.com/TX/Brownwood/2425-Thomas-Dr-76801/home/110279210","distance":4.32},{"ADDRESS":"County Road 163","CITY":"Bangs","STATE":"TX","ZIP":"76823","SOLD PRICE":"60000","LOT AREA":871200,"LOT ACREAGE":20,"PRICE PER ACRE":3000,"LATITUDE":"31.702619","LONGITUDE":"-99.168241","URL":"http://www.redfin.com/TX/Unknown/Unknown-76823/home/113728678","distance":5.62}],"estimatedValue":72971},{"SITUS FULL ADDRESS":"1625 COUNTY ROAD 156  BANGS, TX 76823","SITUS CITY":"BANGS","ALTERNATE APN":"A0059014610","COUNTY":"BROWN","LOT AREA":738647,"LOT ACREAGE":16.96,"LATITUDE":"31.7040825","LONGITUDE":"-99.141364","APN - UNFORMATTED":"70022","IN FLOOD ZONE":false,"OWNER MAILING NAME":"KENNETH & RITA BURIS","MAILING STREET ADDRESS":"1551 COUNTY ROAD 156","MAIL CITY":"BANGS","MAIL STATE":"TX","MAIL ZIPZIP4":"76823-5204","MARKET TOTAL VALUE":45660,"id":46,"avgPPA":4300,"avgPPA2":4300,"avgPPA3":4884,"estValue":72928,"estValue2":72928,"estValue3":82833,"offer":36400,"offer1":36400,"offer2":36400,"offer3":41400,"offerPPA":0,"jasonOffer":0,"jasonEstValue":0,"statusColor":"green","marketValueFlag":false,"propertyLink":"https://www.google.com/search?q=1625+COUNTY+ROAD+156+BANGS,+TX+76823","soldArr":[{"ADDRESS":"12 acres Fm 586 S","CITY":"Bangs","STATE":"TX","ZIP":"76823","SOLD PRICE":"42374","LOT AREA":527381,"LOT ACREAGE":12.11,"PRICE PER ACRE":3500,"LATITUDE":"31.697977","LONGITUDE":"-99.148961","URL":"http://www.redfin.com/TX/Bangs/12-acres-Fm-586-S-76823/home/141094262","distance":0.61},{"ADDRESS":"20 County Road 178","CITY":"Bangs","STATE":"TX","ZIP":"76823","SOLD PRICE":"78000","LOT AREA":871200,"LOT ACREAGE":20,"PRICE PER ACRE":3900,"LATITUDE":"31.715006","LONGITUDE":"-99.163222","URL":"http://www.redfin.com/TX/Unknown/20-76823/home/143010044","distance":1.49},{"ADDRESS":"County Road 163","CITY":"Bangs","STATE":"TX","ZIP":"76823","SOLD PRICE":"60000","LOT AREA":871200,"LOT ACREAGE":20,"PRICE PER ACRE":3000,"LATITUDE":"31.702619","LONGITUDE":"-99.168241","URL":"http://www.redfin.com/TX/Unknown/Unknown-76823/home/113728678","distance":1.58},{"ADDRESS":"1207 N West St","CITY":"Bangs","STATE":"TX","ZIP":"76823","SOLD PRICE":"63525","LOT AREA":503118,"LOT ACREAGE":11.55,"PRICE PER ACRE":5500,"LATITUDE":"31.724709","LONGITUDE":"-99.136528","URL":"http://www.redfin.com/TX/Bangs/1207-N-West-St-76823/home/55067683","distance":1.45},{"ADDRESS":"5727 County Road 153","CITY":"Bangs","STATE":"TX","ZIP":"76823","SOLD PRICE":"90000","LOT AREA":460037,"LOT ACREAGE":10.56,"PRICE PER ACRE":8522,"LATITUDE":"31.660565","LONGITUDE":"-99.105917","URL":"http://www.redfin.com/TX/Bangs/5727-Co-Rd-153-76823/home/55068229","distance":3.66}],"estimatedValue":72928},{"SITUS FULL ADDRESS":"COUNTY ROAD 367  EARLY, TX 76802","SITUS CITY":"EARLY","ALTERNATE APN":"A0056000806","COUNTY":"BROWN","LOT AREA":738778,"LOT ACREAGE":16.96,"LATITUDE":"31.85378833","LONGITUDE":"-98.91144197","APN - UNFORMATTED":"20004372","IN FLOOD ZONE":false,"OWNER MAILING NAME":"EARLA PALLETTE","MAILING STREET ADDRESS":"10400 COUNTY ROAD 367","MAIL CITY":"EARLY","MAIL STATE":"TX","MAIL ZIPZIP4":"76802-2902","MARKET TOTAL VALUE":44160,"id":47,"avgPPA":4985.666666666667,"avgPPA2":6446,"avgPPA3":4986,"estValue":84557,"estValue2":109324,"estValue3":84563,"offer":42200,"offer1":42200,"offer2":54600,"offer3":42200,"offerPPA":0,"jasonOffer":0,"jasonEstValue":0,"statusColor":"yellow","marketValueFlag":false,"propertyLink":"https://www.google.com/search?q=COUNTY+ROAD+367+EARLY,+TX+76802","soldArr":[{"ADDRESS":"County Road 339","CITY":"Early","STATE":"TX","ZIP":"76802","SOLD PRICE":"47500","LOT AREA":1001880,"LOT ACREAGE":23,"PRICE PER ACRE":2065,"LATITUDE":"31.784383","LONGITUDE":"-98.924763","URL":"http://www.redfin.com/TX/Unknown/Unknown-76802/home/128970264","distance":4.86},{"ADDRESS":"10 Sleepy Oaks Ln","CITY":"Early","STATE":"TX","ZIP":"76802","SOLD PRICE":"50000","LOT AREA":435600,"LOT ACREAGE":10,"PRICE PER ACRE":5000,"LATITUDE":"31.747776","LONGITUDE":"-98.888205","URL":"http://www.redfin.com/TX/Unknown/10-Sleepy-Oaks-Ln-76802/home/147564609","distance":7.45},{"ADDRESS":"500 Sunrise St","CITY":"Early","STATE":"TX","ZIP":"76802","SOLD PRICE":"79000","LOT AREA":436036,"LOT ACREAGE":10.01,"PRICE PER ACRE":7892,"LATITUDE":"31.7415963","LONGITUDE":"-98.9319944","URL":"http://www.redfin.com/TX/Early/500-Sunrise-Dr-76802/home/55043582","distance":7.84}],"estimatedValue":84563},{"SITUS FULL ADDRESS":"9650 COUNTY ROAD 133  BROWNWOOD, TX 76801","SITUS CITY":"BROWNWOOD","ALTERNATE APN":"A0849000600","COUNTY":"BROWN","LOT AREA":737471,"LOT ACREAGE":16.93,"LATITUDE":"31.86124581","LONGITUDE":"-99.15306568","APN - UNFORMATTED":"30509","IN FLOOD ZONE":false,"OWNER MAILING NAME":"CECIL & PHYLLIS HARLIEN","MAILING STREET ADDRESS":"PO BOX 1528","MAIL CITY":"BROWNWOOD","MAIL STATE":"TX","MAIL ZIPZIP4":"76804-1528","MARKET TOTAL VALUE":41250,"id":48,"avgPPA":10353,"avgPPA2":null,"avgPPA3":10353,"estValue":175276,"estValue2":null,"estValue3":175276,"offer":87600,"offer1":87600,"offer2":null,"offer3":87600,"offerPPA":0,"jasonOffer":0,"jasonEstValue":0,"statusColor":"red","marketValueFlag":false,"propertyLink":"https://www.google.com/search?q=9650+COUNTY+ROAD+133+BROWNWOOD,+TX+76801","soldArr":[{"ADDRESS":"102 Reynolds Ln","CITY":"Brownwood","STATE":"TX","ZIP":"76801","SOLD PRICE":"149900","LOT AREA":630705,"LOT ACREAGE":14.48,"PRICE PER ACRE":10353,"LATITUDE":"31.876779","LONGITUDE":"-99.118275","URL":"http://www.redfin.com/TX/BROWNWOOD/102-REYNOLDS-LN-76801/home/74976095","distance":2.31}],"estimatedValue":175276},{"SITUS FULL ADDRESS":"9211 FM 45 S  BROWNWOOD, TX 76801","SITUS CITY":"BROWNWOOD","ALTERNATE APN":"A1536000106","COUNTY":"BROWN","LOT AREA":731503,"LOT ACREAGE":16.79,"LATITUDE":"31.61031969","LONGITUDE":"-98.93540504","APN - UNFORMATTED":"20004809","IN FLOOD ZONE":false,"OWNER MAILING NAME":"ALAN MAYNARD & MARY LYNN","MAILING STREET ADDRESS":"9211 FM 45 S","MAIL CITY":"BROWNWOOD","MAIL STATE":"TX","MAIL ZIPZIP4":"76801","MARKET TOTAL VALUE":35040,"id":49,"avgPPA":7680.5,"avgPPA2":7965,"avgPPA3":7681,"estValue":128956,"estValue2":133732,"estValue3":128964,"offer":64400,"offer1":64400,"offer2":66800,"offer3":64400,"offerPPA":0,"jasonOffer":0,"jasonEstValue":0,"statusColor":"yellow","marketValueFlag":false,"propertyLink":"https://www.google.com/search?q=9211+FM+45+S+BROWNWOOD,+TX+76801","soldArr":[{"ADDRESS":"0 Wagon Wheel, Sierra","CITY":"Brownwood","STATE":"TX","ZIP":"76801","SOLD PRICE":"90000","LOT AREA":492228,"LOT ACREAGE":11.3,"PRICE PER ACRE":7965,"LATITUDE":"31.670062","LONGITUDE":"-98.970912","URL":"http://www.redfin.com/TX/Brownwood/0-Wagon-Wheel-Sierra-76801/home/113658131","distance":4.63},{"ADDRESS":"9999 17th & Avenue M","CITY":"Brownwood","STATE":"TX","ZIP":"76801","SOLD PRICE":"142000","LOT AREA":836352,"LOT ACREAGE":19.2,"PRICE PER ACRE":7396,"LATITUDE":"31.692111","LONGITUDE":"-98.988446","URL":"http://www.redfin.com/TX/Brownwood/9999-76801/home/128021935","distance":6.45}],"estimatedValue":128964},{"SITUS FULL ADDRESS":"FM 218  ZEPHYR, TX 76890","SITUS CITY":"ZEPHYR","ALTERNATE APN":"A0394-0002-02","COUNTY":"BROWN","LOT AREA":717869,"LOT ACREAGE":16.48,"LATITUDE":"31.6874","LONGITUDE":"-98.79385","APN - UNFORMATTED":"20050642","IN FLOOD ZONE":false,"OWNER MAILING NAME":"STEVEN & KARI MCINTYRE","MAILING STREET ADDRESS":"6432 95TH AVE NE","MAIL CITY":"LAKE STEVENS","MAIL STATE":"WA","MAIL ZIPZIP4":"98258-4006","MARKET TOTAL VALUE":45490,"id":50,"avgPPA":6446,"avgPPA2":7892,"avgPPA3":6446,"estValue":106230,"estValue2":130060,"estValue3":106230,"offer":53100,"offer1":53100,"offer2":65000,"offer3":53100,"offerPPA":0,"jasonOffer":0,"jasonEstValue":0,"statusColor":"yellow","marketValueFlag":false,"propertyLink":"https://www.google.com/search?q=FM+218+ZEPHYR,+TX+76890","soldArr":[{"ADDRESS":"10 Sleepy Oaks Ln","CITY":"Early","STATE":"TX","ZIP":"76802","SOLD PRICE":"50000","LOT AREA":435600,"LOT ACREAGE":10,"PRICE PER ACRE":5000,"LATITUDE":"31.747776","LONGITUDE":"-98.888205","URL":"http://www.redfin.com/TX/Unknown/10-Sleepy-Oaks-Ln-76802/home/147564609","distance":6.94},{"ADDRESS":"500 Sunrise St","CITY":"Early","STATE":"TX","ZIP":"76802","SOLD PRICE":"79000","LOT AREA":436036,"LOT ACREAGE":10.01,"PRICE PER ACRE":7892,"LATITUDE":"31.7415963","LONGITUDE":"-98.9319944","URL":"http://www.redfin.com/TX/Early/500-Sunrise-Dr-76802/home/55043582","distance":8.94}],"estimatedValue":106230},{"SITUS FULL ADDRESS":"7803 COUNTY ROAD 327  BLANKET, TX 76432","SITUS CITY":"BLANKET","ALTERNATE APN":"A0459-0005-02","COUNTY":"BROWN","LOT AREA":717433,"LOT ACREAGE":16.47,"LATITUDE":"31.81758782","LONGITUDE":"-98.83027942","APN - UNFORMATTED":"20048511","IN FLOOD ZONE":false,"OWNER MAILING NAME":"JAMES COFFMAN","MAILING STREET ADDRESS":"15306 LEDGEWAY PARK","MAIL CITY":"CYPRESS","MAIL STATE":"TX","MAIL ZIPZIP4":"77429","MARKET TOTAL VALUE":49870,"id":51,"avgPPA":4985.666666666667,"avgPPA2":6446,"avgPPA3":4986,"estValue":82114,"estValue2":106166,"estValue3":82119,"offer":41000,"offer1":41000,"offer2":53000,"offer3":41000,"offerPPA":0,"jasonOffer":0,"jasonEstValue":0,"statusColor":"yellow","marketValueFlag":false,"propertyLink":"https://www.google.com/search?q=7803+COUNTY+ROAD+327+BLANKET,+TX+76432","soldArr":[{"ADDRESS":"10 Sleepy Oaks Ln","CITY":"Early","STATE":"TX","ZIP":"76802","SOLD PRICE":"50000","LOT AREA":435600,"LOT ACREAGE":10,"PRICE PER ACRE":5000,"LATITUDE":"31.747776","LONGITUDE":"-98.888205","URL":"http://www.redfin.com/TX/Unknown/10-Sleepy-Oaks-Ln-76802/home/147564609","distance":5.9},{"ADDRESS":"County Road 339","CITY":"Early","STATE":"TX","ZIP":"76802","SOLD PRICE":"47500","LOT AREA":1001880,"LOT ACREAGE":23,"PRICE PER ACRE":2065,"LATITUDE":"31.784383","LONGITUDE":"-98.924763","URL":"http://www.redfin.com/TX/Unknown/Unknown-76802/home/128970264","distance":6},{"ADDRESS":"500 Sunrise St","CITY":"Early","STATE":"TX","ZIP":"76802","SOLD PRICE":"79000","LOT AREA":436036,"LOT ACREAGE":10.01,"PRICE PER ACRE":7892,"LATITUDE":"31.7415963","LONGITUDE":"-98.9319944","URL":"http://www.redfin.com/TX/Early/500-Sunrise-Dr-76802/home/55043582","distance":7.95}],"estimatedValue":82119},{"SITUS FULL ADDRESS":"275 CR  ZEPHYR, TX 76890","SITUS CITY":"ZEPHYR","ALTERNATE APN":"A0962001700","COUNTY":"BROWN","LOT AREA":716039,"LOT ACREAGE":16.44,"LATITUDE":"31.68263328","LONGITUDE":"-98.79349824","APN - UNFORMATTED":"32175","IN FLOOD ZONE":false,"OWNER MAILING NAME":"RICHARD PETTY","MAILING STREET ADDRESS":"13401 COUNTY ROAD 291","MAIL CITY":"ZEPHYR","MAIL STATE":"TX","MAIL ZIPZIP4":"76890-3101","MARKET TOTAL VALUE":42280,"id":52,"avgPPA":5000,"avgPPA2":null,"avgPPA3":5000,"estValue":82200,"estValue2":null,"estValue3":82200,"offer":41100,"offer1":41100,"offer2":null,"offer3":41100,"offerPPA":0,"jasonOffer":0,"jasonEstValue":0,"statusColor":"red","marketValueFlag":false,"propertyLink":"https://www.google.com/search?q=275+CR+ZEPHYR,+TX+76890","soldArr":[{"ADDRESS":"10 Sleepy Oaks Ln","CITY":"Early","STATE":"TX","ZIP":"76802","SOLD PRICE":"50000","LOT AREA":435600,"LOT ACREAGE":10,"PRICE PER ACRE":5000,"LATITUDE":"31.747776","LONGITUDE":"-98.888205","URL":"http://www.redfin.com/TX/Unknown/10-Sleepy-Oaks-Ln-76802/home/147564609","distance":7.16}],"estimatedValue":82200},{"SITUS FULL ADDRESS":"271 JACK RABBIT CIR  ZEPHYR, TX 76890","SITUS CITY":"ZEPHYR","ALTERNATE APN":"A0174001900","COUNTY":"BROWN","LOT AREA":715821,"LOT ACREAGE":16.43,"LATITUDE":"31.71326567","LONGITUDE":"-98.84403145","APN - UNFORMATTED":"15318","IN FLOOD ZONE":false,"OWNER MAILING NAME":"MICHAEL & JUDY BULLARD","MAILING STREET ADDRESS":"271 JACK RABBIT CIR","MAIL CITY":"ZEPHYR","MAIL STATE":"TX","MAIL ZIPZIP4":"76890-3925","MARKET TOTAL VALUE":46300,"id":53,"avgPPA":4985.666666666667,"avgPPA2":6762.666666666667,"avgPPA3":6064,"estValue":81915,"estValue2":111111,"estValue3":99632,"offer":55500,"offer1":40900,"offer2":55500,"offer3":49800,"offerPPA":0,"jasonOffer":0,"jasonEstValue":0,"statusColor":"green","marketValueFlag":false,"propertyLink":"https://www.google.com/search?q=271+JACK+RABBIT+CIR+ZEPHYR,+TX+76890","soldArr":[{"ADDRESS":"10 Sleepy Oaks Ln","CITY":"Early","STATE":"TX","ZIP":"76802","SOLD PRICE":"50000","LOT AREA":435600,"LOT ACREAGE":10,"PRICE PER ACRE":5000,"LATITUDE":"31.747776","LONGITUDE":"-98.888205","URL":"http://www.redfin.com/TX/Unknown/10-Sleepy-Oaks-Ln-76802/home/147564609","distance":3.52},{"ADDRESS":"500 Sunrise St","CITY":"Early","STATE":"TX","ZIP":"76802","SOLD PRICE":"79000","LOT AREA":436036,"LOT ACREAGE":10.01,"PRICE PER ACRE":7892,"LATITUDE":"31.7415963","LONGITUDE":"-98.9319944","URL":"http://www.redfin.com/TX/Early/500-Sunrise-Dr-76802/home/55043582","distance":5.53},{"ADDRESS":"County Road 339","CITY":"Early","STATE":"TX","ZIP":"76802","SOLD PRICE":"47500","LOT AREA":1001880,"LOT ACREAGE":23,"PRICE PER ACRE":2065,"LATITUDE":"31.784383","LONGITUDE":"-98.924763","URL":"http://www.redfin.com/TX/Unknown/Unknown-76802/home/128970264","distance":6.83},{"ADDRESS":"0 Wagon Wheel, Sierra","CITY":"Brownwood","STATE":"TX","ZIP":"76801","SOLD PRICE":"90000","LOT AREA":492228,"LOT ACREAGE":11.3,"PRICE PER ACRE":7965,"LATITUDE":"31.670062","LONGITUDE":"-98.970912","URL":"http://www.redfin.com/TX/Brownwood/0-Wagon-Wheel-Sierra-76801/home/113658131","distance":8.03},{"ADDRESS":"9999 17th & Avenue M","CITY":"Brownwood","STATE":"TX","ZIP":"76801","SOLD PRICE":"142000","LOT AREA":836352,"LOT ACREAGE":19.2,"PRICE PER ACRE":7396,"LATITUDE":"31.692111","LONGITUDE":"-98.988446","URL":"http://www.redfin.com/TX/Brownwood/9999-76801/home/128021935","distance":8.61}],"estimatedValue":111111},{"SITUS FULL ADDRESS":"114 CR  CROSS PLAINS, TX 76443","SITUS CITY":"CROSS PLAINS","ALTERNATE APN":"A0942001103","COUNTY":"BROWN","LOT AREA":711335,"LOT ACREAGE":16.33,"LATITUDE":"31.9808774","LONGITUDE":"-99.19750354","APN - UNFORMATTED":"20001784","IN FLOOD ZONE":false,"OWNER MAILING NAME":"ROBERT SHOEMAKER","MAILING STREET ADDRESS":"9609 JOMAR DR","MAIL CITY":"FAIRFAX","MAIL STATE":"VA","MAIL ZIPZIP4":"22032-2014","MARKET TOTAL VALUE":35930,"id":54,"avgPPA":8491.5,"avgPPA2":10353,"avgPPA3":8492,"estValue":138666,"estValue2":169064,"estValue3":138674,"offer":69300,"offer1":69300,"offer2":84500,"offer3":69300,"offerPPA":0,"jasonOffer":0,"jasonEstValue":0,"statusColor":"yellow","marketValueFlag":false,"propertyLink":"https://www.google.com/search?q=114+CR+CROSS+PLAINS,+TX+76443","soldArr":[{"ADDRESS":"21900 State Highway 279","CITY":"Cross Plains","STATE":"TX","ZIP":"76443","SOLD PRICE":"134000","LOT AREA":880348,"LOT ACREAGE":20.21,"PRICE PER ACRE":6630,"LATITUDE":"32.022816","LONGITUDE":"-99.128397","URL":"http://www.redfin.com/TX/Cross-Plains/21900-TX-279-76443/home/55041906","distance":4.98},{"ADDRESS":"102 Reynolds Ln","CITY":"Brownwood","STATE":"TX","ZIP":"76801","SOLD PRICE":"149900","LOT AREA":630705,"LOT ACREAGE":14.48,"PRICE PER ACRE":10353,"LATITUDE":"31.876779","LONGITUDE":"-99.118275","URL":"http://www.redfin.com/TX/BROWNWOOD/102-REYNOLDS-LN-76801/home/74976095","distance":8.56}],"estimatedValue":138674},{"SITUS FULL ADDRESS":"261 CR  ZEPHYR, TX 76890","SITUS CITY":"ZEPHYR","ALTERNATE APN":"A0970000101","COUNTY":"BROWN","LOT AREA":707850,"LOT ACREAGE":16.25,"LATITUDE":"31.63332055","LONGITUDE":"-98.79827941","APN - UNFORMATTED":"69143","IN FLOOD ZONE":false,"OWNER MAILING NAME":"DARRELL & REVA PERKINS","MAILING STREET ADDRESS":"6647 COUNTY ROAD 261","MAIL CITY":"ZEPHYR","MAIL STATE":"TX","MAIL ZIPZIP4":"76890-3731","MARKET TOTAL VALUE":40930,"id":55,"avgPPA":null,"avgPPA2":null,"avgPPA3":0,"estValue":null,"estValue2":null,"estValue3":0,"offer":0,"offer1":null,"offer2":null,"offer3":0,"offerPPA":0,"jasonOffer":0,"jasonEstValue":0,"statusColor":"red","marketValueFlag":false,"propertyLink":"https://www.google.com/search?q=261+CR+ZEPHYR,+TX+76890","soldArr":[],"estimatedValue":0},{"SITUS FULL ADDRESS":"525 CR  MAY, TX 76857","SITUS CITY":"MAY","ALTERNATE APN":"A0146000101","COUNTY":"BROWN","LOT AREA":705672,"LOT ACREAGE":16.2,"LATITUDE":"31.86478256","LONGITUDE":"-98.89183953","APN - UNFORMATTED":"20046712","IN FLOOD ZONE":false,"OWNER MAILING NAME":"BRIAN & JO FOSTER","MAILING STREET ADDRESS":"PO BOX 3365","MAIL CITY":"EARLY","MAIL STATE":"TX","MAIL ZIPZIP4":"76803-3365","MARKET TOTAL VALUE":49170,"id":56,"avgPPA":4985.666666666667,"avgPPA2":6446,"avgPPA3":4986,"estValue":80768,"estValue2":104425,"estValue3":80773,"offer":40300,"offer1":40300,"offer2":52200,"offer3":40300,"offerPPA":0,"jasonOffer":0,"jasonEstValue":0,"statusColor":"yellow","marketValueFlag":false,"propertyLink":"https://www.google.com/search?q=525+CR+MAY,+TX+76857","soldArr":[{"ADDRESS":"County Road 339","CITY":"Early","STATE":"TX","ZIP":"76802","SOLD PRICE":"47500","LOT AREA":1001880,"LOT ACREAGE":23,"PRICE PER ACRE":2065,"LATITUDE":"31.784383","LONGITUDE":"-98.924763","URL":"http://www.redfin.com/TX/Unknown/Unknown-76802/home/128970264","distance":5.88},{"ADDRESS":"10 Sleepy Oaks Ln","CITY":"Early","STATE":"TX","ZIP":"76802","SOLD PRICE":"50000","LOT AREA":435600,"LOT ACREAGE":10,"PRICE PER ACRE":5000,"LATITUDE":"31.747776","LONGITUDE":"-98.888205","URL":"http://www.redfin.com/TX/Unknown/10-Sleepy-Oaks-Ln-76802/home/147564609","distance":8.09},{"ADDRESS":"500 Sunrise St","CITY":"Early","STATE":"TX","ZIP":"76802","SOLD PRICE":"79000","LOT AREA":436036,"LOT ACREAGE":10.01,"PRICE PER ACRE":7892,"LATITUDE":"31.7415963","LONGITUDE":"-98.9319944","URL":"http://www.redfin.com/TX/Early/500-Sunrise-Dr-76802/home/55043582","distance":8.83}],"estimatedValue":80773},{"SITUS FULL ADDRESS":"291 CR  EARLY, TX 76802","SITUS CITY":"EARLY","ALTERNATE APN":"A0333000901","COUNTY":"BROWN","LOT AREA":705236,"LOT ACREAGE":16.19,"LATITUDE":"31.73387925","LONGITUDE":"-98.829388","APN - UNFORMATTED":"79522","IN FLOOD ZONE":false,"OWNER MAILING NAME":"ROBERT & JANE GRIFFIN","MAILING STREET ADDRESS":"9078 N POINT DR","MAIL CITY":"BEACH CITY","MAIL STATE":"TX","MAIL ZIPZIP4":"77523-8311","MARKET TOTAL VALUE":40800,"id":57,"avgPPA":4985.666666666667,"avgPPA2":6446,"avgPPA3":4986,"estValue":80718,"estValue2":104361,"estValue3":80723,"offer":40300,"offer1":40300,"offer2":52100,"offer3":40300,"offerPPA":0,"jasonOffer":0,"jasonEstValue":0,"statusColor":"yellow","marketValueFlag":false,"propertyLink":"https://www.google.com/search?q=291+CR+EARLY,+TX+76802","soldArr":[{"ADDRESS":"10 Sleepy Oaks Ln","CITY":"Early","STATE":"TX","ZIP":"76802","SOLD PRICE":"50000","LOT AREA":435600,"LOT ACREAGE":10,"PRICE PER ACRE":5000,"LATITUDE":"31.747776","LONGITUDE":"-98.888205","URL":"http://www.redfin.com/TX/Unknown/10-Sleepy-Oaks-Ln-76802/home/147564609","distance":3.59},{"ADDRESS":"County Road 339","CITY":"Early","STATE":"TX","ZIP":"76802","SOLD PRICE":"47500","LOT AREA":1001880,"LOT ACREAGE":23,"PRICE PER ACRE":2065,"LATITUDE":"31.784383","LONGITUDE":"-98.924763","URL":"http://www.redfin.com/TX/Unknown/Unknown-76802/home/128970264","distance":6.6},{"ADDRESS":"500 Sunrise St","CITY":"Early","STATE":"TX","ZIP":"76802","SOLD PRICE":"79000","LOT AREA":436036,"LOT ACREAGE":10.01,"PRICE PER ACRE":7892,"LATITUDE":"31.7415963","LONGITUDE":"-98.9319944","URL":"http://www.redfin.com/TX/Early/500-Sunrise-Dr-76802/home/55043582","distance":6.05}],"estimatedValue":80723},{"SITUS FULL ADDRESS":"3400 STANLEY LN  BROWNWOOD, TX 76801","SITUS CITY":"BROWNWOOD","ALTERNATE APN":"A0074000800","COUNTY":"BROWN","LOT AREA":696960,"LOT ACREAGE":16,"LATITUDE":"31.68977671","LONGITUDE":"-99.04174161","APN - UNFORMATTED":"12941","IN FLOOD ZONE":false,"OWNER MAILING NAME":"DENNIS & D'ANN SPINKS","MAILING STREET ADDRESS":"3400 STANLEY LN","MAIL CITY":"BROWNWOOD","MAIL STATE":"TX","MAIL ZIPZIP4":"76801-8917","MARKET TOTAL VALUE":47930,"id":58,"avgPPA":7705.666666666667,"avgPPA2":7520,"avgPPA3":6916,"estValue":123291,"estValue2":120320,"estValue3":110656,"offer":60100,"offer1":61600,"offer2":60100,"offer3":55300,"offerPPA":0,"jasonOffer":0,"jasonEstValue":0,"statusColor":"green","marketValueFlag":false,"propertyLink":"https://www.google.com/search?q=3400+STANLEY+LN+BROWNWOOD,+TX+76801","soldArr":[{"ADDRESS":"2425 Thomas Dr","CITY":"Brownwood","STATE":"TX","ZIP":"76801","SOLD PRICE":"100000","LOT AREA":605048,"LOT ACREAGE":13.89,"PRICE PER ACRE":7199,"LATITUDE":"31.687828","LONGITUDE":"-99.0604037","URL":"http://www.redfin.com/TX/Brownwood/2425-Thomas-Dr-76801/home/110279210","distance":1.11},{"ADDRESS":"9999 17th & Avenue M","CITY":"Brownwood","STATE":"TX","ZIP":"76801","SOLD PRICE":"142000","LOT AREA":836352,"LOT ACREAGE":19.2,"PRICE PER ACRE":7396,"LATITUDE":"31.692111","LONGITUDE":"-98.988446","URL":"http://www.redfin.com/TX/Brownwood/9999-76801/home/128021935","distance":3.14},{"ADDRESS":"5727 County Road 153","CITY":"Bangs","STATE":"TX","ZIP":"76823","SOLD PRICE":"90000","LOT AREA":460037,"LOT ACREAGE":10.56,"PRICE PER ACRE":8522,"LATITUDE":"31.660565","LONGITUDE":"-99.105917","URL":"http://www.redfin.com/TX/Bangs/5727-Co-Rd-153-76823/home/55068229","distance":4.28},{"ADDRESS":"0 Wagon Wheel, Sierra","CITY":"Brownwood","STATE":"TX","ZIP":"76801","SOLD PRICE":"90000","LOT AREA":492228,"LOT ACREAGE":11.3,"PRICE PER ACRE":7965,"LATITUDE":"31.670062","LONGITUDE":"-98.970912","URL":"http://www.redfin.com/TX/Brownwood/0-Wagon-Wheel-Sierra-76801/home/113658131","distance":4.38},{"ADDRESS":"12 acres Fm 586 S","CITY":"Bangs","STATE":"TX","ZIP":"76823","SOLD PRICE":"42374","LOT AREA":527381,"LOT ACREAGE":12.11,"PRICE PER ACRE":3500,"LATITUDE":"31.697977","LONGITUDE":"-99.148961","URL":"http://www.redfin.com/TX/Bangs/12-acres-Fm-586-S-76823/home/141094262","distance":6.33}],"estimatedValue":120320},{"SITUS FULL ADDRESS":"9400 HIGHWAY 377 S  BROOKESMITH, TX 76827","SITUS CITY":"BROOKESMITH","ALTERNATE APN":"A0178000502","COUNTY":"BROWN","LOT AREA":697091,"LOT ACREAGE":16,"LATITUDE":"31.60960469","LONGITUDE":"-99.04329981","APN - UNFORMATTED":"34772","IN FLOOD ZONE":false,"OWNER MAILING NAME":"DONNIE & JAN TIBBITTS","MAILING STREET ADDRESS":"9400 HIGHWAY 377 S","MAIL CITY":"BROOKESMITH","MAIL STATE":"TX","MAIL ZIPZIP4":"76827-4315","MARKET TOTAL VALUE":45210,"id":59,"avgPPA":7895.333333333333,"avgPPA2":7520,"avgPPA3":7136,"estValue":126325,"estValue2":120320,"estValue3":114176,"offer":60100,"offer1":63100,"offer2":60100,"offer3":57000,"offerPPA":0,"jasonOffer":0,"jasonEstValue":0,"statusColor":"green","marketValueFlag":false,"propertyLink":"https://www.google.com/search?q=9400+HIGHWAY+377+S+BROOKESMITH,+TX+76827","soldArr":[{"ADDRESS":"5727 County Road 153","CITY":"Bangs","STATE":"TX","ZIP":"76823","SOLD PRICE":"90000","LOT AREA":460037,"LOT ACREAGE":10.56,"PRICE PER ACRE":8522,"LATITUDE":"31.660565","LONGITUDE":"-99.105917","URL":"http://www.redfin.com/TX/Bangs/5727-Co-Rd-153-76823/home/55068229","distance":5.1},{"ADDRESS":"2425 Thomas Dr","CITY":"Brownwood","STATE":"TX","ZIP":"76801","SOLD PRICE":"100000","LOT AREA":605048,"LOT ACREAGE":13.89,"PRICE PER ACRE":7199,"LATITUDE":"31.687828","LONGITUDE":"-99.0604037","URL":"http://www.redfin.com/TX/Brownwood/2425-Thomas-Dr-76801/home/110279210","distance":5.5},{"ADDRESS":"0 Wagon Wheel, Sierra","CITY":"Brownwood","STATE":"TX","ZIP":"76801","SOLD PRICE":"90000","LOT AREA":492228,"LOT ACREAGE":11.3,"PRICE PER ACRE":7965,"LATITUDE":"31.670062","LONGITUDE":"-98.970912","URL":"http://www.redfin.com/TX/Brownwood/0-Wagon-Wheel-Sierra-76801/home/113658131","distance":5.96},{"ADDRESS":"301 Comanche Rd","CITY":"Brownwood","STATE":"TX","ZIP":"76801","SOLD PRICE":"42000","LOT AREA":397703,"LOT ACREAGE":9.13,"PRICE PER ACRE":4600,"LATITUDE":"31.520105","LONGITUDE":"-98.990528","URL":"http://www.redfin.com/TX/Brownwood/301-Comanche-Rd-76801/home/143476463","distance":6.92},{"ADDRESS":"9999 17th & Avenue M","CITY":"Brownwood","STATE":"TX","ZIP":"76801","SOLD PRICE":"142000","LOT AREA":836352,"LOT ACREAGE":19.2,"PRICE PER ACRE":7396,"LATITUDE":"31.692111","LONGITUDE":"-98.988446","URL":"http://www.redfin.com/TX/Brownwood/9999-76801/home/128021935","distance":6.55}],"estimatedValue":120320},{"SITUS FULL ADDRESS":"435 CR  RISING STAR, TX 76471","SITUS CITY":"RISING STAR","ALTERNATE APN":"A1516000100","COUNTY":"BROWN","LOT AREA":696960,"LOT ACREAGE":16,"LATITUDE":"32.07727352","LONGITUDE":"-99.00241211","APN - UNFORMATTED":"36225","IN FLOOD ZONE":false,"OWNER MAILING NAME":"OLENA EZZELL","MAILING STREET ADDRESS":"PO BOX 232","MAIL CITY":"RISING STAR","MAIL STATE":"TX","MAIL ZIPZIP4":"76471","MARKET TOTAL VALUE":36850,"id":60,"avgPPA":6630,"avgPPA2":null,"avgPPA3":6630,"estValue":106080,"estValue2":null,"estValue3":106080,"offer":53000,"offer1":53000,"offer2":null,"offer3":53000,"offerPPA":0,"jasonOffer":0,"jasonEstValue":0,"statusColor":"red","marketValueFlag":false,"propertyLink":"https://www.google.com/search?q=435+CR+RISING+STAR,+TX+76471","soldArr":[{"ADDRESS":"21900 State Highway 279","CITY":"Cross Plains","STATE":"TX","ZIP":"76443","SOLD PRICE":"134000","LOT AREA":880348,"LOT ACREAGE":20.21,"PRICE PER ACRE":6630,"LATITUDE":"32.022816","LONGITUDE":"-99.128397","URL":"http://www.redfin.com/TX/Cross-Plains/21900-TX-279-76443/home/55041906","distance":8.28}],"estimatedValue":106080},{"SITUS FULL ADDRESS":"200 S WIND TRL  MAY, TX 76857","SITUS CITY":"MAY","ALTERNATE APN":"A0453000112","COUNTY":"BROWN","LOT AREA":696960,"LOT ACREAGE":16,"LATITUDE":"31.87373033","LONGITUDE":"-98.89745749","APN - UNFORMATTED":"75189","IN FLOOD ZONE":false,"OWNER MAILING NAME":"GERRIT & KRISTIN TAMMINGA","MAILING STREET ADDRESS":"3900 CRESTRIDGE DR","MAIL CITY":"BROWNWOOD","MAIL STATE":"TX","MAIL ZIPZIP4":"76801-7635","MARKET TOTAL VALUE":48580,"id":61,"avgPPA":5000,"avgPPA2":null,"avgPPA3":5000,"estValue":80000,"estValue2":null,"estValue3":80000,"offer":40000,"offer1":40000,"offer2":null,"offer3":40000,"offerPPA":0,"jasonOffer":0,"jasonEstValue":0,"statusColor":"red","marketValueFlag":false,"propertyLink":"https://www.google.com/search?q=200+S+WIND+TRL+MAY,+TX+76857","soldArr":[{"ADDRESS":"10 Sleepy Oaks Ln","CITY":"Early","STATE":"TX","ZIP":"76802","SOLD PRICE":"50000","LOT AREA":435600,"LOT ACREAGE":10,"PRICE PER ACRE":5000,"LATITUDE":"31.747776","LONGITUDE":"-98.888205","URL":"http://www.redfin.com/TX/Unknown/10-Sleepy-Oaks-Ln-76802/home/147564609","distance":8.72}],"estimatedValue":80000},{"SITUS FULL ADDRESS":"351 CR  BLANKET, TX 76432","SITUS CITY":"BLANKET","ALTERNATE APN":"A0369000501","COUNTY":"BROWN","LOT AREA":693475,"LOT ACREAGE":15.92,"LATITUDE":"31.83216551","LONGITUDE":"-98.86054036","APN - UNFORMATTED":"20776","IN FLOOD ZONE":false,"OWNER MAILING NAME":"KAREN HUDSPETH","MAILING STREET ADDRESS":"9254 COUNTY ROAD 351","MAIL CITY":"BLANKET","MAIL STATE":"TX","MAIL ZIPZIP4":"76432-6044","MARKET TOTAL VALUE":34550,"id":62,"avgPPA":6446,"avgPPA2":7892,"avgPPA3":6446,"estValue":102620,"estValue2":125641,"estValue3":102620,"offer":51300,"offer1":51300,"offer2":62800,"offer3":51300,"offerPPA":0,"jasonOffer":0,"jasonEstValue":0,"statusColor":"yellow","marketValueFlag":false,"propertyLink":"https://www.google.com/search?q=351+CR+BLANKET,+TX+76432","soldArr":[{"ADDRESS":"10 Sleepy Oaks Ln","CITY":"Early","STATE":"TX","ZIP":"76802","SOLD PRICE":"50000","LOT AREA":435600,"LOT ACREAGE":10,"PRICE PER ACRE":5000,"LATITUDE":"31.747776","LONGITUDE":"-98.888205","URL":"http://www.redfin.com/TX/Unknown/10-Sleepy-Oaks-Ln-76802/home/147564609","distance":6.05},{"ADDRESS":"500 Sunrise St","CITY":"Early","STATE":"TX","ZIP":"76802","SOLD PRICE":"79000","LOT AREA":436036,"LOT ACREAGE":10.01,"PRICE PER ACRE":7892,"LATITUDE":"31.7415963","LONGITUDE":"-98.9319944","URL":"http://www.redfin.com/TX/Early/500-Sunrise-Dr-76802/home/55043582","distance":7.53}],"estimatedValue":102620},{"SITUS FULL ADDRESS":"HIGHWAY 67-84  BROWNWOOD, TX 76801","SITUS CITY":"BROWNWOOD","ALTERNATE APN":"A0672000502","COUNTY":"BROWN","LOT AREA":693649,"LOT ACREAGE":15.92,"LATITUDE":"31.7181119","LONGITUDE":"-99.05694594","APN - UNFORMATTED":"27656","IN FLOOD ZONE":false,"OWNER MAILING NAME":"CAROLYN SEARS","MAILING STREET ADDRESS":"14118 RAGUS LAKE DR","MAIL CITY":"SUGAR LAND","MAIL STATE":"TX","MAIL ZIPZIP4":"77498-2491","MARKET TOTAL VALUE":32120,"id":63,"avgPPA":6698.333333333333,"avgPPA2":6698.333333333333,"avgPPA3":6423,"estValue":106637,"estValue2":106637,"estValue3":102254,"offer":53300,"offer1":53300,"offer2":53300,"offer3":51100,"offerPPA":0,"jasonOffer":0,"jasonEstValue":0,"statusColor":"green","marketValueFlag":false,"propertyLink":"https://www.google.com/search?q=HIGHWAY+67-84+BROWNWOOD,+TX+76801","soldArr":[{"ADDRESS":"2425 Thomas Dr","CITY":"Brownwood","STATE":"TX","ZIP":"76801","SOLD PRICE":"100000","LOT AREA":605048,"LOT ACREAGE":13.89,"PRICE PER ACRE":7199,"LATITUDE":"31.687828","LONGITUDE":"-99.0604037","URL":"http://www.redfin.com/TX/Brownwood/2425-Thomas-Dr-76801/home/110279210","distance":2.1},{"ADDRESS":"5727 County Road 153","CITY":"Bangs","STATE":"TX","ZIP":"76823","SOLD PRICE":"90000","LOT AREA":460037,"LOT ACREAGE":10.56,"PRICE PER ACRE":8522,"LATITUDE":"31.660565","LONGITUDE":"-99.105917","URL":"http://www.redfin.com/TX/Bangs/5727-Co-Rd-153-76823/home/55068229","distance":4.91},