[{"SITUS FULL ADDRESS":"160 BLUE QUAIL LYTLE,TX 78052","SITUS CITY":"LYTLE","ALTERNATE APN":"0259304001001600","COUNTY":"ATASCOSA","LOT AREA":226468,"LOT ACREAGE":5.2,"LATITUDE":"29.1959452993079","LONGITUDE":"-98.7432291693941","IN FLOOD ZONE":false,"OWNER MAILING NAME":"RICARDO GARZA","MAILING STREET ADDRESS":"7426 CESSNA DR","MAIL CITY":"CORPUS CHRISTI","MAIL STATE":"TX","MAIL ZIPZIP4":"78412-5111","MARKET TOTAL VALUE":33790,"id":1,"avgPPA":13682,"avgPPA2":12753.333333333334,"avgPPA3":13381,"estValue":71146,"estValue2":66317,"estValue3":69581,"offer":35500,"offer2":33100,"offer3":34700,"offerPPA":6827,"jasonOffer":32500,"jasonEstValue":65000,"statusColor":"green","marketValueFlag":false,"soldArr":[{"ADDRESS":"1871 Quail Run Dr","CITY":"Lytle","STATE":"TX","ZIP":"78052","SOLD PRICE":"80000","LOT AREA":280962,"LOT ACREAGE":6.45,"PRICE PER ACRE":12403,"LATITUDE":"29.1739451","LONGITUDE":"-98.7318149","URL":"http://www.redfin.com/TX/Lytle/1871-Quail-Run-78052/home/48588268","distance":1.67},{"ADDRESS":"0 E Bob White Dr","CITY":"Somerset","STATE":"TX","ZIP":"78069","SOLD PRICE":"47000","LOT AREA":168577,"LOT ACREAGE":3.87,"PRICE PER ACRE":12145,"LATITUDE":"29.1814215","LONGITUDE":"-98.7082456","URL":"http://www.redfin.com/TX/Somerset/0-W-Bob-White-Dr-78069/home/143819053","distance":2.34},{"ADDRESS":"154 W Robin Lynn Dr","CITY":"Somerset","STATE":"TX","ZIP":"78069","SOLD PRICE":"65000","LOT AREA":171626,"LOT ACREAGE":3.94,"PRICE PER ACRE":16498,"LATITUDE":"29.1840335","LONGITUDE":"-98.7108128","URL":"http://www.redfin.com/TX/Somerset/154-W-Robin-Lynn-Dr-78069/home/144877031","distance":2.12},{"ADDRESS":"135 Borderbrook Dr","CITY":"Lytle","STATE":"TX","ZIP":"78052","SOLD PRICE":"65000","LOT AREA":217800,"LOT ACREAGE":5,"PRICE PER ACRE":13000,"LATITUDE":"29.233294","LONGITUDE":"-98.7964137","URL":"http://www.redfin.com/TX/Lytle/135-Borderbrook-Dr-78052/home/141567837","distance":4.12},{"ADDRESS":"95 Trophy Ln","CITY":"Poteet","STATE":"TX","ZIP":"78065","SOLD PRICE":"45000","LOT AREA":152460,"LOT ACREAGE":3.5,"PRICE PER ACRE":12857,"LATITUDE":"29.141201","LONGITUDE":"-98.680928","URL":"http://www.redfin.com/TX/Poteet/95-Trophy-Ln-78065/home/48590235","distance":5.33}]},{"SITUS FULL ADDRESS":"55 DAWNRIDGE DR POTEET,TX 78065","SITUS CITY":"POTEET","ALTERNATE APN":"0330000005000500","COUNTY":"ATASCOSA","LOT AREA":14475,"LOT ACREAGE":0.33,"LATITUDE":"29.1551434194119","LONGITUDE":"-98.591687968331","IN FLOOD ZONE":false,"OWNER MAILING NAME":"ADOLPH PRUNEDA","MAILING STREET ADDRESS":"5051 W INTERSTATE 10 #2","MAIL CITY":"SAN ANTONIO","MAIL STATE":"TX","MAIL ZIPZIP4":"78201-3564","MARKET TOTAL VALUE":6370,"id":2,"avgPPA":41667,"avgPPA2":22436,"avgPPA3":62501,"estValue":13750,"estValue2":7404,"estValue3":20625,"offer":6800,"offer2":3700,"offer3":10300,"offerPPA":20606,"jasonOffer":0,"jasonEstValue":0,"statusColor":"yellow","marketValueFlag":false,"soldArr":[{"ADDRESS":"0 Timbercreek Dr","CITY":"Poteet","STATE":"TX","ZIP":"78065","SOLD PRICE":"30000","LOT AREA":22651,"LOT ACREAGE":0.52,"PRICE PER ACRE":57693,"LATITUDE":"29.1565989","LONGITUDE":"-98.5907224","URL":"http://www.redfin.com/TX/Poteet/0-Timbercreek-78065/home/133739645","distance":0.12},{"ADDRESS":"45 Oak Krest Blvd","CITY":"Poteet","STATE":"TX","ZIP":"78065","SOLD PRICE":"35000","LOT AREA":22651,"LOT ACREAGE":0.52,"PRICE PER ACRE":67308,"LATITUDE":"29.130802","LONGITUDE":"-98.497189","URL":"http://www.redfin.com/TX/POTEET/45-OAK-KREST-BLVD-78065/home/48594302","distance":5.95}]},{"SITUS FULL ADDRESS":"15 FRIAR TUCK CIR POTEET,TX 78065","SITUS CITY":"POTEET","ALTERNATE APN":"0330500002005100","COUNTY":"ATASCOSA","LOT AREA":43560,"LOT ACREAGE":1,"LATITUDE":"29.1279267100306","LONGITUDE":"-98.5086792357389","IN FLOOD ZONE":false,"OWNER MAILING NAME":"FOREST SHERWOOD","MAILING STREET ADDRESS":"45 NOTTINGHAM DR","MAIL CITY":"POTEET","MAIL STATE":"TX","MAIL ZIPZIP4":"78065-5046","MARKET TOTAL VALUE":11500,"id":3,"avgPPA":39862,"avgPPA2":37564.333333333336,"avgPPA3":40456,"estValue":39862,"estValue2":37564,"estValue3":40456,"offer":19900,"offer2":18700,"offer3":20200,"offerPPA":19900,"jasonOffer":0,"jasonEstValue":0,"statusColor":"green","marketValueFlag":false,"soldArr":[{"ADDRESS":"45 Oak Krest Blvd","CITY":"Poteet","STATE":"TX","ZIP":"78065","SOLD PRICE":"35000","LOT AREA":22651,"LOT ACREAGE":0.52,"PRICE PER ACRE":67308,"LATITUDE":"29.130802","LONGITUDE":"-98.497189","URL":"http://www.redfin.com/TX/POTEET/45-OAK-KREST-BLVD-78065/home/48594302","distance":0.72},{"ADDRESS":"24591 Trumbo Rd","CITY":"San Antonio","STATE":"TX","ZIP":"78264","SOLD PRICE":"42000","LOT AREA":60984,"LOT ACREAGE":1.4,"PRICE PER ACRE":30000,"LATITUDE":"29.149512","LONGITUDE":"-98.525988","URL":"http://www.redfin.com/TX/San-Antonio/24591-Trumbo-Rd-78264/home/48595585","distance":1.82},{"ADDRESS":"260 Broken Star Trl (lot 22)","CITY":"Poteet","STATE":"TX","ZIP":"78065","SOLD PRICE":"22500","LOT AREA":43995,"LOT ACREAGE":1.01,"PRICE PER ACRE":22278,"LATITUDE":"29.126798","LONGITUDE":"-98.57744","URL":"http://www.redfin.com/TX/Poteet/260-Broken-Star-Trl-78065/home/48597500","distance":4.15},{"ADDRESS":"0 Timbercreek Dr","CITY":"Poteet","STATE":"TX","ZIP":"78065","SOLD PRICE":"30000","LOT AREA":22651,"LOT ACREAGE":0.52,"PRICE PER ACRE":57693,"LATITUDE":"29.1565989","LONGITUDE":"-98.5907224","URL":"http://www.redfin.com/TX/Poteet/0-Timbercreek-78065/home/133739645","distance":5.33},{"ADDRESS":"0000 Shalimar Dr","CITY":"Poteet","STATE":"TX","ZIP":"78065","SOLD PRICE":"25000","LOT AREA":43560,"LOT ACREAGE":1,"PRICE PER ACRE":25000,"LATITUDE":"29.153153","LONGITUDE":"-98.596657","URL":"http://www.redfin.com/TX/Unknown/Shalimar-Rd-78065/home/48591645","distance":5.59}]},{"SITUS FULL ADDRESS":"275 NOTTINGHAM DR POTEET,TX 78065","SITUS CITY":"POTEET","ALTERNATE APN":"0330500001005100","COUNTY":"ATASCOSA","LOT AREA":52272,"LOT ACREAGE":1.2,"LATITUDE":"29.1241160897229","LONGITUDE":"-98.5064206192192","IN FLOOD ZONE":false,"OWNER MAILING NAME":"GILBERT ARREDONDO","MAILING STREET ADDRESS":"39 NOTTINGHAM DR","MAIL CITY":"POTEET","MAIL STATE":"TX","MAIL ZIPZIP4":"78065-5046","MARKET TOTAL VALUE":13800,"id":4,"avgPPA":30935,"avgPPA2":26263.333333333332,"avgPPA3":28319,"estValue":37122,"estValue2":31516,"estValue3":33983,"offer":18500,"offer2":15700,"offer3":16900,"offerPPA":15417,"jasonOffer":15000,"jasonEstValue":30000,"statusColor":"green","marketValueFlag":false,"soldArr":[{"ADDRESS":"1085 Big Leaf Rd","CITY":"San Antonio","STATE":"TX","ZIP":"78264","SOLD PRICE":"61195","LOT AREA":65775,"LOT ACREAGE":1.51,"PRICE PER ACRE":40527,"LATITUDE":"29.146958","LONGITUDE":"-98.515548","URL":"http://www.redfin.com/TX/San-Antonio/1085-Big-Leaf-Rd-78264/home/48593564","distance":1.67},{"ADDRESS":"24591 Trumbo Rd","CITY":"San Antonio","STATE":"TX","ZIP":"78264","SOLD PRICE":"42000","LOT AREA":60984,"LOT ACREAGE":1.4,"PRICE PER ACRE":30000,"LATITUDE":"29.149512","LONGITUDE":"-98.525988","URL":"http://www.redfin.com/TX/San-Antonio/24591-Trumbo-Rd-78264/home/48595585","distance":2.11},{"ADDRESS":"260 Broken Star Trl (lot 22)","CITY":"Poteet","STATE":"TX","ZIP":"78065","SOLD PRICE":"22500","LOT AREA":43995,"LOT ACREAGE":1.01,"PRICE PER ACRE":22278,"LATITUDE":"29.126798","LONGITUDE":"-98.57744","URL":"http://www.redfin.com/TX/Poteet/260-Broken-Star-Trl-78065/home/48597500","distance":4.29},{"ADDRESS":"515 Cecilia Ln","CITY":"Pleasanton","STATE":"TX","ZIP":"78064","SOLD PRICE":"29500","LOT AREA":54014,"LOT ACREAGE":1.24,"PRICE PER ACRE":23790,"LATITUDE":"29.0620133","LONGITUDE":"-98.4383156","URL":"http://www.redfin.com/TX/Pleasanton/515-Cecilia-Ln-78064/home/48583898","distance":5.94},{"ADDRESS":"0000 Shalimar Dr","CITY":"Poteet","STATE":"TX","ZIP":"78065","SOLD PRICE":"25000","LOT AREA":43560,"LOT ACREAGE":1,"PRICE PER ACRE":25000,"LATITUDE":"29.153153","LONGITUDE":"-98.596657","URL":"http://www.redfin.com/TX/Unknown/Shalimar-Rd-78065/home/48591645","distance":5.8}]},{"SITUS FULL ADDRESS":"246 SHALIMAR DR POTEET,TX 78065","SITUS CITY":"POTEET","ALTERNATE APN":"0330000004005800","COUNTY":"ATASCOSA","LOT AREA":15002,"LOT ACREAGE":0.34,"LATITUDE":"29.153743308596","LONGITUDE":"-98.5947813732949","IN FLOOD ZONE":false,"OWNER MAILING NAME":"PAULINE TRUJILLO","MAILING STREET ADDRESS":"3813 SHEEDY CT","MAIL CITY":"ANTELOPE","MAIL STATE":"CA","MAIL ZIPZIP4":"95843-4709","MARKET TOTAL VALUE":6600,"id":5,"avgPPA":41667,"avgPPA2":22436,"avgPPA3":62501,"estValue":14167,"estValue2":7628,"estValue3":21250,"offer":7000,"offer2":3800,"offer3":10600,"offerPPA":20588,"jasonOffer":0,"jasonEstValue":0,"statusColor":"yellow","marketValueFlag":false,"soldArr":[{"ADDRESS":"0 Timbercreek Dr","CITY":"Poteet","STATE":"TX","ZIP":"78065","SOLD PRICE":"30000","LOT AREA":22651,"LOT ACREAGE":0.52,"PRICE PER ACRE":57693,"LATITUDE":"29.1565989","LONGITUDE":"-98.5907224","URL":"http://www.redfin.com/TX/Poteet/0-Timbercreek-78065/home/133739645","distance":0.31},{"ADDRESS":"45 Oak Krest Blvd","CITY":"Poteet","STATE":"TX","ZIP":"78065","SOLD PRICE":"35000","LOT AREA":22651,"LOT ACREAGE":0.52,"PRICE PER ACRE":67308,"LATITUDE":"29.130802","LONGITUDE":"-98.497189","URL":"http://www.redfin.com/TX/POTEET/45-OAK-KREST-BLVD-78065/home/48594302","distance":6.1}]},{"SITUS FULL ADDRESS":"3466 EICHMAN RD POTEET,TX 78065","SITUS CITY":"POTEET","ALTERNATE APN":"0326001000000100","COUNTY":"ATASCOSA","LOT AREA":217800,"LOT ACREAGE":5,"LATITUDE":"29.1408774456089","LONGITUDE":"-98.6263864304024","IN FLOOD ZONE":false,"OWNER MAILING NAME":"VETERANS LAND BOARD","MAILING STREET ADDRESS":"10026 BIRCH FIELD DR","MAIL CITY":"SAN ANTONIO","MAIL STATE":"TX","MAIL ZIPZIP4":"78245-1720","MARKET TOTAL VALUE":29000,"id":6,"avgPPA":12400,"avgPPA2":11866.666666666666,"avgPPA3":12040,"estValue":62000,"estValue2":59333,"estValue3":60200,"offer":31000,"offer2":29600,"offer3":30100,"offerPPA":6200,"jasonOffer":35000,"jasonEstValue":70000,"statusColor":"green","marketValueFlag":false,"soldArr":[{"ADDRESS":"285 Clear Lake Dr","CITY":"Poteet","STATE":"TX","ZIP":"78065","SOLD PRICE":"68000","LOT AREA":217800,"LOT ACREAGE":5,"PRICE PER ACRE":13600,"LATITUDE":"29.144674","LONGITUDE":"-98.630344","URL":"http://www.redfin.com/TX/Poteet/285-Clear-Lake-Dr-78065/home/52281845","distance":0.35},{"ADDRESS":"23 Clear Lake Loop","CITY":"Poteet","STATE":"TX","ZIP":"78065","SOLD PRICE":"58000","LOT AREA":217800,"LOT ACREAGE":5,"PRICE PER ACRE":11600,"LATITUDE":"29.1421261","LONGITUDE":"-98.6379767","URL":"http://www.redfin.com/TX/Poteet/23-Clear-Lake-Loop-78065/home/144989739","distance":0.7},{"ADDRESS":"420 Clear Lake Loop","CITY":"Poteet","STATE":"TX","ZIP":"78065","SOLD PRICE":"60000","LOT AREA":217800,"LOT ACREAGE":5,"PRICE PER ACRE":12000,"LATITUDE":"29.143216","LONGITUDE":"-98.631737","URL":"http://www.redfin.com/TX/Poteet/420-Clear-Lake-Loop-78065/home/161378591","distance":0.36},{"ADDRESS":"21 Clear Lake Loop","CITY":"Poteet","STATE":"TX","ZIP":"78065","SOLD PRICE":"60000","LOT AREA":217800,"LOT ACREAGE":5,"PRICE PER ACRE":12000,"LATITUDE":"29.1421261","LONGITUDE":"-98.6379767","URL":"http://www.redfin.com/TX/Poteet/21-Clear-Lake-Loop-78065/home/144990097","distance":0.7},{"ADDRESS":"000 Clear Lake Loop","CITY":"Poteet","STATE":"TX","ZIP":"78065","SOLD PRICE":"55000","LOT AREA":217800,"LOT ACREAGE":5,"PRICE PER ACRE":11000,"LATITUDE":"29.1448615","LONGITUDE":"-98.6445653","URL":"http://www.redfin.com/TX/Poteet/665-Clear-Lake-Dr-78065/home/52281830","distance":1.13}]},{"SITUS FULL ADDRESS":"334 SHALIMAR DR POTEET,TX 78065","SITUS CITY":"POTEET","ALTERNATE APN":"0330000004005300","COUNTY":"ATASCOSA","LOT AREA":15002,"LOT ACREAGE":0.34,"LATITUDE":"29.1537331265965","LONGITUDE":"-98.5963452271989","IN FLOOD ZONE":false,"OWNER MAILING NAME":"MARK GALVAN & ERICKA GARCIA","MAILING STREET ADDRESS":"370 SHALIMAR DR","MAIL CITY":"POTEET","MAIL STATE":"TX","MAIL ZIPZIP4":"78065-4564","MARKET TOTAL VALUE":6600,"id":7,"avgPPA":41667,"avgPPA2":22436,"avgPPA3":62501,"estValue":14167,"estValue2":7628,"estValue3":21250,"offer":7000,"offer2":3800,"offer3":10600,"offerPPA":20588,"jasonOffer":0,"jasonEstValue":0,"statusColor":"yellow","marketValueFlag":false,"soldArr":[{"ADDRESS":"0 Timbercreek Dr","CITY":"Poteet","STATE":"TX","ZIP":"78065","SOLD PRICE":"30000","LOT AREA":22651,"LOT ACREAGE":0.52,"PRICE PER ACRE":57693,"LATITUDE":"29.1565989","LONGITUDE":"-98.5907224","URL":"http://www.redfin.com/TX/Poteet/0-Timbercreek-78065/home/133739645","distance":0.39},{"ADDRESS":"45 Oak Krest Blvd","CITY":"Poteet","STATE":"TX","ZIP":"78065","SOLD PRICE":"35000","LOT AREA":22651,"LOT ACREAGE":0.52,"PRICE PER ACRE":67308,"LATITUDE":"29.130802","LONGITUDE":"-98.497189","URL":"http://www.redfin.com/TX/POTEET/45-OAK-KREST-BLVD-78065/home/48594302","distance":6.19}]},{"SITUS FULL ADDRESS":"175 VIEWPOINT DR POTEET,TX 78065","SITUS CITY":"POTEET","ALTERNATE APN":"0330000004001100","COUNTY":"ATASCOSA","LOT AREA":15002,"LOT ACREAGE":0.34,"LATITUDE":"29.1541642453095","LONGITUDE":"-98.5935267358091","IN FLOOD ZONE":false,"OWNER MAILING NAME":"ANTONIO PALACIOS","MAILING STREET ADDRESS":"130 MCLEOD","MAIL CITY":"SAN ANTONIO","MAIL STATE":"TX","MAIL ZIPZIP4":"78201-5931","MARKET TOTAL VALUE":6600,"id":8,"avgPPA":41667,"avgPPA2":22436,"avgPPA3":62501,"estValue":14167,"estValue2":7628,"estValue3":21250,"offer":7000,"offer2":3800,"offer3":10600,"offerPPA":20588,"jasonOffer":0,"jasonEstValue":0,"statusColor":"yellow","marketValueFlag":false,"soldArr":[{"ADDRESS":"0 Timbercreek Dr","CITY":"Poteet","STATE":"TX","ZIP":"78065","SOLD PRICE":"30000","LOT AREA":22651,"LOT ACREAGE":0.52,"PRICE PER ACRE":57693,"LATITUDE":"29.1565989","LONGITUDE":"-98.5907224","URL":"http://www.redfin.com/TX/Poteet/0-Timbercreek-78065/home/133739645","distance":0.24},{"ADDRESS":"45 Oak Krest Blvd","CITY":"Poteet","STATE":"TX","ZIP":"78065","SOLD PRICE":"35000","LOT AREA":22651,"LOT ACREAGE":0.52,"PRICE PER ACRE":67308,"LATITUDE":"29.130802","LONGITUDE":"-98.497189","URL":"http://www.redfin.com/TX/POTEET/45-OAK-KREST-BLVD-78065/home/48594302","distance":6.03}]},{"SITUS FULL ADDRESS":"311 VIEWPOINT DR POTEET,TX 78065","SITUS CITY":"POTEET","ALTERNATE APN":"0330000004001800","COUNTY":"ATASCOSA","LOT AREA":36603,"LOT ACREAGE":0.84,"LATITUDE":"29.1541471636159","LONGITUDE":"-98.5961210026627","IN FLOOD ZONE":false,"OWNER MAILING NAME":"JUAN BANDA & DENISE VIRAMONTES","MAILING STREET ADDRESS":"8222 GREAT SPIRIT ST","MAIL CITY":"SAN ANTONIO","MAIL STATE":"TX","MAIL ZIPZIP4":"78242-2703","MARKET TOTAL VALUE":16100,"id":9,"avgPPA":34990.333333333336,"avgPPA2":36080,"avgPPA3":37642,"estValue":29392,"estValue2":30307,"estValue3":31619,"offer":14600,"offer2":15100,"offer3":15800,"offerPPA":17381,"jasonOffer":0,"jasonEstValue":0,"statusColor":"green","marketValueFlag":false,"soldArr":[{"ADDRESS":"0 Timbercreek Dr","CITY":"Poteet","STATE":"TX","ZIP":"78065","SOLD PRICE":"30000","LOT AREA":22651,"LOT ACREAGE":0.52,"PRICE PER ACRE":57693,"LATITUDE":"29.1565989","LONGITUDE":"-98.5907224","URL":"http://www.redfin.com/TX/Poteet/0-Timbercreek-78065/home/133739645","distance":0.37},{"ADDRESS":"0000 Shalimar Dr","CITY":"Poteet","STATE":"TX","ZIP":"78065","SOLD PRICE":"25000","LOT AREA":43560,"LOT ACREAGE":1,"PRICE PER ACRE":25000,"LATITUDE":"29.153153","LONGITUDE":"-98.596657","URL":"http://www.redfin.com/TX/Unknown/Shalimar-Rd-78065/home/48591645","distance":0.08},{"ADDRESS":"260 Broken Star Trl (lot 22)","CITY":"Poteet","STATE":"TX","ZIP":"78065","SOLD PRICE":"22500","LOT AREA":43995,"LOT ACREAGE":1.01,"PRICE PER ACRE":22278,"LATITUDE":"29.126798","LONGITUDE":"-98.57744","URL":"http://www.redfin.com/TX/Poteet/260-Broken-Star-Trl-78065/home/48597500","distance":2.2},{"ADDRESS":"LOT 30 Brandon Way","CITY":"Poteet","STATE":"TX","ZIP":"78065","SOLD PRICE":"38900","LOT AREA":32670,"LOT ACREAGE":0.75,"PRICE PER ACRE":51867,"LATITUDE":"29.1287381","LONGITUDE":"-98.6293792","URL":"http://www.redfin.com/TX/Poteet/30-Brandon-Way-78065/home/148435318","distance":2.67},{"ADDRESS":"170 Eaglerock","CITY":"Poteet","STATE":"TX","ZIP":"78064","SOLD PRICE":"32000","LOT AREA":44431,"LOT ACREAGE":1.02,"PRICE PER ACRE":31373,"LATITUDE":"29.136297","LONGITUDE":"-98.672484","URL":"http://www.redfin.com/TX/Unknown/Red-Fox-78065/home/48594940","distance":4.77}]},{"SITUS FULL ADDRESS":"2495 ROYAL OAKS DR POTEET,TX 78065","SITUS CITY":"POTEET","ALTERNATE APN":"0330000008004200","COUNTY":"ATASCOSA","LOT AREA":19532,"LOT ACREAGE":0.45,"LATITUDE":"29.1590234147877","LONGITUDE":"-98.5992595184024","IN FLOOD ZONE":true,"OWNER MAILING NAME":"LANDCO INVESTMENTS INC","MAILING STREET ADDRESS":"50 W MASHTA DR #1","MAIL CITY":"KEY BISCAYNE","MAIL STATE":"FL","MAIL ZIPZIP4":"33149-2431","MARKET TOTAL VALUE":8600,"id":10,"avgPPA":20833.5,"avgPPA2":11218,"avgPPA3":31250.5,"estValue":9375,"estValue2":5048,"estValue3":14063,"offer":4600,"offer2":2500,"offer3":7000,"offerPPA":10222,"jasonOffer":0,"jasonEstValue":0,"statusColor":"yellow","marketValueFlag":false,"soldArr":[{"ADDRESS":"0 Timbercreek Dr","CITY":"Poteet","STATE":"TX","ZIP":"78065","SOLD PRICE":"30000","LOT AREA":22651,"LOT ACREAGE":0.52,"PRICE PER ACRE":57693,"LATITUDE":"29.1565989","LONGITUDE":"-98.5907224","URL":"http://www.redfin.com/TX/Poteet/0-Timbercreek-78065/home/133739645","distance":0.54},{"ADDRESS":"45 Oak Krest Blvd","CITY":"Poteet","STATE":"TX","ZIP":"78065","SOLD PRICE":"35000","LOT AREA":22651,"LOT ACREAGE":0.52,"PRICE PER ACRE":67308,"LATITUDE":"29.130802","LONGITUDE":"-98.497189","URL":"http://www.redfin.com/TX/POTEET/45-OAK-KREST-BLVD-78065/home/48594302","distance":6.46}]},{"SITUS FULL ADDRESS":"750 BLUE QUAIL LYTLE,TX 78052","SITUS CITY":"LYTLE","ALTERNATE APN":"0259304001002900","COUNTY":"ATASCOSA","LOT AREA":100014,"LOT ACREAGE":2.3,"LATITUDE":"29.1874667870195","LONGITUDE":"-98.7434448622748","IN FLOOD ZONE":false,"OWNER MAILING NAME":"ERNESTO & MARIA PENA","MAILING STREET ADDRESS":"34683 QUAIL DR","MAIL CITY":"SAN BENITO","MAIL STATE":"TX","MAIL ZIPZIP4":"78586-6993","MARKET TOTAL VALUE":29850,"id":11,"avgPPA":25090,"avgPPA2":27078,"avgPPA3":25876,"estValue":57707,"estValue2":62279,"estValue3":59515,"offer":28800,"offer2":31100,"offer3":29700,"offerPPA":12522,"jasonOffer":24500,"jasonEstValue":49000,"statusColor":"green","marketValueFlag":false,"soldArr":[{"ADDRESS":"0 W Robin Lynn","CITY":"Somerset","STATE":"TX","ZIP":"78069","SOLD PRICE":"37500","LOT AREA":85813,"LOT ACREAGE":1.97,"PRICE PER ACRE":19036,"LATITUDE":"29.182963","LONGITUDE":"-98.706984","URL":"http://www.redfin.com/TX/Somerset/900-Forest-Oaks-Dr-78069/unit-D/home/48583256","distance":2.22},{"ADDRESS":"LOT 67 E Bob White","CITY":"Somerset","STATE":"TX","ZIP":"78069","SOLD PRICE":"54789","LOT AREA":84288,"LOT ACREAGE":1.93,"PRICE PER ACRE":28315,"LATITUDE":"29.1814253","LONGITUDE":"-98.7050578","URL":"http://www.redfin.com/TX/Somerset/67-E-Bob-White-Dr-78069/home/144540751","distance":2.35},{"ADDRESS":"0 Whitewing West Dr","CITY":"Somerset","STATE":"TX","ZIP":"78069","SOLD PRICE":"55000","LOT AREA":85813,"LOT ACREAGE":1.97,"PRICE PER ACRE":27919,"LATITUDE":"29.186984","LONGITUDE":"-98.708087","URL":"http://www.redfin.com/TX/Unknown/E-White-Wing-Dr-78069/home/48593518","distance":2.13},{"ADDRESS":"2 ACRES BY 95 Pinn Rd","CITY":"Lytle","STATE":"TX","ZIP":"78052","SOLD PRICE":"50000","LOT AREA":87120,"LOT ACREAGE":2,"PRICE PER ACRE":25000,"LATITUDE":"29.233294","LONGITUDE":"-98.7964137","URL":"http://www.redfin.com/TX/Lytle/2-ACRES-BY-95-Pinn-Rd-78052/home/144351112","distance":4.5},{"ADDRESS":"LOT 2 FM 3175","CITY":"Lytle","STATE":"TX","ZIP":"78052","SOLD PRICE":"62000","LOT AREA":92782,"LOT ACREAGE":2.13,"PRICE PER ACRE":29108,"LATITUDE":"29.233294","LONGITUDE":"-98.7964137","URL":"http://www.redfin.com/TX/Lytle/LOT-2-FM-3175-78052/home/146393592","distance":4.5}]},{"SITUS FULL ADDRESS":"404 TIMBERCREEK DR POTEET,TX 78065","SITUS CITY":"POTEET","ALTERNATE APN":"0330000007004800","COUNTY":"ATASCOSA","LOT AREA":22499,"LOT ACREAGE":0.52,"LATITUDE":"29.1569523799517","LONGITUDE":"-98.5976091691984","IN FLOOD ZONE":false,"OWNER MAILING NAME":"JOSE & GUADALUPE CERVANTES","MAILING STREET ADDRESS":"1807 CASSANDRA ST","MAIL CITY":"SAN ANTONIO","MAIL STATE":"TX","MAIL ZIPZIP4":"78224-2525","MARKET TOTAL VALUE":9900,"id":12,"avgPPA":34990.333333333336,"avgPPA2":37355.666666666664,"avgPPA3":38408,"estValue":18195,"estValue2":19425,"estValue3":19972,"offer":9000,"offer2":9700,"offer3":9900,"offerPPA":17308,"jasonOffer":0,"jasonEstValue":0,"statusColor":"green","marketValueFlag":false,"soldArr":[{"ADDRESS":"0 Timbercreek Dr","CITY":"Poteet","STATE":"TX","ZIP":"78065","SOLD PRICE":"30000","LOT AREA":22651,"LOT ACREAGE":0.52,"PRICE PER ACRE":57693,"LATITUDE":"29.1565989","LONGITUDE":"-98.5907224","URL":"http://www.redfin.com/TX/Poteet/0-Timbercreek-78065/home/133739645","distance":0.42},{"ADDRESS":"0000 Shalimar Dr","CITY":"Poteet","STATE":"TX","ZIP":"78065","SOLD PRICE":"25000","LOT AREA":43560,"LOT ACREAGE":1,"PRICE PER ACRE":25000,"LATITUDE":"29.153153","LONGITUDE":"-98.596657","URL":"http://www.redfin.com/TX/Unknown/Shalimar-Rd-78065/home/48591645","distance":0.27},{"ADDRESS":"260 Broken Star Trl (lot 22)","CITY":"Poteet","STATE":"TX","ZIP":"78065","SOLD PRICE":"22500","LOT AREA":43995,"LOT ACREAGE":1.01,"PRICE PER ACRE":22278,"LATITUDE":"29.126798","LONGITUDE":"-98.57744","URL":"http://www.redfin.com/TX/Poteet/260-Broken-Star-Trl-78065/home/48597500","distance":2.41},{"ADDRESS":"LOT 30 Brandon Way","CITY":"Poteet","STATE":"TX","ZIP":"78065","SOLD PRICE":"38900","LOT AREA":32670,"LOT ACREAGE":0.75,"PRICE PER ACRE":51867,"LATITUDE":"29.1287381","LONGITUDE":"-98.6293792","URL":"http://www.redfin.com/TX/Poteet/30-Brandon-Way-78065/home/148435318","distance":2.73},{"ADDRESS":"84 Grey Fox","CITY":"Poteet","STATE":"TX","ZIP":"78065","SOLD PRICE":"35200","LOT AREA":43560,"LOT ACREAGE":1,"PRICE PER ACRE":35200,"LATITUDE":"29.134707","LONGITUDE":"-98.673687","URL":"http://www.redfin.com/TX/Poteet/84-Grey-Fox-78065/home/146953285","distance":4.84}]},{"SITUS FULL ADDRESS":"1020 MARBACH RD SOMERSET,TX 78069","SITUS CITY":"SOMERSET","ALTERNATE APN":"0334001000000400","COUNTY":"ATASCOSA","LOT AREA":435600,"LOT ACREAGE":10,"LATITUDE":"29.1566904818661","LONGITUDE":"-98.6469996814231","IN FLOOD ZONE":false,"OWNER MAILING NAME":"EDUARDO GUERRA & MARIA REYES","MAILING STREET ADDRESS":"3720 PINE ST","MAIL CITY":"LAREDO","MAIL STATE":"TX","MAIL ZIPZIP4":"78046-6030","MARKET TOTAL VALUE":60000,"id":13,"avgPPA":9089,"avgPPA2":9089,"avgPPA3":9484,"estValue":90890,"estValue2":90890,"estValue3":94840,"offer":45400,"offer2":45400,"offer3":47400,"offerPPA":4540,"jasonOffer":50000,"jasonEstValue":100000,"statusColor":"green","marketValueFlag":false,"soldArr":[{"ADDRESS":"207 Oak Ridge Dr","CITY":"Somerset","STATE":"TX","ZIP":"78069","SOLD PRICE":"130000","LOT AREA":557568,"LOT ACREAGE":12.8,"PRICE PER ACRE":10156,"LATITUDE":"29.155078","LONGITUDE":"-98.656715","URL":"http://www.redfin.com/TX/Somerset/46-Oak-Ridge-Dr-78069/home/48598405","distance":0.6},{"ADDRESS":"LOT 21, 34 Workman Rd","CITY":"Somerset","STATE":"TX","ZIP":"78069","SOLD PRICE":"50000","LOT AREA":314503,"LOT ACREAGE":7.22,"PRICE PER ACRE":6925,"LATITUDE":"29.1753164","LONGITUDE":"-98.6376417","URL":"http://www.redfin.com/TX/Somerset/2134-Workman-Rd-78069/home/153665397","distance":1.41},{"ADDRESS":"76 Mcconnell Rd","CITY":"Somerset","STATE":"TX","ZIP":"78069","SOLD PRICE":"155000","LOT AREA":493534,"LOT ACREAGE":11.33,"PRICE PER ACRE":13681,"LATITUDE":"29.1929363","LONGITUDE":"-98.6950023","URL":"http://www.redfin.com/TX/Unknown/76-Mcconnell-Rd-78069/home/161098822","distance":3.83},{"ADDRESS":"1469 Eichman","CITY":"Poteet","STATE":"TX","ZIP":"78065","SOLD PRICE":"104000","LOT AREA":444747,"LOT ACREAGE":10.21,"PRICE PER ACRE":10186,"LATITUDE":"29.112647","LONGITUDE":"-98.6305105","URL":"http://www.redfin.com/TX/Poteet/1469-Eichman-Rd-78065/home/167127452","distance":3.2},{"ADDRESS":"450 E Robin Lynn","CITY":"Somerset","STATE":"TX","ZIP":"78069","SOLD PRICE":"84500","LOT AREA":568893,"LOT ACREAGE":13.06,"PRICE PER ACRE":6470,"LATITUDE":"29.1844389","LONGITUDE":"-98.6961208","URL":"http://www.redfin.com/TX/Somerset/450-E-Robin-Lynn-Dr-78069/home/161214037","distance":3.53}]},{"SITUS FULL ADDRESS":"350 CRESTFIELD DR PLEASANTON,TX 78064","SITUS CITY":"PLEASANTON","ALTERNATE APN":"0267305000008200","COUNTY":"ATASCOSA","LOT AREA":45302,"LOT ACREAGE":1.04,"LATITUDE":"29.0063606588847","LONGITUDE":"-98.4177385079382","IN FLOOD ZONE":false,"OWNER MAILING NAME":"JOSE GUADALUPE CHAVEZ","MAILING STREET ADDRESS":"9836 STATE HIGHWAY 97 W","MAIL CITY":"FLORESVILLE","MAIL STATE":"TX","MAIL ZIPZIP4":"78114","MARKET TOTAL VALUE":31200,"id":14,"avgPPA":29596.666666666668,"avgPPA2":29666.666666666668,"avgPPA3":28198,"estValue":30781,"estValue2":30853,"estValue3":29326,"offer":15300,"offer2":15400,"offer3":14600,"offerPPA":14712,"jasonOffer":17000,"jasonEstValue":34000,"statusColor":"green","marketValueFlag":false,"soldArr":[{"ADDRESS":"515 Cecilia Ln","CITY":"Pleasanton","STATE":"TX","ZIP":"78064","SOLD PRICE":"29500","LOT AREA":54014,"LOT ACREAGE":1.24,"PRICE PER ACRE":23790,"LATITUDE":"29.0620133","LONGITUDE":"-98.4383156","URL":"http://www.redfin.com/TX/Pleasanton/515-Cecilia-Ln-78064/home/48583898","distance":4.04},{"ADDRESS":"T.B.D. Massad Dr","CITY":"Pleasanton","STATE":"TX","ZIP":"78064","SOLD PRICE":"32500","LOT AREA":43560,"LOT ACREAGE":1,"PRICE PER ACRE":32500,"LATITUDE":"28.9791782","LONGITUDE":"-98.508616","URL":"http://www.redfin.com/TX/Pleasanton/T-B-D-Massad-St-78064/home/147409557","distance":5.8},{"ADDRESS":"TBD Massad Dr","CITY":"Pleasanton","STATE":"TX","ZIP":"78064","SOLD PRICE":"32500","LOT AREA":43560,"LOT ACREAGE":1,"PRICE PER ACRE":32500,"LATITUDE":"28.9791782","LONGITUDE":"-98.508616","URL":"http://www.redfin.com/TX/Pleasanton/TBD-Massad-St-78064/home/147409137","distance":5.8},{"ADDRESS":"002 Howard Rd","CITY":"Poteet","STATE":"TX","ZIP":"78065","SOLD PRICE":"24000","LOT AREA":43560,"LOT ACREAGE":1,"PRICE PER ACRE":24000,"LATITUDE":"29.030852","LONGITUDE":"-98.5632499","URL":"http://www.redfin.com/TX/Poteet/002-Howard-Rd-78065/home/108587164","distance":8.95}]},{"SITUS FULL ADDRESS":"40 LAKEVIEW DR PLEASANTON,TX 78064","SITUS CITY":"PLEASANTON","ALTERNATE APN":"0209703000006500","COUNTY":"ATASCOSA","LOT AREA":19994,"LOT ACREAGE":0.46,"LATITUDE":"29.0029673956844","LONGITUDE":"-98.4077451677177","IN FLOOD ZONE":false,"OWNER MAILING NAME":"MIGUEL TOBIAS","MAILING STREET ADDRESS":"20 LAKEVIEW DR","MAIL CITY":"PLEASANTON","MAIL STATE":"TX","MAIL ZIPZIP4":"78064-6816","MARKET TOTAL VALUE":25000,"id":15,"avgPPA":46240,"avgPPA2":31968.666666666668,"avgPPA3":46240,"estValue":21270,"estValue2":14706,"estValue3":21270,"offer":10600,"offer2":7300,"offer3":10600,"offerPPA":23043,"jasonOffer":0,"jasonEstValue":0,"statusColor":"yellow","marketValueFlag":false,"soldArr":[{"ADDRESS":"TBD Trade","CITY":"Pleasanton","STATE":"TX","ZIP":"78064","SOLD PRICE":"13500","LOT AREA":13590,"LOT ACREAGE":0.31,"PRICE PER ACRE":43272,"LATITUDE":"28.967194","LONGITUDE":"-98.4786269","URL":"http://www.redfin.com/TX/Pleasanton/TBD-Trade-78064/home/113733116","distance":4.95},{"ADDRESS":"TBD Sanchez Ave","CITY":"Pleasanton","STATE":"TX","ZIP":"78064","SOLD PRICE":"14000","LOT AREA":14244,"LOT ACREAGE":0.33,"PRICE PER ACRE":42814,"LATITUDE":"28.967194","LONGITUDE":"-98.4786269","URL":"http://www.redfin.com/TX/Pleasanton/TBD-Sanchez-Ave-78064/home/113732993","distance":4.95},{"ADDRESS":"000 Depot","CITY":"Pleasanton","STATE":"TX","ZIP":"78064","SOLD PRICE":"20000","LOT AREA":16552,"LOT ACREAGE":0.38,"PRICE PER ACRE":52634,"LATITUDE":"28.962369","LONGITUDE":"-98.477408","URL":"http://www.redfin.com/TX/Pleasanton/Depot-St-78064/home/48597391","distance":5.06}]},{"SITUS FULL ADDRESS":"270 MARY ANN DR LYTLE,TX 78052","SITUS CITY":"LYTLE","ALTERNATE APN":"0259305002021700","COUNTY":"ATASCOSA","LOT AREA":100014,"LOT ACREAGE":2.3,"LATITUDE":"29.1788330671371","LONGITUDE":"-98.7379295064312","IN FLOOD ZONE":false,"OWNER MAILING NAME":"MACIO & JOHNNIE TENNIE","MAILING STREET ADDRESS":"7143 HALLIE CIR","MAIL CITY":"SAN ANTONIO","MAIL STATE":"TX","MAIL ZIPZIP4":"78227-4862","MARKET TOTAL VALUE":29850,"id":16,"avgPPA":25090,"avgPPA2":27078,"avgPPA3":25876,"estValue":57707,"estValue2":62279,"estValue3":59515,"offer":28800,"offer2":31100,"offer3":29700,"offerPPA":12522,"jasonOffer":24500,"jasonEstValue":49000,"statusColor":"green","marketValueFlag":false,"soldArr":[{"ADDRESS":"0 W Robin Lynn","CITY":"Somerset","STATE":"TX","ZIP":"78069","SOLD PRICE":"37500","LOT AREA":85813,"LOT ACREAGE":1.97,"PRICE PER ACRE":19036,"LATITUDE":"29.182963","LONGITUDE":"-98.706984","URL":"http://www.redfin.com/TX/Somerset/900-Forest-Oaks-Dr-78069/unit-D/home/48583256","distance":1.89},{"ADDRESS":"LOT 67 E Bob White","CITY":"Somerset","STATE":"TX","ZIP":"78069","SOLD PRICE":"54789","LOT AREA":84288,"LOT ACREAGE":1.93,"PRICE PER ACRE":28315,"LATITUDE":"29.1814253","LONGITUDE":"-98.7050578","URL":"http://www.redfin.com/TX/Somerset/67-E-Bob-White-Dr-78069/home/144540751","distance":1.99},{"ADDRESS":"0 Whitewing West Dr","CITY":"Somerset","STATE":"TX","ZIP":"78069","SOLD PRICE":"55000","LOT AREA":85813,"LOT ACREAGE":1.97,"PRICE PER ACRE":27919,"LATITUDE":"29.186984","LONGITUDE":"-98.708087","URL":"http://www.redfin.com/TX/Unknown/E-White-Wing-Dr-78069/home/48593518","distance":1.89},{"ADDRESS":"2 ACRES BY 95 Pinn Rd","CITY":"Lytle","STATE":"TX","ZIP":"78052","SOLD PRICE":"50000","LOT AREA":87120,"LOT ACREAGE":2,"PRICE PER ACRE":25000,"LATITUDE":"29.233294","LONGITUDE":"-98.7964137","URL":"http://www.redfin.com/TX/Lytle/2-ACRES-BY-95-Pinn-Rd-78052/home/144351112","distance":5.16},{"ADDRESS":"LOT 2 FM 3175","CITY":"Lytle","STATE":"TX","ZIP":"78052","SOLD PRICE":"62000","LOT AREA":92782,"LOT ACREAGE":2.13,"PRICE PER ACRE":29108,"LATITUDE":"29.233294","LONGITUDE":"-98.7964137","URL":"http://www.redfin.com/TX/Lytle/LOT-2-FM-3175-78052/home/146393592","distance":5.16}]},{"SITUS FULL ADDRESS":"531 BRANDYWINE DR POTEET,TX 78065","SITUS CITY":"POTEET","ALTERNATE APN":"0330000007003101","COUNTY":"ATASCOSA","LOT AREA":30000,"LOT ACREAGE":0.69,"LATITUDE":"29.1576602914772","LONGITUDE":"-98.5997054739722","IN FLOOD ZONE":true,"OWNER MAILING NAME":"SOMERSET ISD (TRUSTEE)","MAILING STREET ADDRESS":"19644 SOMERSET RD","MAIL CITY":"SOMERSET","MAIL STATE":"TX","MAIL ZIPZIP4":"78069-3317","MARKET TOTAL VALUE":6600,"id":17,"avgPPA":17495.166666666668,"avgPPA2":18040,"avgPPA3":18821,"estValue":12072,"estValue2":12448,"estValue3":12986,"offer":6000,"offer2":6200,"offer3":6400,"offerPPA":8696,"jasonOffer":0,"jasonEstValue":0,"statusColor":"green","marketValueFlag":false,"soldArr":[{"ADDRESS":"0 Timbercreek Dr","CITY":"Poteet","STATE":"TX","ZIP":"78065","SOLD PRICE":"30000","LOT AREA":22651,"LOT ACREAGE":0.52,"PRICE PER ACRE":57693,"LATITUDE":"29.1565989","LONGITUDE":"-98.5907224","URL":"http://www.redfin.com/TX/Poteet/0-Timbercreek-78065/home/133739645","distance":0.55},{"ADDRESS":"0000 Shalimar Dr","CITY":"Poteet","STATE":"TX","ZIP":"78065","SOLD PRICE":"25000","LOT AREA":43560,"LOT ACREAGE":1,"PRICE PER ACRE":25000,"LATITUDE":"29.153153","LONGITUDE":"-98.596657","URL":"http://www.redfin.com/TX/Unknown/Shalimar-Rd-78065/home/48591645","distance":0.36},{"ADDRESS":"260 Broken Star Trl (lot 22)","CITY":"Poteet","STATE":"TX","ZIP":"78065","SOLD PRICE":"22500","LOT AREA":43995,"LOT ACREAGE":1.01,"PRICE PER ACRE":22278,"LATITUDE":"29.126798","LONGITUDE":"-98.57744","URL":"http://www.redfin.com/TX/Poteet/260-Broken-Star-Trl-78065/home/48597500","distance":2.52},{"ADDRESS":"LOT 30 Brandon Way","CITY":"Poteet","STATE":"TX","ZIP":"78065","SOLD PRICE":"38900","LOT AREA":32670,"LOT ACREAGE":0.75,"PRICE PER ACRE":51867,"LATITUDE":"29.1287381","LONGITUDE":"-98.6293792","URL":"http://www.redfin.com/TX/Poteet/30-Brandon-Way-78065/home/148435318","distance":2.68},{"ADDRESS":"170 Eaglerock","CITY":"Poteet","STATE":"TX","ZIP":"78064","SOLD PRICE":"32000","LOT AREA":44431,"LOT ACREAGE":1.02,"PRICE PER ACRE":31373,"LATITUDE":"29.136297","LONGITUDE":"-98.672484","URL":"http://www.redfin.com/TX/Unknown/Red-Fox-78065/home/48594940","distance":4.63}]},{"SITUS FULL ADDRESS":"85 BRANDYWINE DR POTEET,TX 78065","SITUS CITY":"POTEET","ALTERNATE APN":"0330000007000800","COUNTY":"ATASCOSA","LOT AREA":30000,"LOT ACREAGE":0.69,"LATITUDE":"29.1577115052662","LONGITUDE":"-98.5919644921698","IN FLOOD ZONE":false,"OWNER MAILING NAME":"MARGARET & ROY LAQUE","MAILING STREET ADDRESS":"7375 S LOOP 1604 W","MAIL CITY":"VON ORMY","MAIL STATE":"TX","MAIL ZIPZIP4":"78073-4328","MARKET TOTAL VALUE":13200,"id":18,"avgPPA":34990.333333333336,"avgPPA2":36099,"avgPPA3":37654,"estValue":24143,"estValue2":24908,"estValue3":25981,"offer":12000,"offer2":12400,"offer3":12900,"offerPPA":17391,"jasonOffer":0,"jasonEstValue":0,"statusColor":"green","marketValueFlag":false,"soldArr":[{"ADDRESS":"0 Timbercreek Dr","CITY":"Poteet","STATE":"TX","ZIP":"78065","SOLD PRICE":"30000","LOT AREA":22651,"LOT ACREAGE":0.52,"PRICE PER ACRE":57693,"LATITUDE":"29.1565989","LONGITUDE":"-98.5907224","URL":"http://www.redfin.com/TX/Poteet/0-Timbercreek-78065/home/133739645","distance":0.11},{"ADDRESS":"0000 Shalimar Dr","CITY":"Poteet","STATE":"TX","ZIP":"78065","SOLD PRICE":"25000","LOT AREA":43560,"LOT ACREAGE":1,"PRICE PER ACRE":25000,"LATITUDE":"29.153153","LONGITUDE":"-98.596657","URL":"http://www.redfin.com/TX/Unknown/Shalimar-Rd-78065/home/48591645","distance":0.42},{"ADDRESS":"260 Broken Star Trl (lot 22)","CITY":"Poteet","STATE":"TX","ZIP":"78065","SOLD PRICE":"22500","LOT AREA":43995,"LOT ACREAGE":1.01,"PRICE PER ACRE":22278,"LATITUDE":"29.126798","LONGITUDE":"-98.57744","URL":"http://www.redfin.com/TX/Poteet/260-Broken-Star-Trl-78065/home/48597500","distance":2.31},{"ADDRESS":"LOT 30 Brandon Way","CITY":"Poteet","STATE":"TX","ZIP":"78065","SOLD PRICE":"38900","LOT AREA":32670,"LOT ACREAGE":0.75,"PRICE PER ACRE":51867,"LATITUDE":"29.1287381","LONGITUDE":"-98.6293792","URL":"http://www.redfin.com/TX/Poteet/30-Brandon-Way-78065/home/148435318","distance":3.02},{"ADDRESS":"00 W Ditto Rd Lot 17","CITY":"Poteet","STATE":"TX","ZIP":"78065","SOLD PRICE":"22000","LOT AREA":30491,"LOT ACREAGE":0.7,"PRICE PER ACRE":31430,"LATITUDE":"29.094112","LONGITUDE":"-98.622995","URL":"http://www.redfin.com/TX/Unknown/W-DITTO-RD-Unknown/home/52280403","distance":4.78}]},{"SITUS FULL ADDRESS":"200 WAXWING DR POTEET,TX 78065","SITUS CITY":"POTEET","ALTERNATE APN":"0330000002007000","COUNTY":"ATASCOSA","LOT AREA":15002,"LOT ACREAGE":0.34,"LATITUDE":"29.1518773398657","LONGITUDE":"-98.5941444715095","IN FLOOD ZONE":false,"OWNER MAILING NAME":"GABRIEL & ANAINT PLASCENCIA","MAILING STREET ADDRESS":"6980 HIGHWAY 173","MAIL CITY":"JOURDANTON","MAIL STATE":"TX","MAIL ZIPZIP4":"78026-5342","MARKET TOTAL VALUE":6600,"id":19,"avgPPA":41667,"avgPPA2":22436,"avgPPA3":62501,"estValue":14167,"estValue2":7628,"estValue3":21250,"offer":7000,"offer2":3800,"offer3":10600,"offerPPA":20588,"jasonOffer":0,"jasonEstValue":0,"statusColor":"yellow","marketValueFlag":false,"soldArr":[{"ADDRESS":"0 Timbercreek Dr","CITY":"Poteet","STATE":"TX","ZIP":"78065","SOLD PRICE":"30000","LOT AREA":22651,"LOT ACREAGE":0.52,"PRICE PER ACRE":57693,"LATITUDE":"29.1565989","LONGITUDE":"-98.5907224","URL":"http://www.redfin.com/TX/Poteet/0-Timbercreek-78065/home/133739645","distance":0.39},{"ADDRESS":"45 Oak Krest Blvd","CITY":"Poteet","STATE":"TX","ZIP":"78065","SOLD PRICE":"35000","LOT AREA":22651,"LOT ACREAGE":0.52,"PRICE PER ACRE":67308,"LATITUDE":"29.130802","LONGITUDE":"-98.497189","URL":"http://www.redfin.com/TX/POTEET/45-OAK-KREST-BLVD-78065/home/48594302","distance":6.03}]},{"SITUS FULL ADDRESS":"505 CACTUS LN PLEASANTON,TX 78064","SITUS CITY":"PLEASANTON","ALTERNATE APN":"0331000000002600","COUNTY":"ATASCOSA","LOT AREA":130680,"LOT ACREAGE":3,"LATITUDE":"29.069160734452","LONGITUDE":"-98.45050385557","IN FLOOD ZONE":false,"OWNER MAILING NAME":"MARIA FUENTES","MAILING STREET ADDRESS":"491 CACTUS LN","MAIL CITY":"PLEASANTON","MAIL STATE":"TX","MAIL ZIPZIP4":"78064-6349","MARKET TOTAL VALUE":30000,"id":20,"avgPPA":18548,"avgPPA2":16760.333333333332,"avgPPA3":17560,"estValue":55644,"estValue2":50281,"estValue3":52680,"offer":27800,"offer2":25100,"offer3":26300,"offerPPA":9267,"jasonOffer":19000,"jasonEstValue":38000,"statusColor":"green","marketValueFlag":false,"soldArr":[{"ADDRESS":"TBD Cactus Ln","CITY":"Pleasanton","STATE":"TX","ZIP":"78064","SOLD PRICE":"65000","LOT AREA":130680,"LOT ACREAGE":3,"PRICE PER ACRE":21667,"LATITUDE":"29.0698874","LONGITUDE":"-98.4539954","URL":"http://www.redfin.com/TX/Unknown/TBD-Cactus-Rd-78064/home/160924052","distance":0.22},{"ADDRESS":"LOT 12 Spur Rdg","CITY":"San Antonio","STATE":"TX","ZIP":"78264","SOLD PRICE":"45000","LOT AREA":116305,"LOT ACREAGE":2.67,"PRICE PER ACRE":16854,"LATITUDE":"29.144789","LONGITUDE":"-98.5103248","URL":"http://www.redfin.com/TX/Unknown/LOT-12-Spur-Rdg-78264/home/147531438","distance":6.35},{"ADDRESS":"855 Spur Rdg","CITY":"San Antonio","STATE":"TX","ZIP":"78264","SOLD PRICE":"50000","LOT AREA":127195,"LOT ACREAGE":2.92,"PRICE PER ACRE":17123,"LATITUDE":"29.1442874","LONGITUDE":"-98.5120945","URL":"http://www.redfin.com/TX/San-Antonio/855-Spur-Rdg-78264/home/48594817","distance":6.38},{"ADDRESS":"1440 Spur Rdg","CITY":"San Antonio","STATE":"TX","ZIP":"78264","SOLD PRICE":"45000","LOT AREA":120225,"LOT ACREAGE":2.76,"PRICE PER ACRE":16304,"LATITUDE":"29.1448099","LONGITUDE":"-98.521319","URL":"http://www.redfin.com/TX/San-Antonio/1440-Spur-Rdg-78264/home/146053543","distance":6.75},{"ADDRESS":"0 Adcock Ln","CITY":"Poteet","STATE":"TX","ZIP":"78065","SOLD PRICE":"52000","LOT AREA":142876,"LOT ACREAGE":3.28,"PRICE PER ACRE":15854,"LATITUDE":"29.0405241","LONGITUDE":"-98.5680739","URL":"http://www.redfin.com/TX/Poteet/0-Adcock-Ln-78065/home/147708762","distance":7.37}]},{"SITUS FULL ADDRESS":"205 SAMUEL DR LYTLE,TX 78052","SITUS CITY":"LYTLE","ALTERNATE APN":"0259304002015300","COUNTY":"ATASCOSA","LOT AREA":100014,"LOT ACREAGE":2.3,"LATITUDE":"29.1862027166527","LONGITUDE":"-98.7390593776657","IN FLOOD ZONE":false,"OWNER MAILING NAME":"RAUL MONTEMAYOR","MAILING STREET ADDRESS":"132 GIFFORD ST","MAIL CITY":"SAN ANTONIO","MAIL STATE":"TX","MAIL ZIPZIP4":"78211-2344","MARKET TOTAL VALUE":29850,"id":21,"avgPPA":25090,"avgPPA2":27078,"avgPPA3":25876,"estValue":57707,"estValue2":62279,"estValue3":59515,"offer":28800,"offer2":31100,"offer3":29700,"offerPPA":12522,"jasonOffer":24500,"jasonEstValue":49000,"statusColor":"green","marketValueFlag":false,"soldArr":[{"ADDRESS":"0 W Robin Lynn","CITY":"Somerset","STATE":"TX","ZIP":"78069","SOLD PRICE":"37500","LOT AREA":85813,"LOT ACREAGE":1.97,"PRICE PER ACRE":19036,"LATITUDE":"29.182963","LONGITUDE":"-98.706984","URL":"http://www.redfin.com/TX/Somerset/900-Forest-Oaks-Dr-78069/unit-D/home/48583256","distance":1.95},{"ADDRESS":"0 Whitewing West Dr","CITY":"Somerset","STATE":"TX","ZIP":"78069","SOLD PRICE":"55000","LOT AREA":85813,"LOT ACREAGE":1.97,"PRICE PER ACRE":27919,"LATITUDE":"29.186984","LONGITUDE":"-98.708087","URL":"http://www.redfin.com/TX/Unknown/E-White-Wing-Dr-78069/home/48593518","distance":1.87},{"ADDRESS":"LOT 67 E Bob White","CITY":"Somerset","STATE":"TX","ZIP":"78069","SOLD PRICE":"54789","LOT AREA":84288,"LOT ACREAGE":1.93,"PRICE PER ACRE":28315,"LATITUDE":"29.1814253","LONGITUDE":"-98.7050578","URL":"http://www.redfin.com/TX/Somerset/67-E-Bob-White-Dr-78069/home/144540751","distance":2.08},{"ADDRESS":"2 ACRES BY 95 Pinn Rd","CITY":"Lytle","STATE":"TX","ZIP":"78052","SOLD PRICE":"50000","LOT AREA":87120,"LOT ACREAGE":2,"PRICE PER ACRE":25000,"LATITUDE":"29.233294","LONGITUDE":"-98.7964137","URL":"http://www.redfin.com/TX/Lytle/2-ACRES-BY-95-Pinn-Rd-78052/home/144351112","distance":4.75},{"ADDRESS":"LOT 2 FM 3175","CITY":"Lytle","STATE":"TX","ZIP":"78052","SOLD PRICE":"62000","LOT AREA":92782,"LOT ACREAGE":2.13,"PRICE PER ACRE":29108,"LATITUDE":"29.233294","LONGITUDE":"-98.7964137","URL":"http://www.redfin.com/TX/Lytle/LOT-2-FM-3175-78052/home/146393592","distance":4.75}]},{"SITUS FULL ADDRESS":"1005 EICHMAN RD POTEET,TX 78065","SITUS CITY":"POTEET","ALTERNATE APN":"0215500000000100","COUNTY":"ATASCOSA","LOT AREA":43081,"LOT ACREAGE":0.99,"LATITUDE":"29.1074763841622","LONGITUDE":"-98.6347031191491","IN FLOOD ZONE":false,"OWNER MAILING NAME":"OMAR & ADRIANA MUNOZ","MAILING STREET ADDRESS":"2735 MARLBOROUGH DR","MAIL CITY":"SAN ANTONIO","MAIL STATE":"TX","MAIL ZIPZIP4":"78230-4540","MARKET TOTAL VALUE":15330,"id":22,"avgPPA":38194.666666666664,"avgPPA2":38194.666666666664,"avgPPA3":48014,"estValue":37813,"estValue2":37813,"estValue3":47534,"offer":18900,"offer2":18900,"offer3":23700,"offerPPA":19091,"jasonOffer":0,"jasonEstValue":0,"statusColor":"green","marketValueFlag":false,"soldArr":[{"ADDRESS":"LOT 30 Brandon Way","CITY":"Poteet","STATE":"TX","ZIP":"78065","SOLD PRICE":"38900","LOT AREA":32670,"LOT ACREAGE":0.75,"PRICE PER ACRE":51867,"LATITUDE":"29.1287381","LONGITUDE":"-98.6293792","URL":"http://www.redfin.com/TX/Poteet/30-Brandon-Way-78065/home/148435318","distance":1.5},{"ADDRESS":"2100 W Ditto Rd","CITY":"Poteet","STATE":"TX","ZIP":"78065","SOLD PRICE":"21900","LOT AREA":30491,"LOT ACREAGE":0.7,"PRICE PER ACRE":31287,"LATITUDE":"29.0933358","LONGITUDE":"-98.6404901","URL":"http://www.redfin.com/TX/Poteet/2100-W-Ditto-Rd-78065/home/113975936","distance":1.04},{"ADDRESS":"00 W Ditto Rd Lot 17","CITY":"Poteet","STATE":"TX","ZIP":"78065","SOLD PRICE":"22000","LOT AREA":30491,"LOT ACREAGE":0.7,"PRICE PER ACRE":31430,"LATITUDE":"29.094112","LONGITUDE":"-98.622995","URL":"http://www.redfin.com/TX/Unknown/W-DITTO-RD-Unknown/home/52280403","distance":1.16},{"ADDRESS":"315 Eaglerock","CITY":"Poteet","STATE":"TX","ZIP":"78064","SOLD PRICE":"103000","LOT AREA":45738,"LOT ACREAGE":1.05,"PRICE PER ACRE":98095,"LATITUDE":"29.134614","LONGITUDE":"-98.671562","URL":"http://www.redfin.com/TX/Poteet/325-Eagle-Rock-78065/home/48597844","distance":2.91},{"ADDRESS":"250 Eagle Rock","CITY":"Poteet","STATE":"TX","ZIP":"78065","SOLD PRICE":"27500","LOT AREA":43734,"LOT ACREAGE":1,"PRICE PER ACRE":27391,"LATITUDE":"29.133872","LONGITUDE":"-98.672478","URL":"http://www.redfin.com/TX/Poteet/250-Eagle-Rock-78065/home/48589752","distance":2.92}]},{"SITUS FULL ADDRESS":"100 SAMUEL DR LYTLE,TX 78052","SITUS CITY":"LYTLE","ALTERNATE APN":"0259304002016800","COUNTY":"ATASCOSA","LOT AREA":100014,"LOT ACREAGE":2.3,"LATITUDE":"29.184656052369","LONGITUDE":"-98.7409303059643","IN FLOOD ZONE":false,"OWNER MAILING NAME":"CHRISTOPHER & CECELIA BROOKS","MAILING STREET ADDRESS":"7826 MISTY PARK ST","MAIL CITY":"SAN ANTONIO","MAIL STATE":"TX","MAIL ZIPZIP4":"78250-4722","MARKET TOTAL VALUE":29850,"id":23,"avgPPA":25090,"avgPPA2":27078,"avgPPA3":25876,"estValue":57707,"estValue2":62279,"estValue3":59515,"offer":28800,"offer2":31100,"offer3":29700,"offerPPA":12522,"jasonOffer":24500,"jasonEstValue":49000,"statusColor":"green","marketValueFlag":false,"soldArr":[{"ADDRESS":"0 Whitewing West Dr","CITY":"Somerset","STATE":"TX","ZIP":"78069","SOLD PRICE":"55000","LOT AREA":85813,"LOT ACREAGE":1.97,"PRICE PER ACRE":27919,"LATITUDE":"29.186984","LONGITUDE":"-98.708087","URL":"http://www.redfin.com/TX/Unknown/E-White-Wing-Dr-78069/home/48593518","distance":1.99},{"ADDRESS":"0 W Robin Lynn","CITY":"Somerset","STATE":"TX","ZIP":"78069","SOLD PRICE":"37500","LOT AREA":85813,"LOT ACREAGE":1.97,"PRICE PER ACRE":19036,"LATITUDE":"29.182963","LONGITUDE":"-98.706984","URL":"http://www.redfin.com/TX/Somerset/900-Forest-Oaks-Dr-78069/unit-D/home/48583256","distance":2.05},{"ADDRESS":"LOT 67 E Bob White","CITY":"Somerset","STATE":"TX","ZIP":"78069","SOLD PRICE":"54789","LOT AREA":84288,"LOT ACREAGE":1.93,"PRICE PER ACRE":28315,"LATITUDE":"29.1814253","LONGITUDE":"-98.7050578","URL":"http://www.redfin.com/TX/Somerset/67-E-Bob-White-Dr-78069/home/144540751","distance":2.18},{"ADDRESS":"2 ACRES BY 95 Pinn Rd","CITY":"Lytle","STATE":"TX","ZIP":"78052","SOLD PRICE":"50000","LOT AREA":87120,"LOT ACREAGE":2,"PRICE PER ACRE":25000,"LATITUDE":"29.233294","LONGITUDE":"-98.7964137","URL":"http://www.redfin.com/TX/Lytle/2-ACRES-BY-95-Pinn-Rd-78052/home/144351112","distance":4.74},{"ADDRESS":"LOT 2 FM 3175","CITY":"Lytle","STATE":"TX","ZIP":"78052","SOLD PRICE":"62000","LOT AREA":92782,"LOT ACREAGE":2.13,"PRICE PER ACRE":29108,"LATITUDE":"29.233294","LONGITUDE":"-98.7964137","URL":"http://www.redfin.com/TX/Lytle/LOT-2-FM-3175-78052/home/146393592","distance":4.74}]},{"SITUS FULL ADDRESS":"420 SAMUEL DR LYTLE,TX 78052","SITUS CITY":"LYTLE","ALTERNATE APN":"0259304002015900","COUNTY":"ATASCOSA","LOT AREA":189834,"LOT ACREAGE":4.36,"LATITUDE":"29.1846019108162","LONGITUDE":"-98.7350013615643","IN FLOOD ZONE":false,"OWNER MAILING NAME":"CRESENCIO DURON","MAILING STREET ADDRESS":"400 SAMUEL DR","MAIL CITY":"LYTLE","MAIL STATE":"TX","MAIL ZIPZIP4":"78052-3841","MARKET TOTAL VALUE":28330,"id":24,"avgPPA":13833.333333333334,"avgPPA2":12667.333333333334,"avgPPA3":13276,"estValue":60313,"estValue2":55230,"estValue3":57883,"offer":30100,"offer2":27600,"offer3":28900,"offerPPA":6904,"jasonOffer":26500,"jasonEstValue":53000,"statusColor":"green","marketValueFlag":false,"soldArr":[{"ADDRESS":"0 E Bob White Dr","CITY":"Somerset","STATE":"TX","ZIP":"78069","SOLD PRICE":"47000","LOT AREA":168577,"LOT ACREAGE":3.87,"PRICE PER ACRE":12145,"LATITUDE":"29.1814215","LONGITUDE":"-98.7082456","URL":"http://www.redfin.com/TX/Somerset/0-W-Bob-White-Dr-78069/home/143819053","distance":1.63},{"ADDRESS":"154 W Robin Lynn Dr","CITY":"Somerset","STATE":"TX","ZIP":"78069","SOLD PRICE":"65000","LOT AREA":171626,"LOT ACREAGE":3.94,"PRICE PER ACRE":16498,"LATITUDE":"29.1840335","LONGITUDE":"-98.7108128","URL":"http://www.redfin.com/TX/Somerset/154-W-Robin-Lynn-Dr-78069/home/144877031","distance":1.46},{"ADDRESS":"95 Trophy Ln","CITY":"Poteet","STATE":"TX","ZIP":"78065","SOLD PRICE":"45000","LOT AREA":152460,"LOT ACREAGE":3.5,"PRICE PER ACRE":12857,"LATITUDE":"29.141201","LONGITUDE":"-98.680928","URL":"http://www.redfin.com/TX/Poteet/95-Trophy-Ln-78065/home/48590235","distance":4.43},{"ADDRESS":"LOT 30 Grey Stone","CITY":"Poteet","STATE":"TX","ZIP":"78065","SOLD PRICE":"60000","LOT AREA":219978,"LOT ACREAGE":5.05,"PRICE PER ACRE":11881,"LATITUDE":"29.138342","LONGITUDE":"-98.6728123","URL":"http://www.redfin.com/TX/Poteet/30-Grey-Stone-78065/home/144987117","distance":4.93},{"ADDRESS":"135 Borderbrook Dr","CITY":"Lytle","STATE":"TX","ZIP":"78052","SOLD PRICE":"65000","LOT AREA":217800,"LOT ACREAGE":5,"PRICE PER ACRE":13000,"LATITUDE":"29.233294","LONGITUDE":"-98.7964137","URL":"http://www.redfin.com/TX/Lytle/135-Borderbrook-Dr-78052/home/141567837","distance":5}]},{"SITUS FULL ADDRESS":"450 SHERWOOD FOREST DR POTEET,TX 78065","SITUS CITY":"POTEET","ALTERNATE APN":"0330500001000600","COUNTY":"ATASCOSA","LOT AREA":217800,"LOT ACREAGE":5,"LATITUDE":"29.1293736438403","LONGITUDE":"-98.5123010127647","IN FLOOD ZONE":false,"OWNER MAILING NAME":"THOUSAND GRANDE","MAILING STREET ADDRESS":"1111 AUSTIN ST","MAIL CITY":"MADERA","MAIL STATE":"CA","MAIL ZIPZIP4":"93638-2131","MARKET TOTAL VALUE":20000,"id":25,"avgPPA":17734,"avgPPA2":13113.333333333334,"avgPPA3":15360,"estValue":88670,"estValue2":65567,"estValue3":76800,"offer":44300,"offer2":32700,"offer3":38400,"offerPPA":8860,"jasonOffer":35000,"jasonEstValue":70000,"statusColor":"green","marketValueFlag":false,"soldArr":[{"ADDRESS":"100 Highland Rd","CITY":"Poteet","STATE":"TX","ZIP":"78065","SOLD PRICE":"135000","LOT AREA":227383,"LOT ACREAGE":5.22,"PRICE PER ACRE":25862,"LATITUDE":"29.136642","LONGITUDE":"-98.579804","URL":"http://www.redfin.com/TX/Poteet/100-Highland-Rd-78065/home/48600900","distance":4.1},{"ADDRESS":"16 Woodland Hills Rd","CITY":"Poteet","STATE":"TX","ZIP":"78065","SOLD PRICE":"72000","LOT AREA":228254,"LOT ACREAGE":5.24,"PRICE PER ACRE":13740,"LATITUDE":"29.1345288","LONGITUDE":"-98.5899322","URL":"http://www.redfin.com/TX/Poteet/16-Woodland-Hills-Rd-78065/home/104381202","distance":4.7},{"ADDRESS":"285 Clear Lake Dr","CITY":"Poteet","STATE":"TX","ZIP":"78065","SOLD PRICE":"68000","LOT AREA":217800,"LOT ACREAGE":5,"PRICE PER ACRE":13600,"LATITUDE":"29.144674","LONGITUDE":"-98.630344","URL":"http://www.redfin.com/TX/Poteet/285-Clear-Lake-Dr-78065/home/52281845","distance":7.2},{"ADDRESS":"23 Clear Lake Loop","CITY":"Poteet","STATE":"TX","ZIP":"78065","SOLD PRICE":"58000","LOT AREA":217800,"LOT ACREAGE":5,"PRICE PER ACRE":11600,"LATITUDE":"29.1421261","LONGITUDE":"-98.6379767","URL":"http://www.redfin.com/TX/Poteet/23-Clear-Lake-Loop-78065/home/144989739","distance":7.64},{"ADDRESS":"420 Clear Lake Loop","CITY":"Poteet","STATE":"TX","ZIP":"78065","SOLD PRICE":"60000","LOT AREA":217800,"LOT ACREAGE":5,"PRICE PER ACRE":12000,"LATITUDE":"29.143216","LONGITUDE":"-98.631737","URL":"http://www.redfin.com/TX/Poteet/420-Clear-Lake-Loop-78065/home/161378591","distance":7.27}]},{"SITUS FULL ADDRESS":"140 RHONDA DR LYTLE,TX 78052","SITUS CITY":"LYTLE","ALTERNATE APN":"0259304002014400","COUNTY":"ATASCOSA","LOT AREA":100014,"LOT ACREAGE":2.3,"LATITUDE":"29.1875748012587","LONGITUDE":"-98.7403259034449","IN FLOOD ZONE":false,"OWNER MAILING NAME":"JAIME & ALAIDE PEREZ","MAILING STREET ADDRESS":"122 GARDEN VALLEY ST","MAIL CITY":"SAN ANTONIO","MAIL STATE":"TX","MAIL ZIPZIP4":"78227-4540","MARKET TOTAL VALUE":29850,"id":26,"avgPPA":25090,"avgPPA2":27078,"avgPPA3":25876,"estValue":57707,"estValue2":62279,"estValue3":59515,"offer":28800,"offer2":31100,"offer3":29700,"offerPPA":12522,"jasonOffer":24500,"jasonEstValue":49000,"statusColor":"green","marketValueFlag":false,"soldArr":[{"ADDRESS":"0 Whitewing West Dr","CITY":"Somerset","STATE":"TX","ZIP":"78069","SOLD PRICE":"55000","LOT AREA":85813,"LOT ACREAGE":1.97,"PRICE PER ACRE":27919,"LATITUDE":"29.186984","LONGITUDE":"-98.708087","URL":"http://www.redfin.com/TX/Unknown/E-White-Wing-Dr-78069/home/48593518","distance":1.95},{"ADDRESS":"0 W Robin Lynn","CITY":"Somerset","STATE":"TX","ZIP":"78069","SOLD PRICE":"37500","LOT AREA":85813,"LOT ACREAGE":1.97,"PRICE PER ACRE":19036,"LATITUDE":"29.182963","LONGITUDE":"-98.706984","URL":"http://www.redfin.com/TX/Somerset/900-Forest-Oaks-Dr-78069/unit-D/home/48583256","distance":2.04},{"ADDRESS":"LOT 67 E Bob White","CITY":"Somerset","STATE":"TX","ZIP":"78069","SOLD PRICE":"54789","LOT AREA":84288,"LOT ACREAGE":1.93,"PRICE PER ACRE":28315,"LATITUDE":"29.1814253","LONGITUDE":"-98.7050578","URL":"http://www.redfin.com/TX/Somerset/67-E-Bob-White-Dr-78069/home/144540751","distance":2.17},{"ADDRESS":"2 ACRES BY 95 Pinn Rd","CITY":"Lytle","STATE":"TX","ZIP":"78052","SOLD PRICE":"50000","LOT AREA":87120,"LOT ACREAGE":2,"PRICE PER ACRE":25000,"LATITUDE":"29.233294","LONGITUDE":"-98.7964137","URL":"http://www.redfin.com/TX/Lytle/2-ACRES-BY-95-Pinn-Rd-78052/home/144351112","distance":4.63},{"ADDRESS":"LOT 2 FM 3175","CITY":"Lytle","STATE":"TX","ZIP":"78052","SOLD PRICE":"62000","LOT AREA":92782,"LOT ACREAGE":2.13,"PRICE PER ACRE":29108,"LATITUDE":"29.233294","LONGITUDE":"-98.7964137","URL":"http://www.redfin.com/TX/Lytle/LOT-2-FM-3175-78052/home/146393592","distance":4.63}]},{"SITUS FULL ADDRESS":"3008 EICHMAN RD POTEET,TX 78065","SITUS CITY":"POTEET","ALTERNATE APN":"0326001000000900","COUNTY":"ATASCOSA","LOT AREA":217800,"LOT ACREAGE":5,"LATITUDE":"29.1343697319131","LONGITUDE":"-98.6263666673171","IN FLOOD ZONE":false,"OWNER MAILING NAME":"RICKY & EVA MARCANO","MAILING STREET ADDRESS":"5860 S LOOP 1604 W","MAIL CITY":"VON ORMY","MAIL STATE":"TX","MAIL ZIPZIP4":"78073-4402","MARKET TOTAL VALUE":29000,"id":27,"avgPPA":12400,"avgPPA2":11866.666666666666,"avgPPA3":12040,"estValue":62000,"estValue2":59333,"estValue3":60200,"offer":31000,"offer2":29600,"offer3":30100,"offerPPA":6200,"jasonOffer":35000,"jasonEstValue":70000,"statusColor":"green","marketValueFlag":false,"soldArr":[{"ADDRESS":"285 Clear Lake Dr","CITY":"Poteet","STATE":"TX","ZIP":"78065","SOLD PRICE":"68000","LOT AREA":217800,"LOT ACREAGE":5,"PRICE PER ACRE":13600,"LATITUDE":"29.144674","LONGITUDE":"-98.630344","URL":"http://www.redfin.com/TX/Poteet/285-Clear-Lake-Dr-78065/home/52281845","distance":0.75},{"ADDRESS":"23 Clear Lake Loop","CITY":"Poteet","STATE":"TX","ZIP":"78065","SOLD PRICE":"58000","LOT AREA":217800,"LOT ACREAGE":5,"PRICE PER ACRE":11600,"LATITUDE":"29.1421261","LONGITUDE":"-98.6379767","URL":"http://www.redfin.com/TX/Poteet/23-Clear-Lake-Loop-78065/home/144989739","distance":0.88},{"ADDRESS":"420 Clear Lake Loop","CITY":"Poteet","STATE":"TX","ZIP":"78065","SOLD PRICE":"60000","LOT AREA":217800,"LOT ACREAGE":5,"PRICE PER ACRE":12000,"LATITUDE":"29.143216","LONGITUDE":"-98.631737","URL":"http://www.redfin.com/TX/Poteet/420-Clear-Lake-Loop-78065/home/161378591","distance":0.69},{"ADDRESS":"21 Clear Lake Loop","CITY":"Poteet","STATE":"TX","ZIP":"78065","SOLD PRICE":"60000","LOT AREA":217800,"LOT ACREAGE":5,"PRICE PER ACRE":12000,"LATITUDE":"29.1421261","LONGITUDE":"-98.6379767","URL":"http://www.redfin.com/TX/Poteet/21-Clear-Lake-Loop-78065/home/144990097","distance":0.88},{"ADDRESS":"000 Clear Lake Loop","CITY":"Poteet","STATE":"TX","ZIP":"78065","SOLD PRICE":"55000","LOT AREA":217800,"LOT ACREAGE":5,"PRICE PER ACRE":11000,"LATITUDE":"29.1448615","LONGITUDE":"-98.6445653","URL":"http://www.redfin.com/TX/Poteet/665-Clear-Lake-Dr-78065/home/52281830","distance":1.32}]},{"SITUS FULL ADDRESS":"3418 EICHMAN RD POTEET,TX 78065","SITUS CITY":"POTEET","ALTERNATE APN":"0326001000000200","COUNTY":"ATASCOSA","LOT AREA":217800,"LOT ACREAGE":5,"LATITUDE":"29.140098921207","LONGITUDE":"-98.6263847857041","IN FLOOD ZONE":false,"OWNER MAILING NAME":"KRISTEENA DONICE RODRIGUEZ","MAILING STREET ADDRESS":"79 PRICE RD","MAIL CITY":"POTEET","MAIL STATE":"TX","MAIL ZIPZIP4":"78065-3485","MARKET TOTAL VALUE":29000,"id":28,"avgPPA":12400,"avgPPA2":11866.666666666666,"avgPPA3":12040,"estValue":62000,"estValue2":59333,"estValue3":60200,"offer":31000,"offer2":29600,"offer3":30100,"offerPPA":6200,"jasonOffer":35000,"jasonEstValue":70000,"statusColor":"green","marketValueFlag":false,"soldArr":[{"ADDRESS":"285 Clear Lake Dr","CITY":"Poteet","STATE":"TX","ZIP":"78065","SOLD PRICE":"68000","LOT AREA":217800,"LOT ACREAGE":5,"PRICE PER ACRE":13600,"LATITUDE":"29.144674","LONGITUDE":"-98.630344","URL":"http://www.redfin.com/TX/Poteet/285-Clear-Lake-Dr-78065/home/52281845","distance":0.4},{"ADDRESS":"23 Clear Lake Loop","CITY":"Poteet","STATE":"TX","ZIP":"78065","SOLD PRICE":"58000","LOT AREA":217800,"LOT ACREAGE":5,"PRICE PER ACRE":11600,"LATITUDE":"29.1421261","LONGITUDE":"-98.6379767","URL":"http://www.redfin.com/TX/Poteet/23-Clear-Lake-Loop-78065/home/144989739","distance":0.71},{"ADDRESS":"420 Clear Lake Loop","CITY":"Poteet","STATE":"TX","ZIP":"78065","SOLD PRICE":"60000","LOT AREA":217800,"LOT ACREAGE":5,"PRICE PER ACRE":12000,"LATITUDE":"29.143216","LONGITUDE":"-98.631737","URL":"http://www.redfin.com/TX/Poteet/420-Clear-Lake-Loop-78065/home/161378591","distance":0.39},{"ADDRESS":"21 Clear Lake Loop","CITY":"Poteet","STATE":"TX","ZIP":"78065","SOLD PRICE":"60000","LOT AREA":217800,"LOT ACREAGE":5,"PRICE PER ACRE":12000,"LATITUDE":"29.1421261","LONGITUDE":"-98.6379767","URL":"http://www.redfin.com/TX/Poteet/21-Clear-Lake-Loop-78065/home/144990097","distance":0.71},{"ADDRESS":"000 Clear Lake Loop","CITY":"Poteet","STATE":"TX","ZIP":"78065","SOLD PRICE":"55000","LOT AREA":217800,"LOT ACREAGE":5,"PRICE PER ACRE":11000,"LATITUDE":"29.1448615","LONGITUDE":"-98.6445653","URL":"http://www.redfin.com/TX/Poteet/665-Clear-Lake-Dr-78065/home/52281830","distance":1.15}]},{"SITUS FULL ADDRESS":"285 TERRY LN LYTLE,TX 78052","SITUS CITY":"LYTLE","ALTERNATE APN":"0259304002010800","COUNTY":"ATASCOSA","LOT AREA":100014,"LOT ACREAGE":2.3,"LATITUDE":"29.1920306673779","LONGITUDE":"-98.7378402043548","IN FLOOD ZONE":false,"OWNER MAILING NAME":"ARNOLDO & MARIA AMESQUITA","MAILING STREET ADDRESS":"325 TERRY LN","MAIL CITY":"LYTLE","MAIL STATE":"TX","MAIL ZIPZIP4":"78052-3831","MARKET TOTAL VALUE":29850,"id":29,"avgPPA":25090,"avgPPA2":27078,"avgPPA3":25876,"estValue":57707,"estValue2":62279,"estValue3":59515,"offer":28800,"offer2":31100,"offer3":29700,"offerPPA":12522,"jasonOffer":24500,"jasonEstValue":49000,"statusColor":"green","marketValueFlag":false,"soldArr":[{"ADDRESS":"0 W Robin Lynn","CITY":"Somerset","STATE":"TX","ZIP":"78069","SOLD PRICE":"37500","LOT AREA":85813,"LOT ACREAGE":1.97,"PRICE PER ACRE":19036,"LATITUDE":"29.182963","LONGITUDE":"-98.706984","URL":"http://www.redfin.com/TX/Somerset/900-Forest-Oaks-Dr-78069/unit-D/home/48583256","distance":1.96},{"ADDRESS":"0 Whitewing West Dr","CITY":"Somerset","STATE":"TX","ZIP":"78069","SOLD PRICE":"55000","LOT AREA":85813,"LOT ACREAGE":1.97,"PRICE PER ACRE":27919,"LATITUDE":"29.186984","LONGITUDE":"-98.708087","URL":"http://www.redfin.com/TX/Unknown/E-White-Wing-Dr-78069/home/48593518","distance":1.83},{"ADDRESS":"LOT 67 E Bob White","CITY":"Somerset","STATE":"TX","ZIP":"78069","SOLD PRICE":"54789","LOT AREA":84288,"LOT ACREAGE":1.93,"PRICE PER ACRE":28315,"LATITUDE":"29.1814253","LONGITUDE":"-98.7050578","URL":"http://www.redfin.com/TX/Somerset/67-E-Bob-White-Dr-78069/home/144540751","distance":2.11},{"ADDRESS":"2 ACRES BY 95 Pinn Rd","CITY":"Lytle","STATE":"TX","ZIP":"78052","SOLD PRICE":"50000","LOT AREA":87120,"LOT ACREAGE":2,"PRICE PER ACRE":25000,"LATITUDE":"29.233294","LONGITUDE":"-98.7964137","URL":"http://www.redfin.com/TX/Lytle/2-ACRES-BY-95-Pinn-Rd-78052/home/144351112","distance":4.54},{"ADDRESS":"LOT 2 FM 3175","CITY":"Lytle","STATE":"TX","ZIP":"78052","SOLD PRICE":"62000","LOT AREA":92782,"LOT ACREAGE":2.13,"PRICE PER ACRE":29108,"LATITUDE":"29.233294","LONGITUDE":"-98.7964137","URL":"http://www.redfin.com/TX/Lytle/LOT-2-FM-3175-78052/home/146393592","distance":4.54}]},{"SITUS FULL ADDRESS":"17983 WISDOM RD LYTLE,TX 78052","SITUS CITY":"LYTLE","ALTERNATE APN":"0259000040003402","COUNTY":"ATASCOSA","LOT AREA":35719,"LOT ACREAGE":0.82,"LATITUDE":"29.2468704801073","LONGITUDE":"-98.7942288684823","IN FLOOD ZONE":false,"OWNER MAILING NAME":"TOMMY & DEVON WILLIAMS","MAILING STREET ADDRESS":"2015 SQUIRREL TRL #5","MAIL CITY":"SAN ANTONIO","MAIL STATE":"TX","MAIL ZIPZIP4":"78253-4982","MARKET TOTAL VALUE":9580,"id":30,"avgPPA":63666,"avgPPA2":78332.66666666667,"avgPPA3":84000,"estValue":52206,"estValue2":64233,"estValue3":68880,"offer":26100,"offer2":32100,"offer3":34400,"offerPPA":31829,"jasonOffer":15500,"jasonEstValue":31000,"statusColor":"green","marketValueFlag":false,"soldArr":[{"ADDRESS":"0 0","CITY":"Lytle","STATE":"TX","ZIP":"78052","SOLD PRICE":"42500","LOT AREA":17859,"LOT ACREAGE":0.41,"PRICE PER ACRE":103662,"LATITUDE":"29.233294","LONGITUDE":"-98.7964137","URL":"http://www.redfin.com/TX/Lytle/0-78052/home/167083540","distance":0.95},{"ADDRESS":"01 Edward Path","CITY":"Lytle","STATE":"TX","ZIP":"78052","SOLD PRICE":"25000","LOT AREA":43560,"LOT ACREAGE":1,"PRICE PER ACRE":25000,"LATITUDE":"29.233294","LONGITUDE":"-98.7964137","URL":"http://www.redfin.com/TX/Lytle/01-Edward-Path-78052/home/146506502","distance":0.95},{"ADDRESS":"414 CR 6842","CITY":"Lytle","STATE":"TX","ZIP":"78052","SOLD PRICE":"52592","LOT AREA":36751,"LOT ACREAGE":0.84,"PRICE PER ACRE":62336,"LATITUDE":"29.233294","LONGITUDE":"-98.7964137","URL":"http://www.redfin.com/TX/Lytle/414-CR-6842-78052/home/146944381","distance":0.95},{"ADDRESS":"139 Ala Blanca Dr","CITY":"Lytle","STATE":"TX","ZIP":"78052","SOLD PRICE":"69000","LOT AREA":43560,"LOT ACREAGE":1,"PRICE PER ACRE":69000,"LATITUDE":"29.233294","LONGITUDE":"-98.7964137","URL":"http://www.redfin.com/TX/Lytle/139-Ala-Blanca-Dr-78052/home/160496170","distance":0.95},{"ADDRESS":"14848 Lytle Somerset Rd","CITY":"Lytle","STATE":"TX","ZIP":"78052","SOLD PRICE":"160000","LOT AREA":43560,"LOT ACREAGE":1,"PRICE PER ACRE":160000,"LATITUDE":"29.2286489","LONGITUDE":"-98.7908276","URL":"http://www.redfin.com/TX/Lytle/14848-Lytle-Somerset-St-78052/home/48596605","distance":1.28}]},{"SITUS FULL ADDRESS":"2820 EICHMAN RD POTEET,TX 78065","SITUS CITY":"POTEET","ALTERNATE APN":"0326001000001300","COUNTY":"ATASCOSA","LOT AREA":217800,"LOT ACREAGE":5,"LATITUDE":"29.1311850743616","LONGITUDE":"-98.6263296036519","IN FLOOD ZONE":true,"OWNER MAILING NAME":"REYNALDO FLORES","MAILING STREET ADDRESS":"8423 CREEK BND","MAIL CITY":"SAN ANTONIO","MAIL STATE":"TX","MAIL ZIPZIP4":"78242-2811","MARKET TOTAL VALUE":18850,"id":31,"avgPPA":6200,"avgPPA2":5933.333333333333,"avgPPA3":6020,"estValue":31000,"estValue2":29667,"estValue3":30100,"offer":15500,"offer2":14800,"offer3":15000,"offerPPA":3100,"jasonOffer":35000,"jasonEstValue":70000,"statusColor":"green","marketValueFlag":false,"soldArr":[{"ADDRESS":"285 Clear Lake Dr","CITY":"Poteet","STATE":"TX","ZIP":"78065","SOLD PRICE":"68000","LOT AREA":217800,"LOT ACREAGE":5,"PRICE PER ACRE":13600,"LATITUDE":"29.144674","LONGITUDE":"-98.630344","URL":"http://www.redfin.com/TX/Poteet/285-Clear-Lake-Dr-78065/home/52281845","distance":0.96},{"ADDRESS":"420 Clear Lake Loop","CITY":"Poteet","STATE":"TX","ZIP":"78065","SOLD PRICE":"60000","LOT AREA":217800,"LOT ACREAGE":5,"PRICE PER ACRE":12000,"LATITUDE":"29.143216","LONGITUDE":"-98.631737","URL":"http://www.redfin.com/TX/Poteet/420-Clear-Lake-Loop-78065/home/161378591","distance":0.89},{"ADDRESS":"000 Clear Lake Loop","CITY":"Poteet","STATE":"TX","ZIP":"78065","SOLD PRICE":"55000","LOT AREA":217800,"LOT ACREAGE":5,"PRICE PER ACRE":11000,"LATITUDE":"29.1448615","LONGITUDE":"-98.6445653","URL":"http://www.redfin.com/TX/Poteet/665-Clear-Lake-Dr-78065/home/52281830","distance":1.45},{"ADDRESS":"23 Clear Lake Loop","CITY":"Poteet","STATE":"TX","ZIP":"78065","SOLD PRICE":"58000","LOT AREA":217800,"LOT ACREAGE":5,"PRICE PER ACRE":11600,"LATITUDE":"29.1421261","LONGITUDE":"-98.6379767","URL":"http://www.redfin.com/TX/Poteet/23-Clear-Lake-Loop-78065/home/144989739","distance":1.03},{"ADDRESS":"21 Clear Lake Loop","CITY":"Poteet","STATE":"TX","ZIP":"78065","SOLD PRICE":"60000","LOT AREA":217800,"LOT ACREAGE":5,"PRICE PER ACRE":12000,"LATITUDE":"29.1421261","LONGITUDE":"-98.6379767","URL":"http://www.redfin.com/TX/Poteet/21-Clear-Lake-Loop-78065/home/144990097","distance":1.03}]},{"SITUS FULL ADDRESS":"744 GAYLE LN POTEET,TX 78065","SITUS CITY":"POTEET","ALTERNATE APN":"0326002000007300","COUNTY":"ATASCOSA","LOT AREA":217800,"LOT ACREAGE":5,"LATITUDE":"29.1311746735219","LONGITUDE":"-98.6215268581146","IN FLOOD ZONE":false,"OWNER MAILING NAME":"VALDEZ DAVID L (TRUSTEE FOR THE) DAVID L VALDEZ REVOCABLE LI","MAILING STREET ADDRESS":"426 PRESTWICK BLVD","MAIL CITY":"SAN ANTONIO","MAIL STATE":"TX","MAIL ZIPZIP4":"78223-2438","MARKET TOTAL VALUE":29000,"id":32,"avgPPA":12400,"avgPPA2":12400,"avgPPA3":12388,"estValue":62000,"estValue2":62000,"estValue3":61940,"offer":31000,"offer2":31000,"offer3":30900,"offerPPA":6200,"jasonOffer":35000,"jasonEstValue":70000,"statusColor":"green","marketValueFlag":false,"soldArr":[{"ADDRESS":"285 Clear Lake Dr","CITY":"Poteet","STATE":"TX","ZIP":"78065","SOLD PRICE":"68000","LOT AREA":217800,"LOT ACREAGE":5,"PRICE PER ACRE":13600,"LATITUDE":"29.144674","LONGITUDE":"-98.630344","URL":"http://www.redfin.com/TX/Poteet/285-Clear-Lake-Dr-78065/home/52281845","distance":1.07},{"ADDRESS":"000 Clear Lake Loop","CITY":"Poteet","STATE":"TX","ZIP":"78065","SOLD PRICE":"55000","LOT AREA":217800,"LOT ACREAGE":5,"PRICE PER ACRE":11000,"LATITUDE":"29.1448615","LONGITUDE":"-98.6445653","URL":"http://www.redfin.com/TX/Poteet/665-Clear-Lake-Dr-78065/home/52281830","distance":1.68},{"ADDRESS":"23 Clear Lake Loop","CITY":"Poteet","STATE":"TX","ZIP":"78065","SOLD PRICE":"58000","LOT AREA":217800,"LOT ACREAGE":5,"PRICE PER ACRE":11600,"LATITUDE":"29.1421261","LONGITUDE":"-98.6379767","URL":"http://www.redfin.com/TX/Poteet/23-Clear-Lake-Loop-78065/home/144989739","distance":1.25},{"ADDRESS":"420 Clear Lake Loop","CITY":"Poteet","STATE":"TX","ZIP":"78065","SOLD PRICE":"60000","LOT AREA":217800,"LOT ACREAGE":5,"PRICE PER ACRE":12000,"LATITUDE":"29.143216","LONGITUDE":"-98.631737","URL":"http://www.redfin.com/TX/Poteet/420-Clear-Lake-Loop-78065/home/161378591","distance":1.04},{"ADDRESS":"16 Woodland Hills Rd","CITY":"Poteet","STATE":"TX","ZIP":"78065","SOLD PRICE":"72000","LOT AREA":228254,"LOT ACREAGE":5.24,"PRICE PER ACRE":13740,"LATITUDE":"29.1345288","LONGITUDE":"-98.5899322","URL":"http://www.redfin.com/TX/Poteet/16-Woodland-Hills-Rd-78065/home/104381202","distance":1.92}]},{"SITUS FULL ADDRESS":"645 MARSHALL LN #2,POTEET,TX 78065","SITUS CITY":"POTEET","ALTERNATE APN":"0326002000005600","COUNTY":"ATASCOSA","LOT AREA":236095,"LOT ACREAGE":5.42,"LATITUDE":"29.1344591629009","LONGITUDE":"-98.6203627738422","IN FLOOD ZONE":false,"OWNER MAILING NAME":"VINCENT GUZMAN","MAILING STREET ADDRESS":"4715 OSBORN GLADE","MAIL CITY":"SAN ANTONIO","MAIL STATE":"TX","MAIL ZIPZIP4":"78247-5842","MARKET TOTAL VALUE":27100,"id":33,"avgPPA":12400,"avgPPA2":12400,"avgPPA3":12388,"estValue":67208,"estValue2":67208,"estValue3":67143,"offer":33600,"offer2":33600,"offer3":33500,"offerPPA":6199,"jasonOffer":35000,"jasonEstValue":70000,"statusColor":"green","marketValueFlag":false,"soldArr":[{"ADDRESS":"285 Clear Lake Dr","CITY":"Poteet","STATE":"TX","ZIP":"78065","SOLD PRICE":"68000","LOT AREA":217800,"LOT ACREAGE":5,"PRICE PER ACRE":13600,"LATITUDE":"29.144674","LONGITUDE":"-98.630344","URL":"http://www.redfin.com/TX/Poteet/285-Clear-Lake-Dr-78065/home/52281845","distance":0.93},{"ADDRESS":"420 Clear Lake Loop","CITY":"Poteet","STATE":"TX","ZIP":"78065","SOLD PRICE":"60000","LOT AREA":217800,"LOT ACREAGE":5,"PRICE PER ACRE":12000,"LATITUDE":"29.143216","LONGITUDE":"-98.631737","URL":"http://www.redfin.com/TX/Poteet/420-Clear-Lake-Loop-78065/home/161378591","distance":0.91},{"ADDRESS":"000 Clear Lake Loop","CITY":"Poteet","STATE":"TX","ZIP":"78065","SOLD PRICE":"55000","LOT AREA":217800,"LOT ACREAGE":5,"PRICE PER ACRE":11000,"LATITUDE":"29.1448615","LONGITUDE":"-98.6445653","URL":"http://www.redfin.com/TX/Poteet/665-Clear-Lake-Dr-78065/home/52281830","distance":1.63},{"ADDRESS":"23 Clear Lake Loop","CITY":"Poteet","STATE":"TX","ZIP":"78065","SOLD PRICE":"58000","LOT AREA":217800,"LOT ACREAGE":5,"PRICE PER ACRE":11600,"LATITUDE":"29.1421261","LONGITUDE":"-98.6379767","URL":"http://www.redfin.com/TX/Poteet/23-Clear-Lake-Loop-78065/home/144989739","distance":1.19},{"ADDRESS":"16 Woodland Hills Rd","CITY":"Poteet","STATE":"TX","ZIP":"78065","SOLD PRICE":"72000","LOT AREA":228254,"LOT ACREAGE":5.24,"PRICE PER ACRE":13740,"LATITUDE":"29.1345288","LONGITUDE":"-98.5899322","URL":"http://www.redfin.com/TX/Poteet/16-Woodland-Hills-Rd-78065/home/104381202","distance":1.84}]},{"SITUS FULL ADDRESS":"2220 EICHMAN RD POTEET,TX 78065","SITUS CITY":"POTEET","ALTERNATE APN":"0326001000002300","COUNTY":"ATASCOSA","LOT AREA":217495,"LOT ACREAGE":4.99,"LATITUDE":"29.1229361825115","LONGITUDE":"-98.6263175965361","IN FLOOD ZONE":false,"OWNER MAILING NAME":"ALONZO SALAZAR","MAILING STREET ADDRESS":"2256 EICHMAN RD","MAIL CITY":"POTEET","MAIL STATE":"TX","MAIL ZIPZIP4":"78065-4597","MARKET TOTAL VALUE":28960,"id":34,"avgPPA":11866.666666666666,"avgPPA2":11866.666666666666,"avgPPA3":12040,"estValue":59215,"estValue2":59215,"estValue3":60080,"offer":29600,"offer2":29600,"offer3":30000,"offerPPA":5932,"jasonOffer":25000,"jasonEstValue":50000,"statusColor":"green","marketValueFlag":false,"soldArr":[{"ADDRESS":"285 Clear Lake Dr","CITY":"Poteet","STATE":"TX","ZIP":"78065","SOLD PRICE":"68000","LOT AREA":217800,"LOT ACREAGE":5,"PRICE PER ACRE":13600,"LATITUDE":"29.144674","LONGITUDE":"-98.630344","URL":"http://www.redfin.com/TX/Poteet/285-Clear-Lake-Dr-78065/home/52281845","distance":1.52},{"ADDRESS":"000 Clear Lake Loop","CITY":"Poteet","STATE":"TX","ZIP":"78065","SOLD PRICE":"55000","LOT AREA":217800,"LOT ACREAGE":5,"PRICE PER ACRE":11000,"LATITUDE":"29.1448615","LONGITUDE":"-98.6445653","URL":"http://www.redfin.com/TX/Poteet/665-Clear-Lake-Dr-78065/home/52281830","distance":1.87},{"ADDRESS":"23 Clear Lake Loop","CITY":"Poteet","STATE":"TX","ZIP":"78065","SOLD PRICE":"58000","LOT AREA":217800,"LOT ACREAGE":5,"PRICE PER ACRE":11600,"LATITUDE":"29.1421261","LONGITUDE":"-98.6379767","URL":"http://www.redfin.com/TX/Poteet/23-Clear-Lake-Loop-78065/home/144989739","distance":1.5},{"ADDRESS":"420 Clear Lake Loop","CITY":"Poteet","STATE":"TX","ZIP":"78065","SOLD PRICE":"60000","LOT AREA":217800,"LOT ACREAGE":5,"PRICE PER ACRE":12000,"LATITUDE":"29.143216","LONGITUDE":"-98.631737","URL":"http://www.redfin.com/TX/Poteet/420-Clear-Lake-Loop-78065/home/161378591","distance":1.44},{"ADDRESS":"21 Clear Lake Loop","CITY":"Poteet","STATE":"TX","ZIP":"78065","SOLD PRICE":"60000","LOT AREA":217800,"LOT ACREAGE":5,"PRICE PER ACRE":12000,"LATITUDE":"29.1421261","LONGITUDE":"-98.6379767","URL":"http://www.redfin.com/TX/Poteet/21-Clear-Lake-Loop-78065/home/144990097","distance":1.5}]},{"SITUS FULL ADDRESS":"415 W HUNT ST PLEASANTON,TX 78064","SITUS CITY":"PLEASANTON","ALTERNATE APN":"0299000003000201","COUNTY":"ATASCOSA","LOT AREA":17999,"LOT ACREAGE":0.41,"LATITUDE":"28.9598063219373","LONGITUDE":"-98.4879566173815","IN FLOOD ZONE":false,"OWNER MAILING NAME":"CALEB GALE","MAILING STREET ADDRESS":"419 W HUNT ST","MAIL CITY":"PLEASANTON","MAIL STATE":"TX","MAIL ZIPZIP4":"78064-3412","MARKET TOTAL VALUE":18000,"id":35,"avgPPA":46240,"avgPPA2":54579.333333333336,"avgPPA3":55428,"estValue":18958,"estValue2":22378,"estValue3":22725,"offer":9400,"offer2":11100,"offer3":11300,"offerPPA":22927,"jasonOffer":0,"jasonEstValue":0,"statusColor":"green","marketValueFlag":false,"soldArr":[{"ADDRESS":"TBD Trade","CITY":"Pleasanton","STATE":"TX","ZIP":"78064","SOLD PRICE":"13500","LOT AREA":13590,"LOT ACREAGE":0.31,"PRICE PER ACRE":43272,"LATITUDE":"28.967194","LONGITUDE":"-98.4786269","URL":"http://www.redfin.com/TX/Pleasanton/TBD-Trade-78064/home/113733116","distance":0.76},{"ADDRESS":"000 Depot","CITY":"Pleasanton","STATE":"TX","ZIP":"78064","SOLD PRICE":"20000","LOT AREA":16552,"LOT ACREAGE":0.38,"PRICE PER ACRE":52634,"LATITUDE":"28.962369","LONGITUDE":"-98.477408","URL":"http://www.redfin.com/TX/Pleasanton/Depot-St-78064/home/48597391","distance":0.66},{"ADDRESS":"TBD Sanchez Ave","CITY":"Pleasanton","STATE":"TX","ZIP":"78064","SOLD PRICE":"14000","LOT AREA":14244,"LOT ACREAGE":0.33,"PRICE PER ACRE":42814,"LATITUDE":"28.967194","LONGITUDE":"-98.4786269","URL":"http://www.redfin.com/TX/Pleasanton/TBD-Sanchez-Ave-78064/home/113732993","distance":0.76},{"ADDRESS":"902 Cypress St","CITY":"Jourdanton","STATE":"TX","ZIP":"78026","SOLD PRICE":"24000","LOT AREA":14810,"LOT ACREAGE":0.34,"PRICE PER ACRE":70590,"LATITUDE":"28.9349415","LONGITUDE":"-98.5554279","URL":"http://www.redfin.com/TX/Jourdanton/902-Cypress-St-78026/home/48598534","distance":4.43},{"ADDRESS":"2315 Campbell Ave","CITY":"Jourdanton","STATE":"TX","ZIP":"78026","SOLD PRICE":"35000","LOT AREA":22476,"LOT ACREAGE":0.52,"PRICE PER ACRE":67832,"LATITUDE":"28.928197","LONGITUDE":"-98.552062","URL":"http://www.redfin.com/TX/Jourdanton/2315-Campbell-Ave-78026/home/48592049","distance":4.45}]},{"SITUS FULL ADDRESS":"742 CRESTWAY RD SOMERSET,TX 78069","SITUS CITY":"SOMERSET","ALTERNATE APN":"0342600000007400","COUNTY":"ATASCOSA","LOT AREA":78234,"LOT ACREAGE":1.8,"LATITUDE":"29.1418327433104","LONGITUDE":"-98.6489696221411","IN FLOOD ZONE":false,"OWNER MAILING NAME":"DAVID & ALVINA HARRISON","MAILING STREET ADDRESS":"313 SE 40TH ST","MAIL CITY":"OKLAHOMA CITY","MAIL STATE":"OK","MAIL ZIPZIP4":"73129-3023","MARKET TOTAL VALUE":16160,"id":36,"avgPPA":23401.666666666668,"avgPPA2":23527.666666666668,"avgPPA3":23807,"estValue":42123,"estValue2":42350,"estValue3":42853,"offer":21000,"offer2":21100,"offer3":21400,"offerPPA":11667,"jasonOffer":24500,"jasonEstValue":49000,"statusColor":"green","marketValueFlag":false,"soldArr":[{"ADDRESS":"440 Ashford Cir","CITY":"Poteet","STATE":"TX","ZIP":"78065","SOLD PRICE":"39000","LOT AREA":65775,"LOT ACREAGE":1.51,"PRICE PER ACRE":25828,"LATITUDE":"29.149229","LONGITUDE":"-98.620685","URL":"http://www.redfin.com/TX/Poteet/440-Ashford-Cir-78065/home/48582392","distance":1.78},{"ADDRESS":"491 Trophy Ln","CITY":"Poteet","STATE":"TX","ZIP":"78065","SOLD PRICE":"35000","LOT AREA":65340,"LOT ACREAGE":1.5,"PRICE PER ACRE":23333,"LATITUDE":"29.140389","LONGITUDE":"-98.674593","URL":"http://www.redfin.com/TX/Poteet/491-Trophy-Ln-78065/home/48583483","distance":1.55},{"ADDRESS":"000 Eichman Rd","CITY":"Poteet","STATE":"TX","ZIP":"78065","SOLD PRICE":"46000","LOT AREA":87120,"LOT ACREAGE":2,"PRICE PER ACRE":23000,"LATITUDE":"29.126028","LONGITUDE":"-98.627858","URL":"http://www.redfin.com/TX/Poteet/Eichman-Rd-78065/home/48582450","distance":1.68},{"ADDRESS":"LOT 19 Eichman Rd","CITY":"Poteet","STATE":"TX","ZIP":"78065","SOLD PRICE":"48500","LOT AREA":87120,"LOT ACREAGE":2,"PRICE PER ACRE":24250,"LATITUDE":"29.1334287","LONGITUDE":"-98.6276295","URL":"http://www.redfin.com/TX/Poteet/LOT-19-Eichman-Rd-78065/home/146420487","distance":1.41},{"ADDRESS":"103 Grey Stone","CITY":"Poteet","STATE":"TX","ZIP":"78065","SOLD PRICE":"34000","LOT AREA":65470,"LOT ACREAGE":1.5,"PRICE PER ACRE":22622,"LATITUDE":"29.137057","LONGITUDE":"-98.674025","URL":"http://www.redfin.com/TX/Poteet/103-Grey-Stone-78065/home/48588076","distance":1.55}]},{"SITUS FULL ADDRESS":"389 PRIMROSE LN POTEET,TX 78065","SITUS CITY":"POTEET","ALTERNATE APN":"0320000002004100","COUNTY":"ATASCOSA","LOT AREA":14501,"LOT ACREAGE":0.33,"LATITUDE":"29.1493979190811","LONGITUDE":"-98.5839151016879","IN FLOOD ZONE":false,"OWNER MAILING NAME":"MICHAEL DEGOLLADO","MAILING STREET ADDRESS":"492 VIEWPOINT DR","MAIL CITY":"POTEET","MAIL STATE":"TX","MAIL ZIPZIP4":"78065-4558","MARKET TOTAL VALUE":6380,"id":37,"avgPPA":41667,"avgPPA2":22436,"avgPPA3":62501,"estValue":13750,"estValue2":7404,"estValue3":20625,"offer":6800,"offer2":3700,"offer3":10300,"offerPPA":20606,"jasonOffer":0,"jasonEstValue":0,"statusColor":"yellow","marketValueFlag":false,"soldArr":[{"ADDRESS":"0 Timbercreek Dr","CITY":"Poteet","STATE":"TX","ZIP":"78065","SOLD PRICE":"30000","LOT AREA":22651,"LOT ACREAGE":0.52,"PRICE PER ACRE":57693,"LATITUDE":"29.1565989","LONGITUDE":"-98.5907224","URL":"http://www.redfin.com/TX/Poteet/0-Timbercreek-78065/home/133739645","distance":0.65},{"ADDRESS":"45 Oak Krest Blvd","CITY":"Poteet","STATE":"TX","ZIP":"78065","SOLD PRICE":"35000","LOT AREA":22651,"LOT ACREAGE":0.52,"PRICE PER ACRE":67308,"LATITUDE":"29.130802","LONGITUDE":"-98.497189","URL":"http://www.redfin.com/TX/POTEET/45-OAK-KREST-BLVD-78065/home/48594302","distance":5.39}]},{"SITUS FULL ADDRESS":"385 MARY ANN DR LYTLE,TX 78052","SITUS CITY":"LYTLE","ALTERNATE APN":"0259305002020800","COUNTY":"ATASCOSA","LOT AREA":100014,"LOT ACREAGE":2.3,"LATITUDE":"29.1803754685616","LONGITUDE":"-98.7362084518097","IN FLOOD ZONE":false,"OWNER MAILING NAME":"MIGUEL & CLAUDIA CANTU","MAILING STREET ADDRESS":"3201 CHERRY RIDGE ST A104","MAIL CITY":"SAN ANTONIO","MAIL STATE":"TX","MAIL ZIPZIP4":"78230-4823","MARKET TOTAL VALUE":29850,"id":38,"avgPPA":25090,"avgPPA2":27078,"avgPPA3":25876,"estValue":57707,"estValue2":62279,"estValue3":59515,"offer":28800,"offer2":31100,"offer3":29700,"offerPPA":12522,"jasonOffer":0,"jasonEstValue":0,"statusColor":"green","marketValueFlag":false,"soldArr":[{"ADDRESS":"0 W Robin Lynn","CITY":"Somerset","STATE":"TX","ZIP":"78069","SOLD PRICE":"37500","LOT AREA":85813,"LOT ACREAGE":1.97,"PRICE PER ACRE":19036,"LATITUDE":"29.182963","LONGITUDE":"-98.706984","URL":"http://www.redfin.com/TX/Somerset/900-Forest-Oaks-Dr-78069/unit-D/home/48583256","distance":1.77},{"ADDRESS":"LOT 67 E Bob White","CITY":"Somerset","STATE":"TX","ZIP":"78069","SOLD PRICE":"54789","LOT AREA":84288,"LOT ACREAGE":1.93,"PRICE PER ACRE":28315,"LATITUDE":"29.1814253","LONGITUDE":"-98.7050578","URL":"http://www.redfin.com/TX/Somerset/67-E-Bob-White-Dr-78069/home/144540751","distance":1.88},{"ADDRESS":"0 Whitewing West Dr","CITY":"Somerset","STATE":"TX","ZIP":"78069","SOLD PRICE":"55000","LOT AREA":85813,"LOT ACREAGE":1.97,"PRICE PER ACRE":27919,"LATITUDE":"29.186984","LONGITUDE":"-98.708087","URL":"http://www.redfin.com/TX/Unknown/E-White-Wing-Dr-78069/home/48593518","distance":1.76},{"ADDRESS":"2 ACRES BY 95 Pinn Rd","CITY":"Lytle","STATE":"TX","ZIP":"78052","SOLD PRICE":"50000","LOT AREA":87120,"LOT ACREAGE":2,"PRICE PER ACRE":25000,"LATITUDE":"29.233294","LONGITUDE":"-98.7964137","URL":"http://www.redfin.com/TX/Lytle/2-ACRES-BY-95-Pinn-Rd-78052/home/144351112","distance":5.15},{"ADDRESS":"LOT 2 FM 3175","CITY":"Lytle","STATE":"TX","ZIP":"78052","SOLD PRICE":"62000","LOT AREA":92782,"LOT ACREAGE":2.13,"PRICE PER ACRE":29108,"LATITUDE":"29.233294","LONGITUDE":"-98.7964137","URL":"http://www.redfin.com/TX/Lytle/LOT-2-FM-3175-78052/home/146393592","distance":5.15}]},{"SITUS FULL ADDRESS":"312 COLONY DR PLEASANTON,TX 78064","SITUS CITY":"PLEASANTON","ALTERNATE APN":"0342400005001300","COUNTY":"ATASCOSA","LOT AREA":11326,"LOT ACREAGE":0.26,"LATITUDE":"28.9637093161327","LONGITUDE":"-98.5056309240613","IN FLOOD ZONE":false,"OWNER MAILING NAME":"JOSEPHINE LEAL","MAILING STREET ADDRESS":"7 GRANT","MAIL CITY":"PLEASANTON","MAIL STATE":"TX","MAIL ZIPZIP4":"78064-2419","MARKET TOTAL VALUE":30000,"id":39,"avgPPA":46240,"avgPPA2":54028,"avgPPA3":55098,"estValue":12022,"estValue2":14047,"estValue3":14325,"offer":6000,"offer2":7000,"offer3":7100,"offerPPA":23077,"jasonOffer":0,"jasonEstValue":0,"statusColor":"red","marketValueFlag":true,"soldArr":[{"ADDRESS":"TBD Trade","CITY":"Pleasanton","STATE":"TX","ZIP":"78064","SOLD PRICE":"13500","LOT AREA":13590,"LOT ACREAGE":0.31,"PRICE PER ACRE":43272,"LATITUDE":"28.967194","LONGITUDE":"-98.4786269","URL":"http://www.redfin.com/TX/Pleasanton/TBD-Trade-78064/home/113733116","distance":1.65},{"ADDRESS":"000 Depot","CITY":"Pleasanton","STATE":"TX","ZIP":"78064","SOLD PRICE":"20000","LOT AREA":16552,"LOT ACREAGE":0.38,"PRICE PER ACRE":52634,"LATITUDE":"28.962369","LONGITUDE":"-98.477408","URL":"http://www.redfin.com/TX/Pleasanton/Depot-St-78064/home/48597391","distance":1.71},{"ADDRESS":"TBD Sanchez Ave","CITY":"Pleasanton","STATE":"TX","ZIP":"78064","SOLD PRICE":"14000","LOT AREA":14244,"LOT ACREAGE":0.33,"PRICE PER ACRE":42814,"LATITUDE":"28.967194","LONGITUDE":"-98.4786269","URL":"http://www.redfin.com/TX/Pleasanton/TBD-Sanchez-Ave-78064/home/113732993","distance":1.65},{"ADDRESS":"902 Cypress St","CITY":"Jourdanton","STATE":"TX","ZIP":"78026","SOLD PRICE":"24000","LOT AREA":14810,"LOT ACREAGE":0.34,"PRICE PER ACRE":70590,"LATITUDE":"28.9349415","LONGITUDE":"-98.5554279","URL":"http://www.redfin.com/TX/Jourdanton/902-Cypress-St-78026/home/48598534","distance":3.61},{"ADDRESS":"1107 Magnolia St","CITY":"Jourdanton","STATE":"TX","ZIP":"78026","SOLD PRICE":"22500","LOT AREA":14810,"LOT ACREAGE":0.34,"PRICE PER ACRE":66178,"LATITUDE":"28.9295948","LONGITUDE":"-98.5486479","URL":"http://www.redfin.com/TX/Jourdanton/1107-Magnolia-St-78026/home/48599056","distance":3.51}]},{"SITUS FULL ADDRESS":"1050 FM 3175 LYTLE,TX 78052","SITUS CITY":"LYTLE","ALTERNATE APN":"0259701000001100","COUNTY":"ATASCOSA","LOT AREA":108900,"LOT ACREAGE":2.5,"LATITUDE":"29.2063129570792","LONGITUDE":"-98.7937448288321","IN FLOOD ZONE":false,"OWNER MAILING NAME":"WALTER TELGMANN","MAILING STREET ADDRESS":"11218 WHISPER FALLS ST","MAIL CITY":"SAN ANTONIO","MAIL STATE":"TX","MAIL ZIPZIP4":"78230-3538","MARKET TOTAL VALUE":10630,"id":40,"avgPPA":9702.666666666666,"avgPPA2":0,"avgPPA3":29108,"estValue":24257,"estValue2":0,"estValue3":72770,"offer":12100,"offer2":0,"offer3":36300,"offerPPA":4840,"jasonOffer":24500,"jasonEstValue":49000,"statusColor":"red","marketValueFlag":false,"soldArr":[{"ADDRESS":"LOT 2 FM 3175","CITY":"Lytle","STATE":"TX","ZIP":"78052","SOLD PRICE":"62000","LOT AREA":92782,"LOT ACREAGE":2.13,"PRICE PER ACRE":29108,"LATITUDE":"29.233294","LONGITUDE":"-98.7964137","URL":"http://www.redfin.com/TX/Lytle/LOT-2-FM-3175-78052/home/146393592","distance":1.87}]},{"SITUS FULL ADDRESS":"233 VIRGINIA ST PLEASANTON,TX 78064","SITUS CITY":"PLEASANTON","ALTERNATE APN":"0297000004000700","COUNTY":"ATASCOSA","LOT AREA":18452,"LOT ACREAGE":0.42,"LATITUDE":"28.9701393214118","LONGITUDE":"-98.4867408791027","IN FLOOD ZONE":false,"OWNER MAILING NAME":"GUADALUPE ALVARADO","MAILING STREET ADDRESS":"936 FLORIDA ST","MAIL CITY":"PLEASANTON","MAIL STATE":"TX","MAIL ZIPZIP4":"78064-2514","MARKET TOTAL VALUE":20300,"id":41,"avgPPA":46240,"avgPPA2":54579.333333333336,"avgPPA3":55428,"estValue":19421,"estValue2":22923,"estValue3":23280,"offer":9700,"offer2":11400,"offer3":11600,"offerPPA":23095,"jasonOffer":0,"jasonEstValue":0,"statusColor":"green","marketValueFlag":false,"soldArr":[{"ADDRESS":"TBD Trade","CITY":"Pleasanton","STATE":"TX","ZIP":"78064","SOLD PRICE":"13500","LOT AREA":13590,"LOT ACREAGE":0.31,"PRICE PER ACRE":43272,"LATITUDE":"28.967194","LONGITUDE":"-98.4786269","URL":"http://www.redfin.com/TX/Pleasanton/TBD-Trade-78064/home/113733116","distance":0.53},{"ADDRESS":"000 Depot","CITY":"Pleasanton","STATE":"TX","ZIP":"78064","SOLD PRICE":"20000","LOT AREA":16552,"LOT ACREAGE":0.38,"PRICE PER ACRE":52634,"LATITUDE":"28.962369","LONGITUDE":"-98.477408","URL":"http://www.redfin.com/TX/Pleasanton/Depot-St-78064/home/48597391","distance":0.78},{"ADDRESS":"TBD Sanchez Ave","CITY":"Pleasanton","STATE":"TX","ZIP":"78064","SOLD PRICE":"14000","LOT AREA":14244,"LOT ACREAGE":0.33,"PRICE PER ACRE":42814,"LATITUDE":"28.967194","LONGITUDE":"-98.4786269","URL":"http://www.redfin.com/TX/Pleasanton/TBD-Sanchez-Ave-78064/home/113732993","distance":0.53},{"ADDRESS":"902 Cypress St","CITY":"Jourdanton","STATE":"TX","ZIP":"78026","SOLD PRICE":"24000","LOT AREA":14810,"LOT ACREAGE":0.34,"PRICE PER ACRE":70590,"LATITUDE":"28.9349415","LONGITUDE":"-98.5554279","URL":"http://www.redfin.com/TX/Jourdanton/902-Cypress-St-78026/home/48598534","distance":4.81},{"ADDRESS":"2315 Campbell Ave","CITY":"Jourdanton","STATE":"TX","ZIP":"78026","SOLD PRICE":"35000","LOT AREA":22476,"LOT ACREAGE":0.52,"PRICE PER ACRE":67832,"LATITUDE":"28.928197","LONGITUDE":"-98.552062","URL":"http://www.redfin.com/TX/Jourdanton/2315-Campbell-Ave-78026/home/48592049","distance":4.9}]},{"SITUS FULL ADDRESS":"203 CIRCLE CT PLEASANTON,TX 78064","SITUS CITY":"PLEASANTON","ALTERNATE APN":"0342500006000100","COUNTY":"ATASCOSA","LOT AREA":14218,"LOT ACREAGE":0.33,"LATITUDE":"28.9625957887795","LONGITUDE":"-98.5270334151074","IN FLOOD ZONE":false,"OWNER MAILING NAME":"MJ INTERESTS LLC","MAILING STREET ADDRESS":"6838 STATE HIGHWAY 97 E","MAIL CITY":"FLORESVILLE","MAIL STATE":"TX","MAIL ZIPZIP4":"78114-3264","MARKET TOTAL VALUE":28860,"id":42,"avgPPA":68200,"avgPPA2":62214.666666666664,"avgPPA3":60101,"estValue":22506,"estValue2":20531,"estValue3":19833,"offer":11200,"offer2":10200,"offer3":9900,"offerPPA":33939,"jasonOffer":0,"jasonEstValue":0,"statusColor":"green","marketValueFlag":false,"soldArr":[{"ADDRESS":"TBD Trade","CITY":"Pleasanton","STATE":"TX","ZIP":"78064","SOLD PRICE":"13500","LOT AREA":13590,"LOT ACREAGE":0.31,"PRICE PER ACRE":43272,"LATITUDE":"28.967194","LONGITUDE":"-98.4786269","URL":"http://www.redfin.com/TX/Pleasanton/TBD-Trade-78064/home/113733116","distance":2.94},{"ADDRESS":"902 Cypress St","CITY":"Jourdanton","STATE":"TX","ZIP":"78026","SOLD PRICE":"24000","LOT AREA":14810,"LOT ACREAGE":0.34,"PRICE PER ACRE":70590,"LATITUDE":"28.9349415","LONGITUDE":"-98.5554279","URL":"http://www.redfin.com/TX/Jourdanton/902-Cypress-St-78026/home/48598534","distance":2.57},{"ADDRESS":"000 Depot","CITY":"Pleasanton","STATE":"TX","ZIP":"78064","SOLD PRICE":"20000","LOT AREA":16552,"LOT ACREAGE":0.38,"PRICE PER ACRE":52634,"LATITUDE":"28.962369","LONGITUDE":"-98.477408","URL":"http://www.redfin.com/TX/Pleasanton/Depot-St-78064/home/48597391","distance":3},{"ADDRESS":"2315 Campbell Ave","CITY":"Jourdanton","STATE":"TX","ZIP":"78026","SOLD PRICE":"35000","LOT AREA":22476,"LOT ACREAGE":0.52,"PRICE PER ACRE":67832,"LATITUDE":"28.928197","LONGITUDE":"-98.552062","URL":"http://www.redfin.com/TX/Jourdanton/2315-Campbell-Ave-78026/home/48592049","distance":2.82},{"ADDRESS":"1107 Magnolia St","CITY":"Jourdanton","STATE":"TX","ZIP":"78026","SOLD PRICE":"22500","LOT AREA":14810,"LOT ACREAGE":0.34,"PRICE PER ACRE":66178,"LATITUDE":"28.9295948","LONGITUDE":"-98.5486479","URL":"http://www.redfin.com/TX/Jourdanton/1107-Magnolia-St-78026/home/48599056","distance":2.63}]},{"SITUS FULL ADDRESS":"1642 MARBACH RD SOMERSET,TX 78069","SITUS CITY":"SOMERSET","ALTERNATE APN":"0342600000002500","COUNTY":"ATASCOSA","LOT AREA":50835,"LOT ACREAGE":1.17,"LATITUDE":"29.1475925169446","LONGITUDE":"-98.6461088576748","IN FLOOD ZONE":false,"OWNER MAILING NAME":"ARTURO & GLORIA IBARRA","MAILING STREET ADDRESS":"9901 W INTERSTATE 10 #1","MAIL CITY":"SAN ANTONIO","MAIL STATE":"TX","MAIL ZIPZIP4":"78230-2246","MARKET TOTAL VALUE":10500,"id":43,"avgPPA":51765.333333333336,"avgPPA2":30800.333333333332,"avgPPA3":42766,"estValue":60565,"estValue2":36036,"estValue3":50036,"offer":30200,"offer2":18000,"offer3":25000,"offerPPA":25812,"jasonOffer":22500,"jasonEstValue":45000,"statusColor":"green","marketValueFlag":false,"soldArr":[{"ADDRESS":"170 Eaglerock","CITY":"Poteet","STATE":"TX","ZIP":"78064","SOLD PRICE":"32000","LOT AREA":44431,"LOT ACREAGE":1.02,"PRICE PER ACRE":31373,"LATITUDE":"29.136297","LONGITUDE":"-98.672484","URL":"http://www.redfin.com/TX/Unknown/Red-Fox-78065/home/48594940","distance":1.77},{"ADDRESS":"84 Grey Fox","CITY":"Poteet","STATE":"TX","ZIP":"78065","SOLD PRICE":"35200","LOT AREA":43560,"LOT ACREAGE":1,"PRICE PER ACRE":35200,"LATITUDE":"29.134707","LONGITUDE":"-98.673687","URL":"http://www.redfin.com/TX/Poteet/84-Grey-Fox-78065/home/146953285","distance":1.89},{"ADDRESS":"315 Eaglerock","CITY":"Poteet","STATE":"TX","ZIP":"78064","SOLD PRICE":"103000","LOT AREA":45738,"LOT ACREAGE":1.05,"PRICE PER ACRE":98095,"LATITUDE":"29.134614","LONGITUDE":"-98.671562","URL":"http://www.redfin.com/TX/Poteet/325-Eagle-Rock-78065/home/48597844","distance":1.78},{"ADDRESS":"440 Ashford Cir","CITY":"Poteet","STATE":"TX","ZIP":"78065","SOLD PRICE":"39000","LOT AREA":65775,"LOT ACREAGE":1.51,"PRICE PER ACRE":25828,"LATITUDE":"29.149229","LONGITUDE":"-98.620685","URL":"http://www.redfin.com/TX/Poteet/440-Ashford-Cir-78065/home/48582392","distance":1.54},{"ADDRESS":"491 Trophy Ln","CITY":"Poteet","STATE":"TX","ZIP":"78065","SOLD PRICE":"35000","LOT AREA":65340,"LOT ACREAGE":1.5,"PRICE PER ACRE":23333,"LATITUDE":"29.140389","LONGITUDE":"-98.674593","URL":"http://www.redfin.com/TX/Poteet/491-Trophy-Ln-78065/home/48583483","distance":1.79}]},{"SITUS FULL ADDRESS":"663 CRESTWAY RD SOMERSET,TX 78069","SITUS CITY":"SOMERSET","ALTERNATE APN":"0342600000004500","COUNTY":"ATASCOSA","LOT AREA":80934,"LOT ACREAGE":1.86,"LATITUDE":"29.1426285967785","LONGITUDE":"-98.6470174660218","IN FLOOD ZONE":false,"OWNER MAILING NAME":"ELIAS PEREZ","MAILING STREET ADDRESS":"13510 QUINTANA RD","MAIL CITY":"VON ORMY","MAIL STATE":"TX","MAIL ZIPZIP4":"78073-2805","MARKET TOTAL VALUE":16720,"id":44,"avgPPA":24359.333333333332,"avgPPA2":23527.666666666668,"avgPPA3":23807,"estValue":45308,"estValue2":43761,"estValue3":44281,"offer":22600,"offer2":21800,"offer3":22100,"offerPPA":12151,"jasonOffer":24500,"jasonEstValue":49000,"statusColor":"green","marketValueFlag":false,"soldArr":[{"ADDRESS":"440 Ashford Cir","CITY":"Poteet","STATE":"TX","ZIP":"78065","SOLD PRICE":"39000","LOT AREA":65775,"LOT ACREAGE":1.51,"PRICE PER ACRE":25828,"LATITUDE":"29.149229","LONGITUDE":"-98.620685","URL":"http://www.redfin.com/TX/Poteet/440-Ashford-Cir-78065/home/48582392","distance":1.65},{"ADDRESS":"491 Trophy Ln","CITY":"Poteet","STATE":"TX","ZIP":"78065","SOLD PRICE":"35000","LOT AREA":65340,"LOT ACREAGE":1.5,"PRICE PER ACRE":23333,"LATITUDE":"29.140389","LONGITUDE":"-98.674593","URL":"http://www.redfin.com/TX/Poteet/491-Trophy-Ln-78065/home/48583483","distance":1.67},{"ADDRESS":"000 Eichman Rd","CITY":"Poteet","STATE":"TX","ZIP":"78065","SOLD PRICE":"46000","LOT AREA":87120,"LOT ACREAGE":2,"PRICE PER ACRE":23000,"LATITUDE":"29.126028","LONGITUDE":"-98.627858","URL":"http://www.redfin.com/TX/Poteet/Eichman-Rd-78065/home/48582450","distance":1.63},{"ADDRESS":"LOT 19 Eichman Rd","CITY":"Poteet","STATE":"TX","ZIP":"78065","SOLD PRICE":"48500","LOT AREA":87120,"LOT ACREAGE":2,"PRICE PER ACRE":24250,"LATITUDE":"29.1334287","LONGITUDE":"-98.6276295","URL":"http://www.redfin.com/TX/Poteet/LOT-19-Eichman-Rd-78065/home/146420487","distance":1.33},{"ADDRESS":"103 Grey Stone","CITY":"Poteet","STATE":"TX","ZIP":"78065","SOLD PRICE":"34000","LOT AREA":65470,"LOT ACREAGE":1.5,"PRICE PER ACRE":22622,"LATITUDE":"29.137057","LONGITUDE":"-98.674025","URL":"http://www.redfin.com/TX/Poteet/103-Grey-Stone-78065/home/48588076","distance":1.67}]},{"SITUS FULL ADDRESS":"31 SUNDOWN LN POTEET,TX 78065","SITUS CITY":"POTEET","ALTERNATE APN":"0320000001000200","COUNTY":"ATASCOSA","LOT AREA":14231,"LOT ACREAGE":0.33,"LATITUDE":"29.150355665576","LONGITUDE":"-98.5892381364117","IN FLOOD ZONE":false,"OWNER MAILING NAME":"TERI & ALEJANDRO ZAVALA","MAILING STREET ADDRESS":"15 SUNDOWN LN","MAIL CITY":"POTEET","MAIL STATE":"TX","MAIL ZIPZIP4":"78065-4503","MARKET TOTAL VALUE":6260,"id":45,"avgPPA":41667,"avgPPA2":22436,"avgPPA3":62501,"estValue":13750,"estValue2":7404,"estValue3":20625,"offer":6800,"offer2":3700,"offer3":10300,"offerPPA":20606,"jasonOffer":0,"jasonEstValue":0,"statusColor":"yellow","marketValueFlag":false,"soldArr":[{"ADDRESS":"0 Timbercreek Dr","CITY":"Poteet","STATE":"TX","ZIP":"78065","SOLD PRICE":"30000","LOT AREA":22651,"LOT ACREAGE":0.52,"PRICE PER ACRE":57693,"LATITUDE":"29.1565989","LONGITUDE":"-98.5907224","URL":"http://www.redfin.com/TX/Poteet/0-Timbercreek-78065/home/133739645","distance":0.44},{"ADDRESS":"45 Oak Krest Blvd","CITY":"Poteet","STATE":"TX","ZIP":"78065","SOLD PRICE":"35000","LOT AREA":22651,"LOT ACREAGE":0.52,"PRICE PER ACRE":67308,"LATITUDE":"29.130802","LONGITUDE":"-98.497189","URL":"http://www.redfin.com/TX/POTEET/45-OAK-KREST-BLVD-78065/home/48594302","distance":5.72}]},{"SITUS FULL ADDRESS":"322 MARBACH RD SOMERSET,TX 78069","SITUS CITY":"SOMERSET","ALTERNATE APN":"0334200000002300","COUNTY":"ATASCOSA","LOT AREA":56628,"LOT ACREAGE":1.3,"LATITUDE":"29.1634948619129","LONGITUDE":"-98.6451617372827","IN FLOOD ZONE":false,"OWNER MAILING NAME":"ANDRES & AIDA LOPEZ","MAILING STREET ADDRESS":"9071 FOXGROVE WAY","MAIL CITY":"SAN ANTONIO","MAIL STATE":"TX","MAIL ZIPZIP4":"78251-4126","MARKET TOTAL VALUE":12450,"id":46,"avgPPA":26844.666666666668,"avgPPA2":30800.333333333332,"avgPPA3":42766,"estValue":34898,"estValue2":40040,"estValue3":55596,"offer":17400,"offer2":20000,"offer3":27700,"offerPPA":13385,"jasonOffer":22500,"jasonEstValue":45000,"statusColor":"green","marketValueFlag":false,"soldArr":[{"ADDRESS":"440 Ashford Cir","CITY":"Poteet","STATE":"TX","ZIP":"78065","SOLD PRICE":"39000","LOT AREA":65775,"LOT ACREAGE":1.51,"PRICE PER ACRE":25828,"LATITUDE":"29.149229","LONGITUDE":"-98.620685","URL":"http://www.redfin.com/TX/Poteet/440-Ashford-Cir-78065/home/48582392","distance":1.78},{"ADDRESS":"170 Eaglerock","CITY":"Poteet","STATE":"TX","ZIP":"78064","SOLD PRICE":"32000","LOT AREA":44431,"LOT ACREAGE":1.02,"PRICE PER ACRE":31373,"LATITUDE":"29.136297","LONGITUDE":"-98.672484","URL":"http://www.redfin.com/TX/Unknown/Red-Fox-78065/home/48594940","distance":2.5},{"ADDRESS":"84 Grey Fox","CITY":"Poteet","STATE":"TX","ZIP":"78065","SOLD PRICE":"35200","LOT AREA":43560,"LOT ACREAGE":1,"PRICE PER ACRE":35200,"LATITUDE":"29.134707","LONGITUDE":"-98.673687","URL":"http://www.redfin.com/TX/Poteet/84-Grey-Fox-78065/home/146953285","distance":2.63},{"ADDRESS":"315 Eaglerock","CITY":"Poteet","STATE":"TX","ZIP":"78064","SOLD PRICE":"103000","LOT AREA":45738,"LOT ACREAGE":1.05,"PRICE PER ACRE":98095,"LATITUDE":"29.134614","LONGITUDE":"-98.671562","URL":"http://www.redfin.com/TX/Poteet/325-Eagle-Rock-78065/home/48597844","distance":2.55},{"ADDRESS":"491 Trophy Ln","CITY":"Poteet","STATE":"TX","ZIP":"78065","SOLD PRICE":"35000","LOT AREA":65340,"LOT ACREAGE":1.5,"PRICE PER ACRE":23333,"LATITUDE":"29.140389","LONGITUDE":"-98.674593","URL":"http://www.redfin.com/TX/Poteet/491-Trophy-Ln-78065/home/48583483","distance":2.39}]},{"SITUS FULL ADDRESS":"95 VIEWPOINT DR POTEET,TX 78065","SITUS CITY":"POTEET","ALTERNATE APN":"0330000004000700","COUNTY":"ATASCOSA","LOT AREA":15002,"LOT ACREAGE":0.34,"LATITUDE":"29.1541724781628","LONGITUDE":"-98.5922735170979","IN FLOOD ZONE":false,"OWNER MAILING NAME":"RAUL MONTANO","MAILING STREET ADDRESS":"1202 NANTUCKET ST","MAIL CITY":"PASADENA","MAIL STATE":"TX","MAIL ZIPZIP4":"77503-2833","MARKET TOTAL VALUE":6600,"id":47,"avgPPA":41667,"avgPPA2":22436,"avgPPA3":62501,"estValue":14167,"estValue2":7628,"estValue3":21250,"offer":7000,"offer2":3800,"offer3":10600,"offerPPA":20588,"jasonOffer":0,"jasonEstValue":0,"statusColor":"yellow","marketValueFlag":false,"soldArr":[{"ADDRESS":"0 Timbercreek Dr","CITY":"Poteet","STATE":"TX","ZIP":"78065","SOLD PRICE":"30000","LOT AREA":22651,"LOT ACREAGE":0.52,"PRICE PER ACRE":57693,"LATITUDE":"29.1565989","LONGITUDE":"-98.5907224","URL":"http://www.redfin.com/TX/Poteet/0-Timbercreek-78065/home/133739645","distance":0.19},{"ADDRESS":"45 Oak Krest Blvd","CITY":"Poteet","STATE":"TX","ZIP":"78065","SOLD PRICE":"35000","LOT AREA":22651,"LOT ACREAGE":0.52,"PRICE PER ACRE":67308,"LATITUDE":"29.130802","LONGITUDE":"-98.497189","URL":"http://www.redfin.com/TX/POTEET/45-OAK-KREST-BLVD-78065/home/48594302","distance":5.96}]},{"SITUS FULL ADDRESS":"8 AUTUMN LN POTEET,TX 78065","SITUS CITY":"POTEET","ALTERNATE APN":"0320000004000100","COUNTY":"ATASCOSA","LOT AREA":14501,"LOT ACREAGE":0.33,"LATITUDE":"29.1478702623138","LONGITUDE":"-98.5895596607254","IN FLOOD ZONE":false,"OWNER MAILING NAME":"LETICIA MARTINEZ","MAILING STREET ADDRESS":"26 AUTUMN LN","MAIL CITY":"POTEET","MAIL STATE":"TX","MAIL ZIPZIP4":"78065-4511","MARKET TOTAL VALUE":6380,"id":48,"avgPPA":41667,"avgPPA2":22436,"avgPPA3":62501,"estValue":13750,"estValue2":7404,"estValue3":20625,"offer":6800,"offer2":3700,"offer3":10300,"offerPPA":20606,"jasonOffer":0,"jasonEstValue":0,"statusColor":"yellow","marketValueFlag":false,"soldArr":[{"ADDRESS":"0 Timbercreek Dr","CITY":"Poteet","STATE":"TX","ZIP":"78065","SOLD PRICE":"30000","LOT AREA":22651,"LOT ACREAGE":0.52,"PRICE PER ACRE":57693,"LATITUDE":"29.1565989","LONGITUDE":"-98.5907224","URL":"http://www.redfin.com/TX/Poteet/0-Timbercreek-78065/home/133739645","distance":0.61},{"ADDRESS":"45 Oak Krest Blvd","CITY":"Poteet","STATE":"TX","ZIP":"78065","SOLD PRICE":"35000","LOT AREA":22651,"LOT ACREAGE":0.52,"PRICE PER ACRE":67308,"LATITUDE":"29.130802","LONGITUDE":"-98.497189","URL":"http://www.redfin.com/TX/POTEET/45-OAK-KREST-BLVD-78065/home/48594302","distance":5.7}]},{"SITUS FULL ADDRESS":"130 EILEEN DR PLEASANTON,TX 78064","SITUS CITY":"PLEASANTON","ALTERNATE APN":"0322500002000300","COUNTY":"ATASCOSA","LOT AREA":47916,"LOT ACREAGE":1.1,"LATITUDE":"28.9609925228997","LONGITUDE":"-98.5143614042611","IN FLOOD ZONE":false,"OWNER MAILING NAME":"KENNETH & HATTIE HIERHOLZER","MAILING STREET ADDRESS":"106 CAMPBELL LN","MAIL CITY":"PLEASANTON","MAIL STATE":"TX","MAIL ZIPZIP4":"78064-2908","MARKET TOTAL VALUE":38500,"id":49,"avgPPA":30362.333333333332,"avgPPA2":27529,"avgPPA3":27012,"estValue":33399,"estValue2":30282,"estValue3":29713,"offer":16600,"offer2":15100,"offer3":14800,"offerPPA":15091,"jasonOffer":17000,"jasonEstValue":34000,"statusColor":"green","marketValueFlag":false,"soldArr":[{"ADDRESS":"T.B.D. Massad Dr","CITY":"Pleasanton","STATE":"TX","ZIP":"78064","SOLD PRICE":"32500","LOT AREA":43560,"LOT ACREAGE":1,"PRICE PER ACRE":32500,"LATITUDE":"28.9791782","LONGITUDE":"-98.508616","URL":"http://www.redfin.com/TX/Pleasanton/T-B-D-Massad-St-78064/home/147409557","distance":1.3},{"ADDRESS":"TBD Massad Dr","CITY":"Pleasanton","STATE":"TX","ZIP":"78064","SOLD PRICE":"32500","LOT AREA":43560,"LOT ACREAGE":1,"PRICE PER ACRE":32500,"LATITUDE":"28.9791782","LONGITUDE":"-98.508616","URL":"http://www.redfin.com/TX/Pleasanton/TBD-Massad-St-78064/home/147409137","distance":1.3},{"ADDRESS":"LOTS 1-8 Cypress St","CITY":"Jourdanton","STATE":"TX","ZIP":"78026","SOLD PRICE":"36000","LOT AREA":60112,"LOT ACREAGE":1.38,"PRICE PER ACRE":26087,"LATITUDE":"28.9180294","LONGITUDE":"-98.5464068","URL":"http://www.redfin.com/TX/Jourdanton/LOTS-1-8-Cypress-St-78026/home/113690012","distance":3.54},{"ADDRESS":"002 Howard Rd","CITY":"Poteet","STATE":"TX","ZIP":"78065","SOLD PRICE":"24000","LOT AREA":43560,"LOT ACREAGE":1,"PRICE PER ACRE":24000,"LATITUDE":"29.030852","LONGITUDE":"-98.5632499","URL":"http://www.redfin.com/TX/Poteet/002-Howard-Rd-78065/home/108587164","distance":5.66},{"ADDRESS":"TRACT 2 DE LA Garza Ln","CITY":"Poteet","STATE":"TX","ZIP":"78065","SOLD PRICE":"19975","LOT AREA":43560,"LOT ACREAGE":1,"PRICE PER ACRE":19975,"LATITUDE":"29.0405241","LONGITUDE":"-98.5680739","URL":"http://www.redfin.com/TX/Poteet/TRACT-2-DE-LA-Garza-Ln-78065/home/144673056","distance":6.38}]},{"SITUS FULL ADDRESS":"621 DUCK ST PLEASANTON,TX 78064","SITUS CITY":"PLEASANTON","ALTERNATE APN":"0280000000021101","COUNTY":"ATASCOSA","LOT AREA":20399,"LOT ACREAGE":0.47,"LATITUDE":"28.966831623494","LONGITUDE":"-98.4912651079187","IN FLOOD ZONE":false,"OWNER MAILING NAME":"MORGAN FAMILY LIMITED PARTNERSHIP I","MAILING STREET ADDRESS":"703 RIVER RD","MAIL CITY":"SAN ANTONIO","MAIL STATE":"TX","MAIL ZIPZIP4":"78212-3124","MARKET TOTAL VALUE":18360,"id":50,"avgPPA":46240,"avgPPA2":54579.333333333336,"avgPPA3":55428,"estValue":21733,"estValue2":25652,"estValue3":26051,"offer":10800,"offer2":12800,"offer3":13000,"offerPPA":22979,"jasonOffer":0,"jasonEstValue":0,"statusColor":"green","marketValueFlag":false,"soldArr":[{"ADDRESS":"TBD Trade","CITY":"Pleasanton","STATE":"TX","ZIP":"78064","SOLD PRICE":"13500","LOT AREA":13590,"LOT ACREAGE":0.31,"PRICE PER ACRE":43272,"LATITUDE":"28.967194","LONGITUDE":"-98.4786269","URL":"http://www.redfin.com/TX/Pleasanton/TBD-Trade-78064/home/113733116","distance":0.76},{"ADDRESS":"000 Depot","CITY":"Pleasanton","STATE":"TX","ZIP":"78064","SOLD PRICE":"20000","LOT AREA":16552,"LOT ACREAGE":0.38,"PRICE PER ACRE":52634,"LATITUDE":"28.962369","LONGITUDE":"-98.477408","URL":"http://www.redfin.com/TX/Pleasanton/Depot-St-78064/home/48597391","distance":0.89},{"ADDRESS":"TBD Sanchez Ave","CITY":"Pleasanton","STATE":"TX","ZIP":"78064","SOLD PRICE":"14000","LOT AREA":14244,"LOT ACREAGE":0.33,"PRICE PER ACRE":42814,"LATITUDE":"28.967194","LONGITUDE":"-98.4786269","URL":"http://www.redfin.com/TX/Pleasanton/TBD-Sanchez-Ave-78064/home/113732993","distance":0.76},{"ADDRESS":"902 Cypress St","CITY":"Jourdanton","STATE":"TX","ZIP":"78026","SOLD PRICE":"24000","LOT AREA":14810,"LOT ACREAGE":0.34,"PRICE PER ACRE":70590,"LATITUDE":"28.9349415","LONGITUDE":"-98.5554279","URL":"http://www.redfin.com/TX/Jourdanton/902-Cypress-St-78026/home/48598534","distance":4.46},{"ADDRESS":"2315 Campbell Ave","CITY":"Jourdanton","STATE":"TX","ZIP":"78026","SOLD PRICE":"35000","LOT AREA":22476,"LOT ACREAGE":0.52,"PRICE PER ACRE":67832,"LATITUDE":"28.928197","LONGITUDE":"-98.552062","URL":"http://www.redfin.com/TX/Jourdanton/2315-Campbell-Ave-78026/home/48592049","distance":4.54}]},{"SITUS FULL ADDRESS":"214 W ROBIN LYNN DR SOMERSET,TX 78069","SITUS CITY":"SOMERSET","ALTERNATE APN":"0214001000005000","COUNTY":"ATASCOSA","LOT AREA":85813,"LOT ACREAGE":1.97,"LATITUDE":"29.1832611788706","LONGITUDE":"-98.7101160817101","IN FLOOD ZONE":false,"OWNER MAILING NAME":"DAVID & MONICA AYALA","MAILING STREET ADDRESS":"1005 PRIVATE ROAD 92","MAIL CITY":"SOMERSET","MAIL STATE":"TX","MAIL ZIPZIP4":"78069-3737","MARKET TOTAL VALUE":12810,"id":51,"avgPPA":25090,"avgPPA2":25950.666666666668,"avgPPA3":25041,"estValue":49427,"estValue2":51123,"estValue3":49331,"offer":24700,"offer2":25500,"offer3":24600,"offerPPA":12538,"jasonOffer":24500,"jasonEstValue":49000,"statusColor":"green","marketValueFlag":false,"soldArr":[{"ADDRESS":"0 W Robin Lynn","CITY":"Somerset","STATE":"TX","ZIP":"78069","SOLD PRICE":"37500","LOT AREA":85813,"LOT ACREAGE":1.97,"PRICE PER ACRE":19036,"LATITUDE":"29.182963","LONGITUDE":"-98.706984","URL":"http://www.redfin.com/TX/Somerset/900-Forest-Oaks-Dr-78069/unit-D/home/48583256","distance":0.19},